#Written by Robertson Geologging WinLogger V1.5/410		
~VERSION INFORMATION		
#------------------------------------------------------------------------------		
 VERS. 2.0 : CWLS LOG ASCII STANDARD - VERSION 2.0		
 WRAP. NO  : ONE LINE PER DEPTH STEP		
~WELL INFORMATION		
#MNEM.UNIT         DATA                                DESCRIPTION OF MNEMONIC		
#------------------------------------------------------------------------------		
 STRT.M        348.0000                            :   START DEPTH		
 STOP.M          1.8300                            :   STOP DEPTH		
 STEP.M         -0.0100                            :   STEP VALUE		
 NULL.        -999.2500                            :   NULL VALUE		
 COMP.    GEUSd.                                   :   COMPANY NAME		
 WELL.    59.459                                   :   WELL NAME		
 FLD.     Jylland                                  :   FIELD NAME		
 LOC.     N/A                                      :   LOCATION		
 PROV.    N/A                                      :   PROVINCE		
 SRVC.    N/A                                      :   SERVICE COMPANY NAME		
 DATE.    26 May 14                                :   DATE		
 UWI.     N/A                                      :   UNIQUE WELL IDENTIFIER		
~PARAMETER INFORMATION		
#MNEMO.UNIT         VALUE                 DESCRIPTION OF MNEMONIC		
#------------------------------------------------------------------------------		
~OTHER INFORMATION SECTION		
#------------------------------------------------------------------------------		
~CURVE INFORMATION		
#MNEMO.UNIT         API CODE              CURVE DESCRIPTION		
#------------------------------------------------------------------------------		
 DEPTH.M                                 :   0     Depth		
 NGAM.API                                :   1     Natural Gamma		
 COND.mS/m                               :   2     Conductivity		
#------------------------------------------------------------------------------		
~A  DEPTH          NGAM          COND		
348	-999,25	-999,25
347,99	-999,25	-999,25
347,98	-999,25	-999,25
347,97	-999,25	-999,25
347,96	-999,25	-999,25
347,95	-999,25	-999,25
347,94	-999,25	-999,25
347,93	-999,25	-999,25
347,92	-999,25	-999,25
347,91	-999,25	-999,25
347,9	-999,25	-999,25
347,89	-999,25	-999,25
347,88	-999,25	-999,25
347,87	-999,25	-999,25
347,86	-999,25	-999,25
347,85	-999,25	-999,25
347,84	-999,25	-999,25
347,83	-999,25	-999,25
347,82	-999,25	-999,25
347,81	-999,25	-999,25
347,8	-999,25	-999,25
347,79	-999,25	-999,25
347,78	-999,25	-999,25
347,77	-999,25	-999,25
347,76	-999,25	-999,25
347,75	-999,25	-999,25
347,74	-999,25	-999,25
347,73	-999,25	-999,25
347,72	-999,25	-999,25
347,71	-999,25	-999,25
347,7	-999,25	-999,25
347,69	-999,25	-999,25
347,68	-999,25	-999,25
347,67	-999,25	-999,25
347,66	-999,25	-999,25
347,65	-999,25	-999,25
347,64	-999,25	-999,25
347,63	-999,25	-999,25
347,62	-999,25	-999,25
347,61	-999,25	-999,25
347,6	-999,25	-999,25
347,59	-999,25	-999,25
347,58	-999,25	-857,43
347,57	-999,25	-715,59
347,56	-999,25	-573,76
347,55	-999,25	-431,99
347,54	-999,25	-290,3
347,53	-999,25	-148,66
347,52	-999,25	-7,1
347,51	-999,25	134,4
347,5	-999,25	275,82
347,49	-999,25	417,15
347,48	-999,25	558,39
347,47	-999,25	557,73
347,46	-999,25	556,98
347,45	-999,25	556,17
347,44	-999,25	555,33
347,43	-999,25	554,46
347,42	-999,25	553,55
347,41	-999,25	552,63
347,4	-999,25	551,67
347,39	-999,25	550,71
347,38	-999,25	549,73
347,37	-999,25	548,7
347,36	-999,25	547,66
347,35	-999,25	546,58
347,34	-999,25	545,48
347,33	-999,25	544,39
347,32	-999,25	543,28
347,31	-999,25	542,17
347,3	-999,25	541,06
347,29	-999,25	539,93
347,28	-999,25	538,77
347,27	-999,25	537,58
347,26	-999,25	536,42
347,25	-999,25	535,28
347,24	-999,25	534,14
347,23	-999,25	533
347,22	-999,25	531,89
347,21	-999,25	530,79
347,2	-999,25	529,76
347,19	-999,25	528,77
347,18	-999,25	527,84
347,17	-999,25	526,99
347,16	-999,25	526,29
347,15	-999,25	525,67
347,14	-999,25	525,14
347,13	-999,25	524,68
347,12	-999,25	524,31
347,11	-999,25	523,99
347,1	-999,25	523,77
347,09	-999,25	523,59
347,08	-999,25	523,5
347,07	-999,25	523,49
347,06	-999,25	523,52
347,05	-999,25	523,55
347,04	-999,25	523,59
347,03	-999,25	523,65
347,02	-999,25	523,79
347,01	-999,25	523,94
347	-999,25	524,15
346,99	-999,25	524,39
346,98	-999,25	524,66
346,97	-999,25	524,9
346,96	-999,25	525,13
346,95	-999,25	525,36
346,94	-999,25	525,61
346,93	-999,25	525,86
346,92	-999,25	526,11
346,91	-999,25	526,3
346,9	-999,25	526,47
346,89	-999,25	526,57
346,88	-999,25	526,63
346,87	-999,25	526,65
346,86	-999,25	526,63
346,85	-999,25	526,55
346,84	-999,25	526,44
346,83	-999,25	526,33
346,82	-999,25	526,25
346,81	-999,25	526,17
346,8	-999,25	526,12
346,79	-999,25	526,11
346,78	-999,25	526,13
346,77	-999,25	526,17
346,76	-999,25	526,23
346,75	-999,25	526,31
346,74	-999,25	526,44
346,73	-999,25	526,6
346,72	-999,25	526,73
346,71	-999,25	526,85
346,7	-999,25	526,95
346,69	-999,25	527,06
346,68	-999,25	527,16
346,67	-999,25	527,31
346,66	-999,25	527,47
346,65	-999,25	527,64
346,64	-999,25	527,85
346,63	-999,25	528,09
346,62	-999,25	528,35
346,61	-999,25	528,64
346,6	-999,25	528,96
346,59	-999,25	529,3
346,58	-999,25	529,63
346,57	-999,25	529,93
346,56	-999,25	530,18
346,55	-999,25	530,48
346,54	-999,25	530,79
346,53	-999,25	531,12
346,52	-999,25	531,43
346,51	-999,25	531,74
346,5	-999,25	532,06
346,49	-999,25	532,38
346,48	-999,25	532,71
346,47	-999,25	533,06
346,46	-999,25	533,46
346,45	-999,25	533,89
346,44	-999,25	534,27
346,43	-999,25	534,62
346,42	-999,25	534,97
346,41	-999,25	535,32
346,4	-999,25	535,65
346,39	-999,25	535,96
346,38	-999,25	536,26
346,37	-999,25	536,52
346,36	-999,25	536,73
346,35	1587,9	536,9
346,34	1646,86	537,05
346,33	1706,19	537,2
346,32	1765,25	537,31
346,31	1824,95	537,39
346,3	1884,01	537,47
346,29	1942,79	537,52
346,28	2001,57	537,53
346,27	2060,62	537,53
346,26	2119,4	537,52
346,25	2178,46	537,49
346,24	2237,51	537,43
346,23	2297,68	537,38
346,22	2357,19	537,35
346,21	2416,25	537,33
346,2	2475,4	537,3
346,19	2534,18	537,25
346,18	6,08	537,26
346,17	6,27	537,31
346,16	6,73	537,37
346,15	6,45	537,45
346,14	5,81	537,54
346,13	5,53	537,64
346,12	5,53	537,71
346,11	6,18	537,76
346,1	5,9	537,85
346,09	6,54	537,96
346,08	6,27	538,1
346,07	5,99	538,21
346,06	4,61	538,32
346,05	5,35	538,43
346,04	5,71	538,55
346,03	5,35	538,71
346,02	5,35	538,9
346,01	5,07	539,1
346	5,07	539,29
345,99	4,06	539,44
345,98	4,7	539,59
345,97	4,42	539,75
345,96	4,7	539,89
345,95	5,44	540,01
345,94	5,07	540,1
345,93	5,44	540,16
345,92	5,07	540,17
345,91	5,07	540,14
345,9	5,07	540,06
345,89	5,07	539,95
345,88	4,33	539,84
345,87	3,96	539,67
345,86	5,35	539,44
345,85	5,62	539,18
345,84	5,62	538,88
345,83	5,53	538,57
345,82	7,01	538,24
345,81	7,01	537,91
345,8	7,01	537,58
345,79	7,01	537,25
345,78	7,01	536,94
345,77	7,37	536,61
345,76	7,74	536,28
345,75	7,74	535,96
345,74	8,48	535,65
345,73	8,48	535,36
345,72	8,48	535,07
345,71	8,02	534,78
345,7	7,74	534,47
345,69	6,36	534,17
345,68	6,08	533,9
345,67	6,36	533,62
345,66	6,45	533,35
345,65	5,35	533,13
345,64	4,7	532,93
345,63	5,07	532,76
345,62	4,79	532,59
345,61	4,42	532,42
345,6	4,42	532,27
345,59	4,06	532,15
345,58	3,78	532,02
345,57	3,69	531,89
345,56	4,42	531,75
345,55	4,42	531,59
345,54	4,52	531,37
345,53	5,16	531,09
345,52	5,53	530,76
345,51	6,18	530,38
345,5	5,9	530
345,49	6,18	529,59
345,48	6,18	529,16
345,47	7,65	528,75
345,46	7,93	528,38
345,45	8,3	528,04
345,44	8,2	527,72
345,43	7,93	527,45
345,42	7,83	527,26
345,41	7,83	527,1
345,4	7,47	526,95
345,39	6,73	526,79
345,38	7,01	526,63
345,37	6,64	526,47
345,36	6,27	526,29
345,35	7,01	526,05
345,34	6,73	525,78
345,33	7,37	525,48
345,32	7,1	525,16
345,31	7,01	524,8
345,3	5,9	524,41
345,29	6,27	524,06
345,28	6,27	523,73
345,27	6,36	523,41
345,26	6,27	523,1
345,25	7,47	522,78
345,24	7,83	522,44
345,23	7,93	522,06
345,22	7,93	521,61
345,21	8,48	521,1
345,2	8,48	520,52
345,19	8,57	519,86
345,18	7,47	519,1
345,17	7,93	518,26
345,16	7,65	517,36
345,15	7,65	516,41
345,14	7,74	515,43
345,13	7,37	514,43
345,12	7,56	513,45
345,11	8,39	512,51
345,1	8,85	511,63
345,09	8,94	510,81
345,08	8,3	510,06
345,07	7,93	509,41
345,06	7,93	508,86
345,05	7,93	508,34
345,04	7,47	507,89
345,03	7,83	507,48
345,02	8,3	507,13
345,01	8,3	506,81
345	7,83	506,54
344,99	7,47	506,28
344,98	7,47	506,07
344,97	8,3	505,89
344,96	9,13	505,68
344,95	8,85	505,49
344,94	8,57	505,33
344,93	7,74	505,17
344,92	7,37	505,02
344,91	7,01	504,89
344,9	7,37	504,75
344,89	8,85	504,6
344,88	8,85	504,42
344,87	8,48	504,19
344,86	8,57	503,94
344,85	8,2	503,7
344,84	10,23	503,44
344,83	10,78	503,12
344,82	11,15	502,75
344,81	11,71	502,33
344,8	10,88	501,87
344,79	10,51	501,38
344,78	9,95	500,86
344,77	9,49	500,31
344,76	9,95	499,75
344,75	11,15	499,17
344,74	12,07	498,56
344,73	11,71	497,9
344,72	11,25	497,25
344,71	12,17	496,65
344,7	12,17	496,07
344,69	12,17	495,5
344,68	13,09	494,95
344,67	11,06	494,43
344,66	11,06	493,94
344,65	10,69	493,47
344,64	11,15	493,02
344,63	10,78	492,6
344,62	11,25	492,23
344,61	11,89	491,89
344,6	12,35	491,55
344,59	11,89	491,21
344,58	11,61	490,88
344,57	10,23	490,57
344,56	10,23	490,27
344,55	9,31	489,99
344,54	9,49	489,72
344,53	10,69	489,47
344,52	10,69	489,19
344,51	9,77	488,89
344,5	10,69	488,6
344,49	10,23	488,34
344,48	11,25	488,1
344,47	9,86	487,9
344,46	12,35	487,71
344,45	13,27	487,54
344,44	13,18	487,38
344,43	13,27	487,23
344,42	14,66	487,05
344,41	14,75	486,88
344,4	16,59	486,71
344,39	17,97	486,51
344,38	18,99	486,27
344,37	19,73	486,01
344,36	20	485,71
344,35	21,38	485,38
344,34	21,94	485,03
344,33	22,4	484,68
344,32	22,95	484,35
344,31	23,78	484,04
344,3	25,16	483,79
344,29	23,6	483,6
344,28	22,21	483,44
344,27	21,75	483,3
344,26	22,21	483,21
344,25	21,75	483,14
344,24	22,21	483,07
344,23	21,75	483
344,22	21,75	482,91
344,21	20,28	482,78
344,2	19,36	482,61
344,19	19,36	482,42
344,18	17,97	482,25
344,17	17,42	482,11
344,16	16,04	481,99
344,15	15,49	481,89
344,14	14,56	481,8
344,13	14,19	481,74
344,12	14,66	481,73
344,11	14,66	481,78
344,1	14,19	481,89
344,09	13,18	482,06
344,08	13,64	482,25
