#Written by Robertson Geologging WinLogger V1.5/410		
~VERSION INFORMATION		
#------------------------------------------------------------------------------		
 VERS. 2.0 : CWLS LOG ASCII STANDARD - VERSION 2.0		
 WRAP. NO  : ONE LINE PER DEPTH STEP		
~WELL INFORMATION		
#MNEM.UNIT         DATA                                DESCRIPTION OF MNEMONIC		
#------------------------------------------------------------------------------		
 STRT.M        348.0000                            :   START DEPTH		
 STOP.M          1.8300                            :   STOP DEPTH		
 STEP.M         -0.0100                            :   STEP VALUE		
 NULL.        -999.2500                            :   NULL VALUE		
 COMP.    GEUSd.                                   :   COMPANY NAME		
 WELL.    59.459                                   :   WELL NAME		
 FLD.     Jylland                                  :   FIELD NAME		
 LOC.     N/A                                      :   LOCATION		
 PROV.    N/A                                      :   PROVINCE		
 SRVC.    N/A                                      :   SERVICE COMPANY NAME		
 DATE.    26 May 14                                :   DATE		
 UWI.     N/A                                      :   UNIQUE WELL IDENTIFIER		
~PARAMETER INFORMATION		
#MNEMO.UNIT         VALUE                 DESCRIPTION OF MNEMONIC		
#------------------------------------------------------------------------------		
~OTHER INFORMATION SECTION		
#------------------------------------------------------------------------------		
~CURVE INFORMATION		
#MNEMO.UNIT         API CODE              CURVE DESCRIPTION		
#------------------------------------------------------------------------------		
 DEPTH.M                                 :   0     Depth		
 NGAM.API                                :   1     Natural Gamma		
 COND.mS/m                               :   2     Conductivity		
#------------------------------------------------------------------------------		
~A  DEPTH          NGAM          COND		
# ...
213,27	3,5	527,38
213,26	3,5	526,41
213,25	4,61	525,41
213,24	4,61	524,4
213,23	5,07	523,36
213,22	5,07	522,33
213,21	5,07	521,28
213,2	5,99	520,21
213,19	6,45	519,15
213,18	6,45	518,1
213,17	5,9	517,03
213,16	6,45	515,96
213,15	7,47	514,91
213,14	6,91	513,9
213,13	6,91	512,87
213,12	7,47	511,86
213,11	7,47	510,85
213,1	8,48	509,84
213,09	9,49	508,83
213,08	8,39	507,84
213,07	7,93	506,89
213,06	7,93	505,97
213,05	9,03	505,04
213,04	10,51	504,11
213,03	9,03	503,17
213,02	9,13	502,26
213,01	9,13	501,39
213	9,13	500,55
212,99	8,66	499,72
212,98	8,11	498,92
212,97	8,66	498,15
212,96	9,68	497,39
212,95	10,14	496,65
212,94	10,69	495,94
212,93	10,14	495,28
212,92	9,13	494,64
212,91	9,13	494,04
212,9	9,59	493,46
212,89	10,14	492,91
212,88	9,03	492,4
212,87	8,11	491,92
212,86	9,13	491,47
212,85	9,03	491,03
212,84	9,59	490,59
212,83	10,05	490,18
212,82	9,49	489,79
212,81	9,49	489,42
212,8	9,49	489,07
212,79	9,49	488,72
212,78	8,48	488,37
212,77	7,93	488,07
212,76	7,93	487,77
212,75	8,39	487,49
212,74	8,94	487,21
212,73	8,94	486,98
212,72	8,94	486,75
212,71	10,97	486,53
212,7	10,42	486,33
212,69	10,42	486,13
212,68	10,42	485,96
212,67	10,42	485,79
212,66	11,43	485,6
212,65	11,43	485,39
212,64	11,98	485,21
212,63	13,09	485,05
212,62	12,63	484,89
212,61	12,63	484,73
212,6	13,64	484,56
212,59	14,84	484,4
212,58	14,38	484,23
212,57	14,29	484,05
212,56	13,83	483,86
212,55	12,81	483,68
212,54	11,25	483,5
212,53	11,25	483,3
212,52	10,69	483,06
212,51	11,34	482,79
212,5	11,8	482,51
212,49	10,32	482,24
212,48	11,34	481,93
212,47	11,34	481,62
212,46	10,23	481,26
212,45	9,68	480,88
212,44	10,69	480,46
212,43	10,23	479,99
212,42	9,59	479,51
212,41	11,06	479,03
212,4	10,6	478,54
212,39	10,6	478,03
212,38	11,61	477,5
212,37	11,15	476,94
212,36	12,63	476,36
212,35	13,64	475,78
212,34	13,64	475,22
212,33	15,12	474,7
212,32	16,13	474,2
212,31	16,22	473,68
212,3	15,21	473,17
212,29	15,67	472,67
212,28	15,76	472,18
212,27	14,75	471,7
212,26	14,75	471,25
212,25	15,21	470,81
212,24	14,75	470,37
212,23	17,05	469,93
212,22	18,07	469,47
212,21	18,07	469,02
212,2	18,62	468,58
212,19	19,17	468,12
212,18	17,7	467,67
212,17	18,9	467,2
212,16	16,41	466,74
212,15	16,41	466,28
212,14	16,96	465,81
212,13	16,96	465,34
212,12	16,96	464,88
212,11	17,42	464,39
212,1	18,62	463,88
212,09	20,09	463,35
212,08	20,09	462,84
212,07	19,63	462,31
212,06	19,36	461,76
212,05	19,82	461,19
212,04	19,91	460,62
212,03	19,36	460,05
212,02	19,36	459,48
212,01	21,38	458,89
212	19,08	458,28
211,99	19,08	457,69
211,98	20,09	457,14
211,97	18,44	456,62
211,96	19,91	456,12
211,95	19,36	455,63
211,94	18,34	455,17
211,93	16,68	454,75
211,92	15,67	454,34
211,91	15,3	453,94
211,9	14,75	453,59
211,89	13,73	453,29
211,88	13,92	453,02
211,87	14,29	452,75
211,86	15,3	452,46
211,85	13,73	452,2
211,84	11,71	451,96
211,83	13,18	451,74
211,82	14,19	451,48
211,81	12,63	451,23
211,8	14,29	451
211,79	13,27	450,76
211,78	15,85	450,51
211,77	15,85	450,26
211,76	16,87	450,01
211,75	16,32	449,73
211,74	16,32	449,45
211,73	16,78	449,15
211,72	17,79	448,82
211,71	16,13	448,5
211,7	16,13	448,17
211,69	17,14	447,82
211,68	17,79	447,43
211,67	18,8	447,05
211,66	17,79	446,66
211,65	17,33	446,26
211,64	17,33	445,85
211,63	16,13	445,42
211,62	16,78	444,99
211,61	14,75	444,57
211,6	15,21	444,12
211,59	15,21	443,69
211,58	14,75	443,27
211,57	14,1	442,87
211,56	14,1	442,48
211,55	12,07	442,09
211,54	13,09	441,67
211,53	13,09	441,27
211,52	12,07	440,9
211,51	11,52	440,53
211,5	11,52	440,14
211,49	11,06	439,76
211,48	11,61	439,4
211,47	11,61	439,05
211,46	11,61	438,71
211,45	10,51	438,35
211,44	9,95	438,01
211,43	10,51	437,68
211,42	10,05	437,35
211,41	10,51	437,03
211,4	10,05	436,75
211,39	10,6	436,49
211,38	10,6	436,24
211,37	11,61	435,99
211,36	11,15	435,74
211,35	11,61	435,48
211,34	11,06	435,25
211,33	10,05	435,04
211,32	10,51	434,85
211,31	9,86	434,68
211,3	9,86	434,5
211,29	9,95	434,33
211,28	10,97	434,18
211,27	10,51	434,05
211,26	9,49	433,93
211,25	10,42	433,81
211,24	10,42	433,72
211,23	10,42	433,64
211,22	9,4	433,56
211,21	9,4	433,5
211,2	8,39	433,44
211,19	7,93	433,38
211,18	6,45	433,32
211,17	6,45	433,28
211,16	7,47	433,24
211,15	7,47	433,23
211,14	8,66	433,23
211,13	9,22	433,26
211,12	9,13	433,27
211,11	9,22	433,3
211,1	9,22	433,38
211,09	9,68	433,47
211,08	8,76	433,59
211,07	9,31	433,7
211,06	9,31	433,81
211,05	9,31	433,94
211,04	9,31	434,08
211,03	9,77	434,22
211,02	10,32	434,37
211,01	10,32	434,53
211	10,32	434,69
210,99	9,86	434,87
210,98	9,86	435,1
210,97	8,2	435,36
210,96	8,85	435,66
210,95	8,39	435,98
210,94	7,74	436,31
210,93	7,74	436,68
210,92	7,74	437,08
210,91	7,19	437,5
210,9	6,18	437,96
210,89	7,19	438,44
210,88	8,66	438,93
210,87	9,22	439,42
210,86	8,76	439,92
210,85	8,11	440,47
210,84	8,57	441,04
210,83	9,13	441,61
210,82	8,57	442,18
210,81	8,57	442,79
210,8	9,03	443,44
210,79	8,48	444,1
210,78	10,51	444,77
210,77	11,52	445,44
210,76	12,07	446,11
210,75	12,63	446,8
210,74	13,09	447,46
210,73	13,64	448,11
210,72	14,1	448,75
210,71	13,64	449,39
210,7	13,64	449,99
210,69	12,63	450,56
210,68	12,63	451,1
210,67	12,17	451,63
210,66	12,07	452,18
210,65	12,07	452,73
210,64	12,72	453,26
210,63	13,27	453,77
210,62	12,63	454,27
210,61	10,6	454,8
210,6	9,59	455,32
210,59	9,49	455,83
210,58	9,95	456,34
210,57	10,05	456,89
210,56	9,95	457,42
210,55	8,48	457,95
210,54	8,57	458,46
210,53	8,48	458,97
210,52	8,94	459,48
210,51	8,94	460
210,5	9,49	460,51
210,49	9,03	461,03
210,48	10,14	461,57
210,47	10,05	462,1
210,46	9,03	462,62
210,45	9,13	463,15
210,44	10,14	463,67
210,43	9,68	464,19
210,42	10,32	464,7
210,41	8,85	465,21
210,4	8,3	465,74
210,39	8,39	466,29
210,38	9,4	466,82
210,37	8,3	467,36
210,36	7,83	467,92
210,35	7,37	468,47
210,34	7,37	469,02
210,33	6,82	469,58
210,32	6,82	470,15
210,31	7,19	470,74
210,3	6,18	471,34
210,29	7,28	471,94
210,28	6,73	472,55
210,27	7,74	473,17
210,26	7,74	473,82
210,25	6,64	474,48
210,24	8,11	475,15
210,23	8,11	475,85
210,22	9,59	476,55
210,21	9,03	477,27
210,2	9,03	478
210,19	10,05	478,75
210,18	10,51	479,52
210,17	11,06	480,31
210,16	12,17	481,12
210,15	12,17	481,93
210,14	12,72	482,77
210,13	13,18	483,62
210,12	12,54	484,47
210,11	13,09	485,33
210,1	11,52	486,19
210,09	11,52	487,07
210,08	12,07	487,94
210,07	11,06	488,82
210,06	11,06	489,68
210,05	9,59	490,54
210,04	10,6	491,38
210,03	10,6	492,21
210,02	10,14	493,03
210,01	9,68	493,85
210	9,68	494,66
209,99	8,57	495,44
209,98	9,03	496,18
209,97	7,01	496,91
209,96	8,57	497,64
209,95	9,22	498,37
209,94	9,13	499,07
209,93	8,66	499,75
209,92	9,22	500,4
209,91	10,14	501,04
209,9	10,14	501,67
209,89	10,69	502,26
209,88	11,61	502,84
209,87	10,6	503,44
209,86	11,71	504,02
209,85	11,15	504,56
209,84	13,18	505,04
209,83	13,27	505,51
209,82	13,27	505,98
209,81	12,81	506,44
209,8	12,81	506,89
209,79	10,78	507,3
209,78	10,14	507,71
209,77	9,68	508,09
209,76	9,68	508,46
209,75	9,13	508,83
209,74	7,65	509,2
209,73	7,19	509,56
209,72	7,1	509,91
209,71	6,08	510,24
209,7	5,62	510,56
209,69	4,52	510,87
209,68	4,98	511,17
209,67	2,95	511,44
209,66	1,84	511,69
209,65	1,84	511,93
209,64	1,84	512,12
209,63	1,84	512,3
209,62	2,86	512,5
209,61	2,4	512,68
209,6	2,4	512,85
209,59	2,86	513
209,58	2,86	513,15
209,57	4,33	513,29
209,56	4,33	513,43
209,55	4,89	513,57
209,54	4,42	513,69
209,53	4,98	513,82
209,52	5,44	513,93
209,51	4,98	514
209,5	4,98	514,06
209,49	5,99	514,1
209,48	5,99	514,12
209,47	5,99	514,11
209,46	6,45	514,08
209,45	5,44	514,05
209,44	5,9	514,01
209,43	5,9	513,94
209,42	6,54	513,84
209,41	6,54	513,72
209,4	5,53	513,59
209,39	6,08	513,44
209,38	5,07	513,28
209,37	6,54	513,12
209,36	5,99	512,95
209,35	5,53	512,77
209,34	5,53	512,57
209,33	5,53	512,33
209,32	5,07	512,08
209,31	6,08	511,81
209,3	8,11	511,55
209,29	7,65	511,28
209,28	8,11	511,01
209,27	7,65	510,72
209,26	7,65	510,42
209,25	6,54	510,09
209,24	6,54	509,72
209,23	6,08	509,35
209,22	5,99	508,97
209,21	5,99	508,59
209,2	4,52	508,21
209,19	4,52	507,8
209,18	5,07	507,37
209,17	5,53	506,92
209,16	5,53	506,44
209,15	4,98	505,97
209,14	3,96	505,47
209,13	2,95	504,95
209,12	2,95	504,41
209,11	2,49	503,83
209,1	3,5	503,25
