#Written by Robertson Geologging WinLogger V1.5/410		
~VERSION INFORMATION		
#------------------------------------------------------------------------------		
 VERS. 2.0 : CWLS LOG ASCII STANDARD - VERSION 2.0		
 WRAP. NO  : ONE LINE PER DEPTH STEP		
~WELL INFORMATION		
#MNEM.UNIT         DATA                                DESCRIPTION OF MNEMONIC		
#------------------------------------------------------------------------------		
 STRT.M        348.0000                            :   START DEPTH		
 STOP.M          1.8300                            :   STOP DEPTH		
 STEP.M         -0.0100                            :   STEP VALUE		
 NULL.        -999.2500                            :   NULL VALUE		
 COMP.    GEUSd.                                   :   COMPANY NAME		
 WELL.    59.459                                   :   WELL NAME		
 FLD.     Jylland                                  :   FIELD NAME		
 LOC.     N/A                                      :   LOCATION		
 PROV.    N/A                                      :   PROVINCE		
 SRVC.    N/A                                      :   SERVICE COMPANY NAME		
 DATE.    26 May 14                                :   DATE		
 UWI.     N/A                                      :   UNIQUE WELL IDENTIFIER		
~PARAMETER INFORMATION		
#MNEMO.UNIT         VALUE                 DESCRIPTION OF MNEMONIC		
#------------------------------------------------------------------------------		
~OTHER INFORMATION SECTION		
#------------------------------------------------------------------------------		
~CURVE INFORMATION		
#MNEMO.UNIT         API CODE              CURVE DESCRIPTION		
#------------------------------------------------------------------------------		
 DEPTH.M                                 :   0     Depth		
 NGAM.API                                :   1     Natural Gamma		
 COND.mS/m                               :   2     Conductivity		
#------------------------------------------------------------------------------		
~A  DEPTH          NGAM          COND		
# ...
124,76	7,47	182,82
124,75	7,01	182,8
124,74	7,01	182,74
124,73	7,01	182,67
124,72	7,01	182,62
124,71	7,01	182,57
124,7	5,99	182,53
124,69	5,99	182,47
124,68	5,53	182,39
124,67	5,53	182,32
124,66	5,99	182,26
124,65	6,45	182,22
124,64	6,45	182,18
124,63	6,91	182,2
124,62	6,36	182,22
124,61	6,36	182,24
124,6	7,37	182,25
124,59	7,93	182,28
124,58	8,39	182,3
124,57	8,48	182,33
124,56	9,49	182,36
124,55	10,51	182,38
124,54	11,98	182,4
124,53	11,98	182,45
124,52	11,98	182,49
124,51	12,44	182,54
124,5	11,89	182,57
124,49	12,9	182,61
124,48	11,89	182,64
124,47	12,35	182,69
124,46	12,35	182,73
124,45	12,35	182,78
124,44	12,35	182,83
124,43	10,32	182,88
124,42	9,31	182,9
124,41	8,85	182,91
124,4	7,74	182,92
124,39	6,73	182,95
124,38	5,71	182,98
124,37	4,24	183
124,36	4,7	183,02
124,35	6,18	183,04
124,34	6,18	183,07
124,33	7,37	183,11
124,32	7,37	183,13
124,31	7,37	183,15
124,3	6,91	183,17
124,29	6,45	183,21
124,28	6,45	183,25
124,27	6,45	183,29
124,26	6,91	183,33
124,25	7,93	183,39
124,24	8,94	183,44
124,23	9,49	183,47
124,22	10,51	183,49
124,21	11,52	183,53
124,2	14,56	183,58
124,19	15,12	183,65
124,18	13,64	183,71
124,17	13,18	183,75
124,16	11,52	183,82
124,15	11,15	183,9
124,14	11,15	183,97
124,13	11,15	184,03
124,12	11,61	184,1
124,11	12,17	184,18
124,1	12,63	184,27
124,09	13,18	184,36
124,08	13,18	184,45
124,07	13,64	184,53
124,06	13,09	184,62
124,05	13,18	184,7
124,04	12,63	184,77
124,03	10,6	184,84
124,02	10,6	184,93
124,01	10,6	185,02
124	11,06	185,1
123,99	12,72	185,18
123,98	12,63	185,25
123,97	13,64	185,31
123,96	14,1	185,39
123,95	15,12	185,46
123,94	15,58	185,53
123,93	15,12	185,59
123,92	14,56	185,64
123,91	14,66	185,68
123,9	14,66	185,71
123,89	15,67	185,77
123,88	17,05	185,83
123,87	17,61	185,87
123,86	17,61	185,92
123,85	18,07	185,96
123,84	18,07	186,02
123,83	18,16	186,06
123,82	17,97	186,11
123,81	16,96	186,16
123,8	16,5	186,22
123,79	16,04	186,3
123,78	15,58	186,37
123,77	14,56	186,42
123,76	16,22	186,47
123,75	15,76	186,53
123,74	15,12	186,6
123,73	14,1	186,66
123,72	13,55	186,7
123,71	11,06	186,75
123,7	10,6	186,8
123,69	11,06	186,86
123,68	10,6	186,91
123,67	12,07	186,94
123,66	12,54	186,99
123,65	13,09	187,03
123,64	14,19	187,08
123,63	13,18	187,12
123,62	14,66	187,18
123,61	14,1	187,27
123,6	14,66	187,37
123,59	14,01	187,46
123,58	16,04	187,54
123,57	16,04	187,64
123,56	15,58	187,73
123,55	15,12	187,82
123,54	16,59	187,91
123,53	16,5	187,99
123,52	16,5	188,06
123,51	15,95	188,1
123,5	16,5	188,1
123,49	17,97	188,09
123,48	16,41	188,09
123,47	17,33	188,07
123,46	18,8	188,03
123,45	17,88	188,02
123,44	18,44	188,02
123,43	17,88	188,01
123,42	17,88	187,99
123,41	15,85	187,97
123,4	17,42	187,94
123,39	17,42	187,95
123,38	17,42	187,95
123,37	15,95	187,92
123,36	15,95	187,9
123,35	14,93	187,89
123,34	15,49	187,86
123,33	14,93	187,82
123,32	13,92	187,76
123,31	13,92	187,71
123,3	12,35	187,68
123,29	11,89	187,65
123,28	11,8	187,59
123,27	10,78	187,53
123,26	12,35	187,5
123,25	12,35	187,48
123,24	12,81	187,45
123,23	11,8	187,41
123,22	13,27	187,37
123,21	13,27	187,34
123,2	14,38	187,29
123,19	15,39	187,23
123,18	15,95	187,16
123,17	15,39	187,1
123,16	14,93	187,08
123,15	13,92	187,05
123,14	15,49	187,02
123,13	16,04	186,98
123,12	16,5	186,94
123,11	16,04	186,9
123,1	17,05	186,85
123,09	16,5	186,82
123,08	15,95	186,78
123,07	15,49	186,76
123,06	14,93	186,72
123,05	14,56	186,65
123,04	16,04	186,54
123,03	15,39	186,45
123,02	15,39	186,37
123,01	14,38	186,28
123	15,39	186,17
122,99	14,84	186,06
122,98	15,85	185,97
122,97	15,49	185,89
122,96	15,49	185,8
122,95	15,49	185,7
122,94	15,95	185,61
122,93	15,95	185,53
122,92	14,93	185,44
122,91	15,95	185,3
122,9	17,61	185,18
122,89	18,62	185,1
122,88	17,97	185,01
122,87	16,96	184,89
122,86	17,51	184,76
122,85	16,04	184,61
122,84	17,51	184,48
122,83	16,59	184,36
122,82	17,61	184,23
122,81	17,61	184,12
122,8	15,95	184,03
122,79	15,95	183,93
122,78	14,93	183,8
122,77	14,47	183,66
122,76	13,46	183,53
122,75	13,46	183,4
122,74	12,54	183,3
122,73	11,89	183,17
122,72	11,89	183,06
122,71	11,43	182,96
122,7	11,98	182,86
122,69	11,98	182,77
122,68	12,54	182,66
122,67	12,54	182,54
122,66	12,44	182,44
122,65	10,97	182,34
122,64	9,95	182,26
122,63	10,42	182,16
122,62	10,88	182,08
122,61	11,43	182
122,6	11,89	181,9
122,59	12,35	181,79
122,58	11,89	181,67
122,57	11,8	181,57
122,56	12,26	181,48
122,55	11,25	181,38
122,54	11,71	181,27
122,53	11,15	181,18
122,52	11,15	181,1
122,51	11,06	181
122,5	9,59	180,89
122,49	9,13	180,8
122,48	9,59	180,72
122,47	10,6	180,63
122,46	11,15	180,53
122,45	10,69	180,46
122,44	9,68	180,39
122,43	9,68	180,31
122,42	11,25	180,19
122,41	11,71	180,08
122,4	12,26	179,99
122,39	11,89	179,92
122,38	11,43	179,83
122,37	11,43	179,72
122,36	11,98	179,6
122,35	10,97	179,5
122,34	12,54	179,42
122,33	12,54	179,33
122,32	12,54	179,25
122,31	12,07	179,19
122,3	11,06	179,15
122,29	10,05	179,1
122,28	9,03	179,02
122,27	9,03	178,96
122,26	8,57	178,92
122,25	7,01	178,88
122,24	7,01	178,85
122,23	6,45	178,79
122,22	5,35	178,76
122,21	5,81	178,71
122,2	6,36	178,66
122,19	5,35	178,58
122,18	5,81	178,49
122,17	4,33	178,43
122,16	4,79	178,36
122,15	5,25	178,29
122,14	5,71	178,24
122,13	5,71	178,19
122,12	6,73	178,16
122,11	7,19	178,09
122,1	7,74	178,02
122,09	8,2	177,97
122,08	8,2	177,94
122,07	7,74	177,91
122,06	9,77	177,85
122,05	10,23	177,82
122,04	11,8	177,82
122,03	11,25	177,8
122,02	11,8	177,76
122,01	11,8	177,69
122	11,71	177,66
121,99	11,71	177,63
121,98	11,25	177,59
121,97	11,8	177,54
121,96	11,8	177,51
121,95	12,26	177,5
121,94	12,35	177,47
121,93	12,81	177,42
121,92	12,35	177,37
121,91	11,89	177,36
121,9	11,89	177,36
121,89	9,86	177,34
121,88	10,88	177,3
121,87	8,85	177,28
121,86	8,85	177,27
121,85	8,3	177,27
121,84	8,94	177,25
121,83	8,94	177,21
121,82	8,94	177,19
121,81	10,05	177,17
121,8	9,49	177,11
121,79	9,49	177,05
121,78	9,03	177,01
121,77	8,94	176,98
121,76	7,93	176,98
121,75	7,93	176,97
121,74	7,93	176,93
121,73	7,93	176,88
121,72	8,48	176,86
121,71	7,01	176,85
121,7	7,47	176,83
121,69	7,01	176,83
121,68	7,47	176,84
121,67	6,36	176,86
121,66	5,9	176,86
121,65	5,44	176,83
121,64	4,33	176,78
121,63	4,42	176,76
121,62	4,98	176,75
121,61	3,96	176,73
121,6	3,5	176,7
121,59	3,5	176,67
121,58	3,5	176,65
121,57	4,52	176,64
121,56	4,52	176,59
121,55	4,98	176,54
121,54	5,44	176,52
121,53	4,98	176,53
121,52	5,44	176,54
121,51	4,98	176,55
121,5	5,44	176,53
121,49	5,44	176,51
121,48	6,45	176,48
121,47	6,45	176,44
121,46	6,45	176,39
121,45	5,44	176,39
121,44	7,47	176,4
121,43	7,47	176,4
121,42	8,94	176,39
121,41	8,94	176,37
121,4	9,03	176,35
121,39	9,03	176,32
121,38	7,56	176,3
121,37	8,11	176,28
121,36	8,57	176,25
121,35	8,11	176,21
121,34	8,11	176,18
121,33	9,95	176,12
121,32	10,97	176,06
121,31	9,95	175,99
121,3	10,97	175,93
121,29	10,42	175,86
121,28	10,88	175,84
121,27	10,32	175,81
121,26	10,78	175,78
121,25	9,77	175,73
121,24	10,23	175,69
121,23	10,23	175,64
121,22	10,23	175,59
121,21	11,71	175,52
121,2	10,69	175,46
121,19	10,69	175,4
121,18	11,15	175,35
121,17	11,15	175,24
121,16	9,31	175,13
121,15	8,3	175,02
121,14	9,31	174,94
121,13	8,3	174,83
121,12	8,76	174,7
121,11	10,32	174,56
121,1	9,86	174,44
121,09	9,4	174,29
121,08	8,94	174,13
121,07	8,48	173,96
121,06	7,37	173,81
121,05	7,83	173,67
121,04	6,36	173,54
121,03	6,36	173,37
121,02	5,9	173,22
121,01	5,44	173,09
121	5,44	172,99
120,99	5,44	172,89
120,98	6,45	172,82
120,97	5,9	172,79
120,96	6,36	172,77
120,95	6,36	172,76
120,94	4,89	172,76
120,93	4,33	172,79
120,92	4,33	172,84
120,91	4,79	172,92
120,9	5,81	173
120,89	6,36	173,1
120,88	6,36	173,22
120,87	6,82	173,32
120,86	7,28	173,41
120,85	7,28	173,49
120,84	7,74	173,59
120,83	7,74	173,71
120,82	8,3	173,82
120,81	8,76	173,96
120,8	8,85	174,09
120,79	9,4	174,24
120,78	9,4	174,38
120,77	9,86	174,52
120,76	10,42	174,66
120,75	10,88	174,82
120,74	10,42	174,98
120,73	11,06	175,11
120,72	11,98	175,24
120,71	13	175,37
120,7	13,55	175,45
120,69	13,09	175,51
120,68	15,12	175,54
120,67	15,12	175,57
120,66	16,59	175,62
120,65	15,58	175,64
120,64	14,1	175,65
120,63	14,1	175,66
120,62	13,55	175,69
120,61	14,1	175,7
