#Written by Robertson Geologging WinLogger V1.5/410		
~VERSION INFORMATION		
#------------------------------------------------------------------------------		
 VERS. 2.0 : CWLS LOG ASCII STANDARD - VERSION 2.0		
 WRAP. NO  : ONE LINE PER DEPTH STEP		
~WELL INFORMATION		
#MNEM.UNIT         DATA                                DESCRIPTION OF MNEMONIC		
#------------------------------------------------------------------------------		
 STRT.M        348.0000                            :   START DEPTH		
 STOP.M          1.8300                            :   STOP DEPTH		
 STEP.M         -0.0100                            :   STEP VALUE		
 NULL.        -999.2500                            :   NULL VALUE		
 COMP.    GEUSd.                                   :   COMPANY NAME		
 WELL.    59.459                                   :   WELL NAME		
 FLD.     Jylland                                  :   FIELD NAME		
 LOC.     N/A                                      :   LOCATION		
 PROV.    N/A                                      :   PROVINCE		
 SRVC.    N/A                                      :   SERVICE COMPANY NAME		
 DATE.    26 May 14                                :   DATE		
 UWI.     N/A                                      :   UNIQUE WELL IDENTIFIER		
~PARAMETER INFORMATION		
#MNEMO.UNIT         VALUE                 DESCRIPTION OF MNEMONIC		
#------------------------------------------------------------------------------		
~OTHER INFORMATION SECTION		
#------------------------------------------------------------------------------		
~CURVE INFORMATION		
#MNEMO.UNIT         API CODE              CURVE DESCRIPTION		
#------------------------------------------------------------------------------		
 DEPTH.M                                 :   0     Depth		
 NGAM.API                                :   1     Natural Gamma		
 COND.mS/m                               :   2     Conductivity		
#------------------------------------------------------------------------------		
~A  DEPTH          NGAM          COND		
# ...
59,47	9,77	156,07
59,46	10,32	156,1
59,45	11,8	156,14
59,44	10,69	156,17
59,43	11,25	156,21
59,42	11,71	156,23
59,41	11,71	156,25
59,4	12,72	156,29
59,39	13,27	156,32
59,38	11,25	156,33
59,37	11,8	156,37
59,36	12,35	156,42
59,35	12,9	156,5
59,34	13	156,57
59,33	13,55	156,64
59,32	11,8	156,7
59,31	11,8	156,75
59,3	12,81	156,8
59,29	14,56	156,8
59,28	14,56	156,76
59,27	15,58	156,73
59,26	14,56	156,68
59,25	14,56	156,61
59,24	14,56	156,49
59,23	14,56	156,39
59,22	14,01	156,29
59,21	15,12	156,18
59,2	15,58	156,08
59,19	15,02	155,98
59,18	14,47	155,9
59,17	14,47	155,83
59,16	14,47	155,74
59,15	13,92	155,65
59,14	13	155,56
59,13	13	155,47
59,12	12,35	155,37
59,11	11,34	155,27
59,1	11,8	155,18
59,09	12,35	155,09
59,08	13,37	155
59,07	12,81	154,92
59,06	12,35	154,86
59,05	13,83	154,83
59,04	12,72	154,8
59,03	13,27	154,77
59,02	13,27	154,77
59,01	12,81	154,78
59	12,72	154,8
58,99	12,81	154,81
58,98	14,29	154,82
58,97	14,29	154,83
58,96	13,27	154,83
58,95	12,17	154,83
58,94	12,17	154,84
58,93	12,17	154,85
58,92	12,17	154,84
58,91	12,72	154,82
58,9	12,72	154,8
58,89	12,17	154,77
58,88	11,71	154,76
58,87	12,26	154,77
58,86	10,23	154,77
58,85	10,23	154,76
58,84	10,23	154,75
58,83	10,23	154,74
58,82	9,68	154,73
58,81	8,2	154,74
58,8	8,66	154,75
58,79	9,77	154,77
58,78	9,22	154,81
58,77	9,86	154,88
58,76	10,42	154,96
58,75	10,97	155,04
58,74	9,95	155,13
58,73	10,51	155,21
58,72	11,52	155,26
58,71	10,51	155,32
58,7	10,97	155,38
58,69	12,07	155,43
58,68	12,54	155,49
58,67	13,64	155,56
58,66	14,66	155,59
58,65	15,58	155,6
58,64	17,24	155,64
58,63	16,68	155,68
58,62	17,88	155,74
58,61	19,36	155,81
58,6	18,8	155,89
58,59	17,79	155,97
58,58	17,7	156,06
58,57	17,24	156,15
58,56	18,71	156,23
58,55	19,36	156,31
58,54	19,82	156,37
58,53	20,83	156,39
58,52	20,74	156,37
58,51	21,94	156,33
58,5	21,29	156,32
58,49	22,12	156,32
58,48	22,68	156,33
58,47	22,68	156,34
58,46	23,23	156,37
58,45	21,94	156,39
58,44	22,12	156,39
58,43	22,58	156,41
58,42	21,57	156,47
58,41	22,03	156,55
58,4	22,95	156,62
58,39	22,03	156,66
58,38	22,4	156,7
58,37	23,6	156,71
58,36	21,57	156,71
58,35	21,02	156,7
58,34	20,46	156,67
58,33	20	156,66
58,32	18,25	156,64
58,31	16,68	156,59
58,3	15,49	156,55
58,29	16,13	156,51
58,28	15,58	156,49
58,27	14,38	156,47
58,26	13,37	156,46
58,25	13,83	156,43
58,24	12,35	156,38
58,23	11,34	156,32
58,22	11,25	156,29
58,21	11,52	156,25
58,2	9,86	156,22
58,19	9,86	156,2
58,18	9,4	156,16
58,17	8,3	156,12
58,16	8,85	156,06
58,15	8,3	156
58,14	8,3	155,96
58,13	8,39	155,93
58,12	7,19	155,93
58,11	7,19	155,91
58,1	7,83	155,88
58,09	7,83	155,84
58,08	7,37	155,8
58,07	9,03	155,75
58,06	9,03	155,7
58,05	8,57	155,65
58,04	6,27	155,58
58,03	7,74	155,51
58,02	8,3	155,44
58,01	8,3	155,35
58	8,85	155,27
57,99	8,76	155,22
57,98	9,22	155,16
57,97	9,31	155,11
57,96	9,22	155,08
57,95	8,76	155,05
57,94	9,31	154,99
57,93	8,66	154,97
57,92	9,22	154,94
57,91	9,68	154,92
57,9	8,02	154,9
57,89	8,02	154,88
57,88	7,47	154,85
57,87	7,93	154,83
57,86	6,91	154,81
57,85	6,91	154,78
57,84	7,93	154,76
57,83	8,39	154,76
57,82	8,48	154,76
57,81	8,02	154,76
57,8	7,47	154,76
57,79	7,47	154,77
57,78	7,93	154,78
57,77	8,02	154,78
57,76	7,56	154,8
57,75	7,01	154,8
57,74	7,56	154,8
57,73	7,56	154,81
57,72	8,11	154,82
57,71	8,11	154,83
57,7	8,76	154,86
57,69	9,31	154,91
57,68	9,31	154,96
57,67	8,3	154,99
57,66	8,76	155,04
57,65	9,31	155,08
57,64	9,77	155,14
57,63	10,32	155,19
57,62	10,32	155,25
57,61	10,88	155,3
57,6	12,63	155,34
57,59	13,09	155,38
57,58	13,64	155,4
57,57	13,64	155,42
57,56	14,1	155,46
57,55	14,19	155,47
57,54	14,66	155,49
57,53	14,01	155,55
57,52	13,55	155,63
57,51	14,01	155,75
57,5	14,01	155,88
57,49	12,54	155,99
57,48	11,98	156,12
57,47	12,54	156,25
57,46	13,46	156,38
57,45	13,55	156,5
57,44	13,55	156,64
57,43	10,69	156,76
57,42	12,72	156,87
57,41	13,27	156,98
57,4	13,27	157,08
57,39	12,81	157,2
57,38	12,72	157,32
57,37	14,56	157,44
57,36	14,56	157,54
57,35	14,01	157,65
57,34	13	157,77
57,33	14,1	157,89
57,32	15,12	158,03
57,31	15,12	158,15
57,3	15,58	158,24
57,29	16,13	158,31
57,28	16,13	158,38
57,27	15,12	158,43
57,26	15,67	158,47
57,25	14,19	158,54
57,24	14,56	158,6
57,23	14,66	158,63
57,22	15,12	158,66
57,21	15,21	158,69
57,2	14,38	158,71
57,19	14,38	158,74
57,18	15,49	158,78
57,17	15,95	158,79
57,16	18,34	158,79
57,15	18,44	158,76
57,14	19,91	158,69
57,13	18,99	158,62
57,12	17,97	158,57
57,11	17,88	158,54
57,1	18,44	158,52
57,09	18,9	158,49
57,08	18,34	158,45
57,07	17,42	158,37
57,06	17,33	158,3
57,05	17,97	158,24
57,04	16,87	158,21
57,03	15,39	158,2
57,02	14,93	158,21
57,01	14,29	158,24
57	13,83	158,29
56,99	10,78	158,38
56,98	10,78	158,52
56,97	9,77	158,69
56,96	9,22	158,89
56,95	8,76	159,1
56,94	9,31	159,28
56,93	9,86	159,43
56,92	9,31	159,52
56,91	10,88	159,55
56,9	10,32	159,55
56,89	9,77	159,51
56,88	9,77	159,38
56,87	10,78	159,17
56,86	11,25	158,89
56,85	11,8	158,61
56,84	13,83	158,31
56,83	14,84	158,04
56,82	14,38	157,79
56,81	13,73	157,57
56,8	12,72	157,39
56,79	12,72	157,22
56,78	12,63	157,06
56,77	12,07	156,89
56,76	11,52	156,71
56,75	12,07	156,54
56,74	10,05	156,33
56,73	10,51	156,07
56,72	10,05	155,76
56,71	9,4	155,41
56,7	8,85	155,04
56,69	8,39	154,65
56,68	8,85	154,26
56,67	6,82	153,9
56,66	6,36	153,58
56,65	6,36	153,33
56,64	5,9	153,09
56,63	7,93	152,88
56,62	8,94	152,76
56,61	8,48	152,7
56,6	9,03	152,73
56,59	8,48	152,78
56,58	8,48	152,84
56,57	9,03	152,9
56,56	9,03	152,94
56,55	9,03	152,99
56,54	9,13	153,02
56,53	10,14	153,09
56,52	10,6	153,18
56,51	10,14	153,26
56,5	10,14	153,33
56,49	9,59	153,41
56,48	10,6	153,51
56,47	10,6	153,66
56,46	8,57	153,82
56,45	8,02	153,95
56,44	9,13	154,05
56,43	8,11	154,12
56,42	8,66	154,16
56,41	8,11	154,15
56,4	7,56	154,14
56,39	8,76	154,12
56,38	9,77	154,08
56,37	10,32	154,01
56,36	9,31	153,9
56,35	8,85	153,77
56,34	10,32	153,67
56,33	9,86	153,61
56,32	10,32	153,57
56,31	10,97	153,56
56,3	11,98	153,56
56,29	13	153,54
56,28	13,55	153,53
56,27	13	153,52
56,26	13	153,51
56,25	13,46	153,53
56,24	14,1	153,57
56,23	14,1	153,59
56,22	13,92	153,58
56,21	12,9	153,57
56,2	12,35	153,56
56,19	12,9	153,57
56,18	12,9	153,58
56,17	11,34	153,57
56,16	11,89	153,54
56,15	12,44	153,52
56,14	11,34	153,46
56,13	10,78	153,4
56,12	9,77	153,35
56,11	9,22	153,35
56,1	9,22	153,37
56,09	9,68	153,41
56,08	9,68	153,44
56,07	8,57	153,49
56,06	8,57	153,56
56,05	7,65	153,64
56,04	9,68	153,7
56,03	10,78	153,81
56,02	9,77	153,93
56,01	10,32	154,01
56	10,32	154,05
55,99	10,23	154,06
55,98	9,77	154,05
55,97	10,23	154,05
55,96	10,88	154,08
55,95	11,34	154,12
55,94	11,43	154,17
55,93	12,35	154,25
55,92	13,92	154,33
55,91	13,46	154,4
55,9	15,95	154,52
55,89	18,25	154,69
55,88	19,17	154,89
55,87	17,7	155,09
55,86	18,07	155,26
55,85	18,53	155,38
55,84	17,97	155,46
55,83	18,53	155,51
55,82	19,73	155,54
55,81	20,19	155,54
55,8	20,65	155,54
55,79	21,2	155,51
55,78	21,75	155,46
55,77	22,68	155,38
55,76	22,31	155,3
55,75	21,29	155,24
55,74	21,2	155,23
55,73	19,26	155,24
55,72	18,44	155,26
55,71	17,51	155,27
55,7	17,97	155,26
55,69	15,95	155,23
55,68	16,59	155,19
55,67	17,61	155,17
55,66	16,59	155,14
55,65	14,93	155,09
55,64	14,38	155,04
55,63	13,92	154,94
55,62	13,92	154,85
55,61	13,37	154,78
55,6	13	154,74
55,59	11,89	154,72
55,58	11,89	154,69
55,57	11,98	154,67
55,56	11,89	154,64
55,55	10,42	154,61
55,54	10,32	154,59
55,53	10,78	154,59
55,52	10,78	154,59
55,51	12,72	154,58
55,5	11,71	154,56
55,49	11,71	154,52
55,48	12,17	154,48
55,47	13,37	154,43
55,46	12,81	154,4
55,45	12,26	154,39
55,44	12,81	154,39
55,43	11,71	154,4
55,42	11,71	154,4
55,41	11,71	154,4
55,4	12,17	154,39
55,39	12,81	154,35
55,38	12,81	154,33
55,37	12,9	154,32
55,36	11,43	154,31
55,35	13,46	154,28
55,34	10,42	154,25
55,33	10,42	154,2
55,32	10,97	154,12
55,31	10,97	154,03
55,3	9,31	153,97
55,29	9,4	153,92
55,28	9,31	153,89
55,27	8,85	153,85
55,26	9,31	153,84
55,25	9,31	153,85
55,24	8,76	153,85
55,23	8,76	153,85
55,22	7,65	153,85
55,21	7,65	153,86
55,2	7,1	153,84
55,19	7,56	153,79
55,18	5,53	153,75
55,17	6,64	153,72
55,16	6,64	153,7
55,15	6,08	153,67
55,14	5,62	153,6
55,13	6,18	153,52
55,12	6,64	153,42
55,11	6,08	153,28
