#Written by Robertson Geologging WinLogger V1.5/410		
~VERSION INFORMATION		
#------------------------------------------------------------------------------		
 VERS. 2.0 : CWLS LOG ASCII STANDARD - VERSION 2.0		
 WRAP. NO  : ONE LINE PER DEPTH STEP		
~WELL INFORMATION		
#MNEM.UNIT         DATA                                DESCRIPTION OF MNEMONIC		
#------------------------------------------------------------------------------		
 STRT.M        348.0000                            :   START DEPTH		
 STOP.M          1.8300                            :   STOP DEPTH		
 STEP.M         -0.0100                            :   STEP VALUE		
 NULL.        -999.2500                            :   NULL VALUE		
 COMP.    GEUSd.                                   :   COMPANY NAME		
 WELL.    59.459                                   :   WELL NAME		
 FLD.     Jylland                                  :   FIELD NAME		
 LOC.     N/A                                      :   LOCATION		
 PROV.    N/A                                      :   PROVINCE		
 SRVC.    N/A                                      :   SERVICE COMPANY NAME		
 DATE.    26 May 14                                :   DATE		
 UWI.     N/A                                      :   UNIQUE WELL IDENTIFIER		
~PARAMETER INFORMATION		
#MNEMO.UNIT         VALUE                 DESCRIPTION OF MNEMONIC		
#------------------------------------------------------------------------------		
~OTHER INFORMATION SECTION		
#------------------------------------------------------------------------------		
~CURVE INFORMATION		
#MNEMO.UNIT         API CODE              CURVE DESCRIPTION		
#------------------------------------------------------------------------------		
 DEPTH.M                                 :   0     Depth		
 NGAM.API                                :   1     Natural Gamma		
 COND.mS/m                               :   2     Conductivity		
#------------------------------------------------------------------------------		
~A  DEPTH          NGAM          COND		
# ...
260,22	9,31	601,32
260,21	8,3	601,05
260,2	8,3	600,75
260,19	8,3	600,48
260,18	7,28	600,2
260,17	6,73	599,94
260,16	7,74	599,67
260,15	6,73	599,39
260,14	6,27	599,11
260,13	6,27	598,85
260,12	5,71	598,58
260,11	4,24	598,3
260,1	3,78	598,07
260,09	4,79	597,83
260,08	4,79	597,55
260,07	6,27	597,27
260,06	5,81	596,97
260,05	5,81	596,65
260,04	6,82	596,3
260,03	6,36	595,89
260,02	6,36	595,44
260,01	6,36	594,97
260	6,36	594,44
259,99	5,81	593,81
259,98	5,81	593,09
259,97	5,81	592,3
259,96	5,35	591,41
259,95	5,81	590,44
259,94	5,81	589,42
259,93	6,27	588,34
259,92	5,25	587,21
259,91	5,71	586,04
259,9	4,24	584,81
259,89	4,24	583,57
259,88	3,78	582,33
259,87	2,3	581,12
259,86	2,77	579,97
259,85	3,23	578,92
259,84	2,77	577,95
259,83	3,78	577,08
259,82	3,32	576,31
259,81	3,32	575,63
259,8	3,78	575,05
259,79	3,78	574,58
259,78	3,78	574,23
259,77	4,79	573,97
259,76	4,33	573,77
259,75	4,33	573,64
259,74	5,35	573,53
259,73	5,35	573,46
259,72	5,81	573,44
259,71	5,81	573,48
259,7	5,81	573,57
259,69	5,81	573,68
259,68	5,81	573,81
259,67	6,27	573,91
259,66	5,71	574,02
259,65	6,18	574,17
259,64	6,18	574,31
259,63	5,71	574,43
259,62	5,71	574,53
259,61	5,71	574,57
259,6	5,16	574,5
259,59	5,62	574,31
259,58	6,08	574,01
259,57	4,61	573,62
259,56	4,61	573,16
259,55	4,61	572,61
259,54	4,61	571,95
259,53	4,61	571,22
259,52	4,61	570,42
259,51	4,61	569,53
259,5	4,15	568,57
259,49	4,7	567,57
259,48	4,24	566,55
259,47	4,7	565,51
259,46	4,7	564,45
259,45	4,7	563,39
259,44	5,25	562,34
259,43	5,81	561,29
259,42	5,81	560,23
259,41	5,35	559,18
259,4	6,82	558,16
259,39	6,82	557,16
259,38	6,82	556,19
259,37	8,3	555,25
259,36	8,76	554,34
259,35	9,31	553,46
259,34	9,86	552,61
259,33	10,32	551,75
259,32	9,31	550,91
259,31	9,77	550,1
259,3	9,77	549,32
259,29	10,78	548,55
259,28	11,25	547,79
259,27	11,25	547,08
259,26	10,23	546,43
259,25	9,77	545,83
259,24	10,23	545,28
259,23	8,76	544,78
259,22	9,22	544,34
259,21	9,77	543,94
259,2	9,31	543,56
259,19	9,86	543,22
259,18	9,86	542,92
259,17	9,31	542,66
259,16	11,34	542,41
259,15	12,81	542,17
259,14	12,81	541,93
259,13	12,81	541,66
259,12	12,26	541,38
259,11	11,8	541,09
259,1	11,25	540,82
259,09	11,25	540,57
259,08	12,26	540,34
259,07	12,26	540,1
259,06	13,27	539,85
259,05	12,81	539,62
259,04	11,8	539,39
259,03	11,25	539,17
259,02	10,23	539,01
259,01	9,68	538,91
259	10,23	538,83
258,99	8,76	538,7
258,98	8,3	538,53
258,97	8,85	538,3
258,96	9,4	538,07
258,95	9,4	537,85
258,94	9,4	537,63
258,93	9,95	537,44
258,92	9,95	537,25
258,91	9,4	537,02
258,9	9,4	536,72
258,89	9,4	536,38
258,88	9,4	536,09
258,87	10,42	535,84
258,86	10,97	535,64
258,85	11,43	535,48
258,84	10,97	535,37
258,83	10,42	535,29
258,82	9,4	535,22
258,81	10,88	535,15
258,8	10,32	535,08
258,79	10,32	535,02
258,78	9,86	534,97
258,77	9,86	534,94
258,76	9,86	534,93
258,75	9,86	534,96
258,74	9,4	535,03
258,73	9,95	535,1
258,72	8,94	535,18
258,71	8,94	535,27
258,7	7,93	535,37
258,69	6,91	535,51
258,68	6,91	535,71
258,67	7,93	535,97
258,66	7,93	536,27
258,65	7,93	536,58
258,64	5,44	536,87
258,63	5,99	537,19
258,62	4,98	537,53
258,61	5,44	537,88
258,6	5,44	538,25
258,59	4,42	538,62
258,58	5,9	539,01
258,57	5,9	539,39
258,56	4,89	539,74
258,55	4,89	540,09
258,54	4,89	540,44
258,53	5,9	540,79
258,52	6,91	541,13
258,51	6,91	541,45
258,5	6,36	541,75
258,49	5,9	542,06
258,48	5,9	542,37
258,47	5,9	542,67
258,46	5,35	542,98
258,45	6,36	543,29
258,44	5,9	543,58
258,43	6,91	543,86
258,42	7,37	544,12
258,41	5,9	544,35
258,4	5,9	544,57
258,39	5,9	544,78
258,38	6,36	544,97
258,37	6,36	545,14
258,36	5,81	545,31
258,35	4,79	545,51
258,34	4,79	545,71
258,33	4,79	545,92
258,32	4,79	546,14
258,31	4,79	546,39
258,3	5,25	546,66
258,29	5,35	546,93
258,28	4,33	547,24
258,27	4,33	547,56
258,26	3,32	547,89
258,25	3,78	548,23
258,24	3,78	548,58
258,23	4,24	548,97
258,22	5,71	549,4
258,21	5,71	549,88
258,2	6,18	550,39
258,19	6,18	550,95
258,18	7,19	551,56
258,17	6,73	552,22
258,16	7,28	552,93
258,15	7,28	553,7
258,14	8,3	554,52
258,13	8,85	555,38
258,12	9,31	556,29
258,11	9,77	557,24
258,1	10,78	558,22
258,09	10,78	559,24
258,08	9,86	560,31
258,07	10,32	561,4
258,06	9,86	562,53
258,05	8,85	563,72
258,04	9,86	564,98
258,03	10,42	566,26
258,02	10,42	567,59
258,01	9,4	568,96
258	9,4	570,36
257,99	8,85	571,8
257,98	9,31	573,26
257,97	8,3	574,71
257,96	8,3	576,15
257,95	7,28	577,6
257,94	7,28	579,02
257,93	6,27	580,42
257,92	6,27	581,79
257,91	6,27	583,14
257,9	7,28	584,46
257,89	8,3	585,74
257,88	7,83	586,96
257,87	6,82	588,13
257,86	6,27	589,28
257,85	5,81	590,38
257,84	6,27	591,44
257,83	6,73	592,47
257,82	6,27	593,47
257,81	6,27	594,44
257,8	6,27	595,37
257,79	5,25	596,27
257,78	5,25	597,13
257,77	4,79	597,95
257,76	4,79	598,74
257,75	5,25	599,49
257,74	5,71	600,2
257,73	5,16	600,9
257,72	4,15	601,54
257,71	4,61	602,12
257,7	4,61	602,7
257,69	4,61	603,25
257,68	5,07	603,75
257,67	4,61	604,23
257,66	5,16	604,72
257,65	6,08	605,2
257,64	7,1	605,67
257,63	7,56	606,11
257,62	9,03	606,51
257,61	9,49	606,88
257,6	9,49	607,23
257,59	9,49	607,52
257,58	9,03	607,79
257,57	8,57	608,06
257,56	9,13	608,27
257,55	10,05	608,44
257,54	9,59	608,58
257,53	9,13	608,67
257,52	8,66	608,75
257,51	9,68	608,83
257,5	9,68	608,89
257,49	9,13	608,92
257,48	8,66	608,93
257,47	7,65	608,93
257,46	7,65	608,91
257,45	6,64	608,86
257,44	6,18	608,81
257,43	6,18	608,74
257,42	6,18	608,65
257,41	6,18	608,51
257,4	6,64	608,34
257,39	5,62	608,18
257,38	5,71	608,04
257,37	6,18	607,92
257,36	6,18	607,76
257,35	6,64	607,6
257,34	5,62	607,46
257,33	5,62	607,34
257,32	5,62	607,23
257,31	5,16	607,12
257,3	4,7	607,03
257,29	4,24	606,94
257,28	4,79	606,83
257,27	4,79	606,69
257,26	4,79	606,54
257,25	4,79	606,43
257,24	4,79	606,34
257,23	4,33	606,26
257,22	4,33	606,19
257,21	3,78	606,14
257,2	3,32	606,12
257,19	3,32	606,14
257,18	2,86	606,2
257,17	2,4	606,3
257,16	2,4	606,46
257,15	1,94	606,68
257,14	2,4	606,92
257,13	2,4	607,18
257,12	2,86	607,46
257,11	1,84	607,76
257,1	2,86	608,07
257,09	3,87	608,4
257,08	4,33	608,74
257,07	4,79	609,08
257,06	4,79	609,42
257,05	4,79	609,76
257,04	4,33	610,08
257,03	4,79	610,39
257,02	5,25	610,7
257,01	5,25	610,99
257	5,71	611,28
256,99	5,71	611,55
256,98	6,18	611,8
256,97	5,71	612,04
256,96	6,18	612,28
256,95	6,18	612,49
256,94	6,64	612,68
256,93	5,62	612,84
256,92	5,07	612,98
256,91	4,61	613,1
256,9	4,15	613,17
256,89	4,15	613,21
256,88	5,16	613,22
256,87	5,62	613,2
256,86	5,62	613,12
256,85	5,16	613,02
256,84	5,16	612,88
256,83	5,16	612,73
256,82	7,01	612,57
256,81	6,54	612,38
256,8	6,54	612,15
256,79	7,1	611,92
256,78	7,1	611,7
256,77	6,64	611,45
256,76	6,64	611,19
256,75	7,19	610,93
256,74	7,19	610,67
256,73	7,19	610,42
256,72	7,65	610,14
256,71	6,64	609,82
256,7	6,18	609,49
256,69	6,73	609,17
256,68	7,19	608,84
256,67	7,19	608,49
256,66	8,2	608,16
256,65	6,36	607,84
256,64	6,82	607,5
256,63	6,82	607,16
256,62	5,81	606,8
256,61	6,36	606,44
256,6	6,82	606,08
256,59	6,82	605,7
256,58	6,27	605,31
256,57	6,27	604,94
256,56	6,27	604,56
256,55	5,81	604,14
256,54	5,35	603,68
256,53	5,35	603,2
256,52	4,33	602,71
256,51	3,87	602,25
256,5	3,87	601,85
256,49	2,4	601,51
256,48	2,4	601,24
256,47	2,95	601,02
256,46	2,95	600,83
256,45	2,95	600,67
256,44	2,4	600,56
256,43	1,94	600,51
256,42	3,41	600,51
256,41	2,95	600,53
256,4	2,95	600,55
256,39	3,41	600,55
256,38	3,41	600,51
256,37	3,41	600,44
256,36	3,41	600,34
256,35	3,41	600,22
256,34	3,41	600,06
256,33	3,41	599,87
256,32	4,42	599,65
256,31	4,42	599,4
256,3	3,87	599,15
256,29	3,87	598,9
256,28	4,33	598,62
256,27	3,87	598,29
256,26	4,33	597,86
256,25	2,86	597,34
256,24	2,86	596,75
256,23	2,86	596,1
256,22	3,32	595,37
256,21	3,32	594,6
256,2	3,32	593,79
256,19	3,78	592,92
256,18	4,24	591,99
256,17	4,7	591,01
256,16	5,71	590,02
256,15	5,16	589,05
256,14	5,16	588,11
256,13	4,7	587,2
256,12	5,16	586,33
256,11	5,71	585,54
256,1	6,73	584,78
256,09	6,73	584,05
256,08	7,74	583,35
256,07	8,2	582,7
256,06	8,66	582,11
256,05	8,2	581,57
256,04	8,66	581,09
256,03	9,68	580,68
256,02	9,22	580,29
256,01	9,22	579,92
256	9,22	579,55
255,99	9,22	579,25
255,98	9,77	578,97
255,97	10,78	578,73
255,96	11,8	578,53
