#Written by Robertson Geologging WinLogger V1.5/410		
~VERSION INFORMATION		
#------------------------------------------------------------------------------		
 VERS. 2.0 : CWLS LOG ASCII STANDARD - VERSION 2.0		
 WRAP. NO  : ONE LINE PER DEPTH STEP		
~WELL INFORMATION		
#MNEM.UNIT         DATA                                DESCRIPTION OF MNEMONIC		
#------------------------------------------------------------------------------		
 STRT.M        348.0000                            :   START DEPTH		
 STOP.M          1.8300                            :   STOP DEPTH		
 STEP.M         -0.0100                            :   STEP VALUE		
 NULL.        -999.2500                            :   NULL VALUE		
 COMP.    GEUSd.                                   :   COMPANY NAME		
 WELL.    59.459                                   :   WELL NAME		
 FLD.     Jylland                                  :   FIELD NAME		
 LOC.     N/A                                      :   LOCATION		
 PROV.    N/A                                      :   PROVINCE		
 SRVC.    N/A                                      :   SERVICE COMPANY NAME		
 DATE.    26 May 14                                :   DATE		
 UWI.     N/A                                      :   UNIQUE WELL IDENTIFIER		
~PARAMETER INFORMATION		
#MNEMO.UNIT         VALUE                 DESCRIPTION OF MNEMONIC		
#------------------------------------------------------------------------------		
~OTHER INFORMATION SECTION		
#------------------------------------------------------------------------------		
~CURVE INFORMATION		
#MNEMO.UNIT         API CODE              CURVE DESCRIPTION		
#------------------------------------------------------------------------------		
 DEPTH.M                                 :   0     Depth		
 NGAM.API                                :   1     Natural Gamma		
 COND.mS/m                               :   2     Conductivity		
#------------------------------------------------------------------------------		
~A  DEPTH          NGAM          COND		
# ...
103,65	9,22	162,02
103,64	8,66	162,04
103,63	8,2	162,04
103,62	7,19	162,06
103,61	7,19	162,1
103,6	6,18	162,11
103,59	5,71	162,09
103,58	5,25	162,06
103,57	5,25	162,03
103,56	5,25	162,01
103,55	5,25	161,98
103,54	4,79	161,94
103,53	4,79	161,94
103,52	4,33	161,98
103,51	3,32	162,03
103,5	4,33	162,09
103,49	4,79	162,16
103,48	4,89	162,22
103,47	4,89	162,23
103,46	5,9	162,2
103,45	6,36	162,18
103,44	6,82	162,19
103,43	7,28	162,22
103,42	8,3	162,22
103,41	8,76	162,19
103,4	8,3	162,14
103,39	8,76	162,07
103,38	8,76	162
103,37	8,76	161,92
103,36	8,3	161,86
103,35	7,83	161,84
103,34	7,83	161,83
103,33	6,82	161,81
103,32	6,36	161,81
103,31	5,81	161,85
103,3	5,35	161,91
103,29	4,33	161,96
103,28	4,33	162
103,27	4,89	162
103,26	5,53	161,96
103,25	4,98	161,9
103,24	4,52	161,82
103,23	4,52	161,77
103,22	5,16	161,76
103,21	4,7	161,75
103,2	5,16	161,71
103,19	5,62	161,67
103,18	5,07	161,63
103,17	5,62	161,61
103,16	6,08	161,62
103,15	6,54	161,69
103,14	6,54	161,83
103,13	7,01	161,96
103,12	7,01	162,04
103,11	6,54	162,09
103,1	5,53	162,14
103,09	4,42	162,18
103,08	3,96	162,22
103,07	3,96	162,23
103,06	4,42	162,24
103,05	3,87	162,26
103,04	3,87	162,28
103,03	3,41	162,29
103,02	3,96	162,34
103,01	3,96	162,42
103	4,42	162,5
102,99	3,96	162,55
102,98	3,96	162,59
102,97	4,52	162,62
102,96	4,52	162,67
102,95	4,98	162,73
102,94	6,45	162,77
102,93	6,45	162,82
102,92	7,47	162,86
102,91	7,47	162,9
102,9	7,47	162,92
102,89	7,01	162,94
102,88	7,47	162,98
102,87	7,93	162,99
102,86	8,94	163,01
102,85	8,94	163,07
102,84	9,95	163,16
102,83	9,4	163,26
102,82	10,51	163,33
102,81	10,51	163,35
102,8	10,42	163,34
102,79	10,42	163,32
102,78	11,43	163,27
102,77	10,97	163,23
102,76	11,43	163,19
102,75	11,43	163,17
102,74	12,44	163,13
102,73	13,55	163,03
102,72	13,55	162,93
102,71	13	162,89
102,7	13	162,89
102,69	12,44	162,88
102,68	13,46	162,86
102,67	13	162,85
102,66	13,55	162,83
102,65	12,44	162,8
102,64	11,98	162,74
102,63	11,52	162,67
102,62	11,06	162,62
102,61	9,59	162,61
102,6	9,03	162,59
102,59	9,68	162,55
102,58	9,13	162,52
102,57	9,13	162,53
102,56	8,02	162,62
102,55	9,03	162,75
102,54	9,59	162,89
102,53	10,78	163,02
102,52	11,34	163,14
102,51	9,31	163,22
102,5	9,77	163,26
102,49	9,77	163,3
102,48	10,23	163,34
102,47	10,78	163,39
102,46	11,25	163,39
102,45	11,71	163,32
102,44	12,17	163,23
102,43	11,71	163,15
102,42	10,6	163,09
102,41	10,14	163,07
102,4	9,13	163,08
102,39	10,6	163,11
102,38	9,59	163,14
102,37	9,03	163,13
102,36	7,37	163,1
102,35	6,36	163,08
102,34	6,91	163,03
102,33	6,91	162,95
102,32	7,37	162,84
102,31	6,91	162,72
102,3	6,36	162,58
102,29	6,45	162,45
102,28	6,45	162,36
102,27	6,45	162,32
102,26	6,45	162,29
102,25	6,91	162,26
102,24	6,91	162,24
102,23	6,91	162,27
102,22	6,45	162,35
102,21	6,91	162,44
102,2	6,45	162,53
102,19	6,45	162,65
102,18	6,91	162,75
102,17	6,82	162,82
102,16	5,81	162,86
102,15	4,33	162,9
102,14	5,81	162,93
102,13	7,47	162,93
102,12	7,37	162,86
102,11	7,37	162,76
102,1	6,91	162,67
102,09	7,37	162,58
102,08	6,91	162,47
102,07	7,93	162,35
102,06	8,39	162,24
102,05	8,39	162,14
102,04	8,48	162,07
102,03	9,49	162,03
102,02	9,49	162,04
102,01	10,05	162,1
102	10,14	162,18
101,99	11,61	162,24
101,98	12,07	162,28
101,97	10,6	162,33
101,96	9,4	162,36
101,95	9,4	162,37
101,94	10,05	162,34
101,93	10,51	162,25
101,92	10,51	162,1
101,91	10,97	161,93
101,9	10,42	161,79
101,89	10,42	161,71
101,88	9,95	161,69
101,87	9,86	161,69
101,86	9,31	161,68
101,85	9,77	161,67
101,84	9,77	161,68
101,83	9,22	161,7
101,82	7,74	161,76
101,81	7,28	161,87
101,8	8,3	162
101,79	7,83	162,08
101,78	7,83	162,07
101,77	7,19	162,02
101,76	6,73	161,96
101,75	6,27	161,92
101,74	5,81	161,86
101,73	6,36	161,77
101,72	6,36	161,68
101,71	5,81	161,61
101,7	5,35	161,58
101,69	4,89	161,63
101,68	5,44	161,77
101,67	4,98	162
101,66	5,44	162,23
101,65	5,9	162,42
101,64	6,91	162,57
101,63	5,9	162,68
101,62	5,9	162,78
101,61	5,44	162,86
101,6	4,98	162,9
101,59	6,45	162,88
101,58	6,45	162,77
101,57	6,91	162,58
101,56	6,91	162,32
101,55	6,91	162,06
101,54	6,91	161,85
101,53	6,91	161,69
101,52	7,37	161,58
101,51	6,82	161,5
101,5	6,27	161,45
101,49	6,27	161,44
101,48	6,82	161,46
101,47	5,81	161,5
101,46	6,82	161,58
101,45	6,82	161,62
101,44	7,28	161,53
101,43	7,28	161,3
101,42	6,36	161,02
101,41	6,82	160,74
101,4	6,36	160,49
101,39	5,81	160,27
101,38	5,35	160,09
101,37	5,35	159,94
101,36	6,45	159,83
101,35	6,45	159,71
101,34	5,99	159,68
101,33	7,01	159,79
101,32	6,54	160,03
101,31	5,53	160,34
101,3	5,53	160,64
101,29	4,52	160,92
101,28	5,07	161,16
101,27	6,08	161,35
101,26	6,08	161,48
101,25	5,99	161,52
101,24	5,99	161,52
101,23	5,99	161,49
101,22	5,53	161,43
101,21	5,99	161,35
101,2	6,45	161,28
101,19	6,36	161,25
101,18	6,36	161,24
101,17	6,36	161,23
101,16	5,35	161,2
101,15	5,81	161,19
101,14	5,81	161,25
101,13	5,81	161,34
101,12	6,36	161,41
101,11	6,27	161,45
101,1	6,82	161,48
101,09	6,82	161,46
101,08	6,36	161,4
101,07	5,9	161,32
101,06	6,36	161,27
101,05	6,91	161,25
101,04	7,47	161,21
101,03	7,01	161,15
101,02	8,02	161,07
101,01	8,02	161
101	8,02	160,96
100,99	9,03	160,96
100,98	8,57	160,99
100,97	9,13	161,03
100,96	9,13	161,04
100,95	8,57	161
100,94	8,11	160,96
100,93	6,08	161
100,92	6,54	161,05
100,91	6,54	161,09
100,9	6,54	161,1
100,89	7,1	161,08
100,88	6,54	161,02
100,87	5,53	160,92
100,86	5,53	160,82
100,85	3,5	160,77
100,84	3,5	160,79
100,83	4,06	160,83
100,82	3,04	160,83
100,81	3,04	160,8
100,8	2,95	160,82
100,79	4,98	160,87
100,78	4,98	160,96
100,77	4,98	161,08
100,76	5,44	161,21
100,75	5,44	161,33
100,74	5,44	161,36
100,73	5,9	161,35
100,72	5,35	161,32
100,71	5,35	161,27
100,7	7,37	161,19
100,69	8,39	161,05
100,68	9,86	160,86
100,67	9,4	160,68
100,66	8,85	160,54
100,65	8,85	160,44
100,64	8,85	160,38
100,63	9,49	160,41
100,62	7,47	160,43
100,61	7,93	160,41
100,6	8,39	160,37
100,59	7,93	160,37
100,58	8,48	160,42
100,57	9,03	160,5
100,56	8,57	160,58
100,55	8,57	160,64
100,54	9,59	160,67
100,53	8,02	160,62
100,52	8,02	160,52
100,51	6,54	160,43
100,5	7,01	160,43
100,49	7,01	160,46
100,48	7,56	160,51
100,47	8,02	160,54
100,46	6,91	160,59
100,45	6,91	160,61
100,44	6,91	160,6
100,43	6,45	160,63
100,42	8,48	160,75
100,41	8,02	160,87
100,4	7,47	160,96
100,39	8,48	160,99
100,38	9,03	160,97
100,37	8,02	160,96
100,36	7,56	161
100,35	7,1	161,05
100,34	7,1	161,12
100,33	8,11	161,19
100,32	8,57	161,19
100,31	9,03	161,13
100,3	8,57	161,09
100,29	10,05	161,08
100,28	10,6	161,09
100,27	10,14	161,1
100,26	11,61	161,11
100,25	9,59	161,11
100,24	10,05	161,11
100,23	10,51	161,08
100,22	9,49	161
100,21	8,48	160,93
100,2	10,14	160,9
100,19	10,14	160,88
100,18	9,59	160,88
100,17	9,59	160,88
100,16	9,13	160,88
100,15	9,68	160,87
100,14	8,66	160,82
100,13	10,14	160,69
100,12	8,66	160,59
100,11	9,13	160,54
100,1	9,13	160,53
100,09	7,65	160,52
100,08	8,11	160,49
100,07	7,56	160,43
100,06	8,11	160,37
100,05	8,57	160,3
100,04	8,57	160,24
100,03	7,93	160,19
100,02	8,48	160,18
100,01	8,48	160,16
100	8,94	160,12
99,99	7,93	160,1
99,98	7,93	160,13
99,97	7,93	160,24
99,96	7,47	160,33
99,95	7,47	160,36
99,94	6,45	160,36
99,93	6,91	160,31
99,92	7,37	160,24
99,91	7,37	160,13
99,9	6,91	160,05
99,89	5,9	160,02
99,88	5,44	160,01
99,87	6,45	160
99,86	6,45	159,98
99,85	5,9	160,06
99,84	6,36	160,22
99,83	6,45	160,39
99,82	6,45	160,52
99,81	5,9	160,59
99,8	5,9	160,64
99,79	5,35	160,7
99,78	5,35	160,74
99,77	7,01	160,74
99,76	7,01	160,69
99,75	7,01	160,58
99,74	6,54	160,38
99,73	8,02	160,17
99,72	8,02	159,98
99,71	8,02	159,89
99,7	7,56	159,92
99,69	7,01	160,01
99,68	7,01	160,1
99,67	6,54	160,16
99,66	6,45	160,18
99,65	6,91	160,19
99,64	6,91	160,27
99,63	7,93	160,35
99,62	8,57	160,33
99,61	9,59	160,2
99,6	7,93	160,03
99,59	7,47	159,84
99,58	8,48	159,69
99,57	9,59	159,62
99,56	8,57	159,62
99,55	9,03	159,69
99,54	9,49	159,77
99,53	8,94	159,79
99,52	8,48	159,8
99,51	9,59	159,91
99,5	9,59	160,11
99,49	9,13	160,36
99,48	9,68	160,62
99,47	9,68	160,83
99,46	9,77	160,96
99,45	9,13	161,03
99,44	8,11	161,04
99,43	8,11	161,03
99,42	8,66	161,01
99,41	7,19	160,99
99,4	6,54	160,94
99,39	7,1	160,85
99,38	7,65	160,76
99,37	7,19	160,67
99,36	7,19	160,59
