#Written by Robertson Geologging WinLogger V1.5/410		
~VERSION INFORMATION		
#------------------------------------------------------------------------------		
 VERS. 2.0 : CWLS LOG ASCII STANDARD - VERSION 2.0		
 WRAP. NO  : ONE LINE PER DEPTH STEP		
~WELL INFORMATION		
#MNEM.UNIT         DATA                                DESCRIPTION OF MNEMONIC		
#------------------------------------------------------------------------------		
 STRT.M        348.0000                            :   START DEPTH		
 STOP.M          1.8300                            :   STOP DEPTH		
 STEP.M         -0.0100                            :   STEP VALUE		
 NULL.        -999.2500                            :   NULL VALUE		
 COMP.    GEUSd.                                   :   COMPANY NAME		
 WELL.    59.459                                   :   WELL NAME		
 FLD.     Jylland                                  :   FIELD NAME		
 LOC.     N/A                                      :   LOCATION		
 PROV.    N/A                                      :   PROVINCE		
 SRVC.    N/A                                      :   SERVICE COMPANY NAME		
 DATE.    26 May 14                                :   DATE		
 UWI.     N/A                                      :   UNIQUE WELL IDENTIFIER		
~PARAMETER INFORMATION		
#MNEMO.UNIT         VALUE                 DESCRIPTION OF MNEMONIC		
#------------------------------------------------------------------------------		
~OTHER INFORMATION SECTION		
#------------------------------------------------------------------------------		
~CURVE INFORMATION		
#MNEMO.UNIT         API CODE              CURVE DESCRIPTION		
#------------------------------------------------------------------------------		
 DEPTH.M                                 :   0     Depth		
 NGAM.API                                :   1     Natural Gamma		
 COND.mS/m                               :   2     Conductivity		
#------------------------------------------------------------------------------		
~A  DEPTH          NGAM          COND		
# ...
327,45	7,93	422,53
327,44	7,01	423,11
327,43	8,85	423,69
327,42	8,85	424,3
327,41	8,39	424,92
327,4	9,4	425,53
327,39	8,94	426,16
327,38	9,95	426,79
327,37	11,34	427,44
327,36	12,35	428,09
327,35	12,81	428,7
327,34	12,35	429,31
327,33	12,35	429,9
327,32	12,35	430,49
327,31	11,8	431,05
327,3	13,18	431,61
327,29	13,18	432,16
327,28	12,72	432,7
327,27	12,72	433,23
327,26	11,43	433,76
327,25	11,43	434,3
327,24	11,98	434,85
327,23	11,43	435,38
327,22	11,43	435,9
327,21	10,88	436,41
327,2	10,51	436,91
327,19	10,42	437,39
327,18	10,42	437,85
327,17	11,43	438,31
327,16	11,89	438,72
327,15	12,44	439,1
327,14	11,98	439,45
327,13	11,06	439,76
327,12	10,6	440,07
327,11	10,14	440,37
327,1	11,15	440,64
327,09	10,14	440,9
327,08	10,14	441,16
327,07	9,13	441,4
327,06	8,66	441,63
327,05	9,22	441,86
327,04	8,76	442,05
327,03	8,66	442,23
327,02	9,22	442,42
327,01	8,76	442,59
327	8,2	442,75
326,99	7,28	442,91
326,98	7,19	443,06
326,97	7,65	443,19
326,96	9,03	443,32
326,95	9,03	443,44
326,94	10,05	443,58
326,93	9,03	443,74
326,92	9,49	443,92
326,91	9,95	444,12
326,9	10,42	444,33
326,89	10,42	444,53
326,88	9,4	444,74
326,87	10,32	444,95
326,86	9,4	445,18
326,85	9,77	445,4
326,84	10,23	445,6
326,83	10,23	445,81
326,82	10,23	446
326,81	10,78	446,16
326,8	10,78	446,28
326,79	9,4	446,4
326,78	9,4	446,49
326,77	8,39	446,55
326,76	8,85	446,56
326,75	9,4	446,54
326,74	9,4	446,5
326,73	9,4	446,43
326,72	9,86	446,32
326,71	9,86	446,18
326,7	9,4	446,01
326,69	9,4	445,81
326,68	8,48	445,56
326,67	8,48	445,27
326,66	8,48	444,95
326,65	9,4	444,6
326,64	7,93	444,21
326,63	8,85	443,8
326,62	8,85	443,39
326,61	10,23	442,99
326,6	10,69	442,58
326,59	10,78	442,18
326,58	10,23	441,79
326,57	10,78	441,44
326,56	12,63	441,13
326,55	12,17	440,87
326,54	13,55	440,66
326,53	15,12	440,49
326,52	16,04	440,35
326,51	16,04	440,21
326,5	15,58	440,09
326,49	15,58	440,03
326,48	16,13	440,02
326,47	16,13	440,05
326,46	15,67	440,11
326,45	15,67	440,17
326,44	14,75	440,25
326,43	15,3	440,35
326,42	14,75	440,48
326,41	14,75	440,64
326,4	14,29	440,83
326,39	11,98	441,04
326,38	14,01	441,24
326,37	14,66	441,41
326,36	13,09	441,54
326,35	12,63	441,64
326,34	12,17	441,73
326,33	12,17	441,81
326,32	12,17	441,87
326,31	11,15	441,88
326,3	11,61	441,86
326,29	13	441,8
326,28	14,01	441,71
326,27	13,55	441,56
326,26	13,46	441,38
326,25	13	441,19
326,24	13,46	440,98
326,23	12,44	440,75
326,22	13,37	440,47
326,21	12,81	440,13
326,2	10,78	439,8
326,19	10,78	439,47
326,18	10,32	439,12
326,17	9,86	438,75
326,16	10,88	438,38
326,15	10,42	438
326,14	11,43	437,64
326,13	11,43	437,25
326,12	9,13	436,83
326,11	8,11	436,43
326,1	9,13	436,04
326,09	8,2	435,62
326,08	9,03	435,18
326,07	8,57	434,71
326,06	9,49	434,23
326,05	10,05	433,78
326,04	10,42	433,32
326,03	11,43	432,86
326,02	11,43	432,4
326,01	13,46	431,95
326	13,92	431,47
325,99	13,37	431
325,98	13,83	430,55
325,97	12,81	430,09
325,96	13,27	429,66
325,95	14,29	429,22
325,94	15,21	428,74
325,93	14,66	428,24
325,92	15,12	427,71
325,91	15,3	427,18
325,9	15,3	426,67
325,89	16,22	426,17
325,88	15,67	425,64
325,87	14,29	425,12
325,86	13,73	424,61
325,85	14,19	424,08
325,84	13,55	423,56
325,83	13,09	423,05
325,82	13,64	422,55
325,81	14,56	422,05
325,8	15,58	421,56
325,79	16,5	421,06
325,78	15,95	420,56
325,77	15,02	420,08
325,76	17,05	419,59
325,75	17,05	419,08
325,74	18,07	418,54
325,73	19,63	418,01
325,72	19,17	417,44
325,71	19,73	416,85
325,7	21,57	416,27
325,69	23,14	415,66
325,68	23,6	415,05
325,67	22,21	414,44
325,66	22,21	413,82
325,65	22,21	413,21
325,64	22,68	412,6
325,63	21,66	412,02
325,62	21,2	411,47
325,61	22,21	410,98
325,6	22,68	410,54
325,59	21,2	410,13
325,58	21,66	409,73
325,57	20,09	409,32
325,56	20,56	408,92
325,55	20,09	408,52
325,54	21,11	408,12
325,53	19,73	407,73
325,52	20,46	407,36
325,51	20,46	406,97
325,5	23,69	406,57
325,49	24,15	406,16
325,48	23,6	405,77
325,47	21,75	405,42
325,46	22,77	405,16
325,45	25,07	404,93
325,44	25,62	404,73
325,43	26,55	404,56
325,42	25,53	404,41
325,41	26,09	404,27
325,4	27,01	404,19
325,39	26,55	404,12
325,38	26,09	404,02
325,37	23,6	403,92
325,36	24,98	403,82
325,35	24,7	403,67
325,34	24,7	403,52
325,33	23,97	403,39
325,32	24,89	403,26
325,31	24,89	403,15
325,3	26,27	403,07
325,29	25,81	403
325,28	22,58	403
325,27	22,03	403,09
325,26	21,66	403,24
325,25	23,04	403,41
325,24	22,58	403,65
325,23	22,58	403,93
325,22	24,06	404,26
325,21	26,82	404,64
325,2	27,84	405,06
325,19	27,01	405,51
325,18	26,36	405,98
325,17	27,47	406,41
325,16	26,82	406,81
325,15	27,93	407,21
325,14	27,47	407,63
325,13	27,93	408,06
325,12	29,4	408,48
325,11	31,25	408,89
325,1	31,8	409,28
325,09	32,35	409,66
325,08	31,52	410,03
325,07	31,89	410,42
325,06	31,52	410,82
325,05	29,86	411,23
325,04	28,67	411,61
325,03	30,42	411,98
325,02	28,94	412,29
325,01	30,33	412,56
325	29,31	412,79
324,99	30,23	412,99
324,98	30,23	413,16
324,97	32,08	413,28
324,96	32,72	413,32
324,95	33	413,33
324,94	34,75	413,31
324,93	33,64	413,25
324,92	33,92	413,16
324,91	35,4	413,05
324,9	35,4	412,92
324,89	35,4	412,79
324,88	35,4	412,63
324,87	36,87	412,47
324,86	35,03	412,31
324,85	35,95	412,14
324,84	33,18	411,96
324,83	34,01	411,78
324,82	33,28	411,61
324,81	32,63	411,43
324,8	32,26	411,26
324,79	31,62	411,08
324,78	30,33	410,91
324,77	28,57	410,74
324,76	28,67	410,53
324,75	26,82	410,31
324,74	26,82	410,1
324,73	27,93	409,9
324,72	29,68	409,66
324,71	28,3	409,42
324,7	26,18	409,17
324,69	26,18	408,91
324,68	25,72	408,63
324,67	26,18	408,33
324,66	24,89	408,01
324,65	23,78	407,69
324,64	22,95	407,38
324,63	22,49	407,04
324,62	21,11	406,7
324,61	21,11	406,36
324,6	20,65	406
324,59	21,11	405,65
324,58	24,33	405,29
324,57	23,32	404,92
324,56	22,21	404,57
324,55	19,45	404,24
324,54	19,91	403,91
324,53	20,19	403,57
324,52	20,46	403,23
324,51	20,92	402,88
324,5	21,02	402,52
324,49	20,37	402,17
324,48	21,48	401,84
324,47	21,29	401,52
324,46	20,28	401,21
324,45	19,82	400,92
324,44	20,19	400,62
324,43	18,8	400,36
324,42	17,33	400,13
324,41	13,64	399,94
324,4	14,93	399,77
324,39	14,01	399,61
324,38	15,39	399,47
324,37	14,93	399,35
324,36	14,66	399,23
324,35	15,3	399,13
324,34	14,84	399,05
324,33	15,21	399,01
324,32	15,85	398,97
324,31	14,84	398,95
324,3	14,93	398,94
324,29	17,42	398,96
324,28	17,42	399,02
324,27	16,04	399,11
324,26	16,04	399,22
324,25	17,88	399,38
324,24	18,8	399,58
324,23	17,97	399,8
324,22	17,97	400,05
324,21	17,05	400,34
324,2	17,05	400,66
324,19	16,13	401,01
324,18	16,13	401,37
324,17	16,13	401,73
324,16	15,76	402,1
324,15	15,21	402,53
324,14	15,21	403
324,13	14,75	403,5
324,12	14,1	404,05
324,11	15,58	404,6
324,1	16,04	405,16
324,09	16,59	405,73
324,08	15,67	406,31
324,07	16,78	406,91
324,06	17,61	407,57
324,05	18,62	408,26
324,04	18,62	408,91
324,03	18,62	409,54
324,02	19,17	410,18
324,01	18,25	410,79
324	19,26	411,42
323,99	20,09	412,06
323,98	20,09	412,68
323,97	19,54	413,31
323,96	21,57	413,92
323,95	21,57	414,52
323,94	20,56	415,08
323,93	20,09	415,66
323,92	20,09	416,25
323,91	20,09	416,81
323,9	18,53	417,37
323,89	18,25	417,93
323,88	18,62	418,48
323,87	20,92	419,03
323,86	21,48	419,6
323,85	20,46	420,19
323,84	20,56	420,8
323,83	20,46	421,42
323,82	19,54	422,07
323,81	19,54	422,72
323,8	19,54	423,4
323,79	17,51	424,11
323,78	16,13	424,81
323,77	17,14	425,56
323,76	18,07	426,33
323,75	17,51	427,11
323,74	17,05	427,92
323,73	17,05	428,78
323,72	16,5	429,69
323,71	15,12	430,6
323,7	12,81	431,54
323,69	13,18	432,48
323,68	14,19	433,45
323,67	14,56	434,44
323,66	13,18	435,43
323,65	13,18	436,42
323,64	12,72	437,41
323,63	13,18	438,4
323,62	13,18	439,37
323,61	14,1	440,29
323,6	14,1	441,2
323,59	12,72	442,09
323,58	14,29	442,95
323,57	14,29	443,8
323,56	15,3	444,62
323,55	15,21	445,41
323,54	17,05	446,17
323,53	16,59	446,91
323,52	17,24	447,63
323,51	17,7	448,31
323,5	16,78	449
323,49	17,42	449,7
323,48	18,53	450,4
323,47	18,99	451,09
323,46	18,53	451,75
323,45	19,45	452,41
323,44	18,53	453,08
323,43	18,9	453,76
323,42	18,9	454,44
323,41	18,34	455,1
323,4	17,88	455,76
323,39	17,42	456,42
323,38	17,88	457,06
323,37	17,05	457,65
323,36	17,51	458,22
323,35	16,5	458,81
