#Written by Robertson Geologging WinLogger V1.5/410		
~VERSION INFORMATION		
#------------------------------------------------------------------------------		
 VERS. 2.0 : CWLS LOG ASCII STANDARD - VERSION 2.0		
 WRAP. NO  : ONE LINE PER DEPTH STEP		
~WELL INFORMATION		
#MNEM.UNIT         DATA                                DESCRIPTION OF MNEMONIC		
#------------------------------------------------------------------------------		
 STRT.M        348.0000                            :   START DEPTH		
 STOP.M          1.8300                            :   STOP DEPTH		
 STEP.M         -0.0100                            :   STEP VALUE		
 NULL.        -999.2500                            :   NULL VALUE		
 COMP.    GEUSd.                                   :   COMPANY NAME		
 WELL.    59.459                                   :   WELL NAME		
 FLD.     Jylland                                  :   FIELD NAME		
 LOC.     N/A                                      :   LOCATION		
 PROV.    N/A                                      :   PROVINCE		
 SRVC.    N/A                                      :   SERVICE COMPANY NAME		
 DATE.    26 May 14                                :   DATE		
 UWI.     N/A                                      :   UNIQUE WELL IDENTIFIER		
~PARAMETER INFORMATION		
#MNEMO.UNIT         VALUE                 DESCRIPTION OF MNEMONIC		
#------------------------------------------------------------------------------		
~OTHER INFORMATION SECTION		
#------------------------------------------------------------------------------		
~CURVE INFORMATION		
#MNEMO.UNIT         API CODE              CURVE DESCRIPTION		
#------------------------------------------------------------------------------		
 DEPTH.M                                 :   0     Depth		
 NGAM.API                                :   1     Natural Gamma		
 COND.mS/m                               :   2     Conductivity		
#------------------------------------------------------------------------------		
~A  DEPTH          NGAM          COND		
# ...
192,39	12,81	422,54
192,38	12,35	423,21
192,37	11,89	423,88
192,36	10,42	424,56
192,35	9,86	425,28
192,34	8,39	426
192,33	8,48	426,71
192,32	8,48	427,44
192,31	9,13	428,18
192,3	7,47	428,92
192,29	7,93	429,67
192,28	7,47	430,46
192,27	7,47	431,25
192,26	8,48	432,05
192,25	6,18	432,86
192,24	6,73	433,67
192,23	6,73	434,5
192,22	7,74	435,36
192,21	8,3	436,23
192,2	8,3	437,1
192,19	8,76	438
192,18	9,77	438,9
192,17	9,77	439,8
192,16	10,69	440,71
192,15	10,14	441,64
192,14	10,05	442,56
192,13	10,05	443,49
192,12	9,59	444,41
192,11	10,05	445,32
192,1	10,6	446,24
192,09	10,05	447,15
192,08	10,05	448,05
192,07	9,59	448,97
192,06	9,13	449,87
192,05	8,57	450,75
192,04	8,02	451,6
192,03	8,02	452,45
192,02	7,01	453,32
192,01	5,99	454,17
192	5,99	455,01
191,99	3,96	455,83
191,98	3,5	456,64
191,97	3,59	457,44
191,96	4,61	458,18
191,95	4,61	458,92
191,94	5,25	459,64
191,93	4,7	460,36
191,92	5,35	461,05
191,91	5,35	461,71
191,9	4,79	462,36
191,89	4,79	462,99
191,88	4,33	463,59
191,87	4,79	464,16
191,86	4,79	464,71
191,85	5,35	465,26
191,84	5,81	465,8
191,83	5,81	466,31
191,82	5,81	466,79
191,81	6,82	467,26
191,8	6,82	467,72
191,79	6,27	468,15
191,78	7,28	468,56
191,77	6,18	468,92
191,76	6,73	469,24
191,75	7,65	469,52
191,74	7,65	469,78
191,73	7,65	470,04
191,72	7,65	470,29
191,71	8,2	470,53
191,7	8,2	470,75
191,69	8,76	470,94
191,68	8,2	471,12
191,67	8,2	471,32
191,66	8,2	471,55
191,65	8,66	471,8
191,64	8,11	472,06
191,63	7,47	472,31
191,62	7,56	472,55
191,61	6,54	472,79
191,6	7,01	473,01
191,59	6,45	473,24
191,58	5,44	473,46
191,57	5,44	473,67
191,56	5,99	473,87
191,55	5,99	474,05
191,54	5,9	474,22
191,53	5,44	474,38
191,52	4,89	474,54
191,51	4,89	474,67
191,5	5,44	474,8
191,49	5,44	474,93
191,48	5,99	475,03
191,47	5,99	475,08
191,46	7,83	475,1
191,45	7,74	475,07
191,44	7,74	475,02
191,43	7,83	474,91
191,42	7,83	474,8
191,41	6,82	474,69
191,4	7,28	474,58
191,39	8,39	474,47
191,38	8,85	474,37
191,37	8,39	474,28
191,36	8,39	474,21
191,35	8,85	474,19
191,34	9,31	474,21
191,33	8,3	474,27
191,32	8,3	474,37
191,31	7,28	474,47
191,3	6,82	474,57
191,29	4,52	474,67
191,28	4,52	474,78
191,27	4,52	474,87
191,26	4,42	474,97
191,25	5,9	475,07
191,24	5,9	475,18
191,23	6,91	475,27
191,22	6,36	475,33
191,21	5,9	475,39
191,2	5,9	475,47
191,19	6,91	475,55
191,18	6,91	475,6
191,17	7,01	475,62
191,16	7,47	475,63
191,15	8,94	475,61
191,14	8,94	475,55
191,13	10,42	475,45
191,12	11,43	475,32
191,11	10,97	475,19
191,1	11,43	475,03
191,09	11,98	474,82
191,08	11,61	474,58
191,07	11,61	474,36
191,06	10,6	474,16
191,05	10,51	473,99
191,04	10,51	473,87
191,03	10,51	473,78
191,02	11,52	473,72
191,01	11,06	473,66
191	10,51	473,62
190,99	10,05	473,58
190,98	9,03	473,56
190,97	9,49	473,54
190,96	9,13	473,53
190,95	8,57	473,5
190,94	9,03	473,47
190,93	10,05	473,41
190,92	9,59	473,35
190,91	8,48	473,3
190,9	9,95	473,26
190,89	10,05	473,26
190,88	11,52	473,3
190,87	11,98	473,35
190,86	11,98	473,43
190,85	10,42	473,51
190,84	10,42	473,58
190,83	12,07	473,62
190,82	13,46	473,61
190,81	13	473,55
190,8	13,64	473,45
190,79	13	473,29
190,78	13	473,07
190,77	13,09	472,8
190,76	12,63	472,49
190,75	12,54	472,15
190,74	12,54	471,77
190,73	11,52	471,39
190,72	12,07	471,01
190,71	10,6	470,66
190,7	10,6	470,33
190,69	11,71	470,02
190,68	11,71	469,74
190,67	11,71	469,47
190,66	10,6	469,22
190,65	10,23	468,97
190,64	11,25	468,75
190,63	11,25	468,54
190,62	11,25	468,34
190,61	11,25	468,13
190,6	12,72	467,96
190,59	12,26	467,81
190,58	12,26	467,67
190,57	12,26	467,54
190,56	12,35	467,44
190,55	11,25	467,38
190,54	10,69	467,37
190,53	10,78	467,38
190,52	10,69	467,44
190,51	11,25	467,53
190,5	13,27	467,67
190,49	12,72	467,81
190,48	12,17	467,98
190,47	11,15	468,19
190,46	10,51	468,39
190,45	11,06	468,6
190,44	11,06	468,8
190,43	9,03	469
190,42	8,48	469,2
190,41	8,02	469,41
190,4	9,68	469,62
190,39	10,6	469,84
190,38	11,61	470,07
190,37	11,15	470,28
190,36	10,6	470,5
190,35	9,59	470,74
190,34	8,57	470,99
190,33	8,02	471,24
190,32	8,57	471,5
190,31	8,11	471,76
190,3	8,11	472
190,29	8,11	472,24
190,28	7,1	472,49
190,27	7,65	472,73
190,26	9,68	472,97
190,25	10,23	473,2
190,24	10,23	473,43
190,23	10,05	473,67
190,22	9,68	473,91
190,21	9,68	474,15
190,2	12,72	474,39
190,19	13,73	474,63
190,18	13,73	474,87
190,17	14,84	475,1
190,16	15,39	475,31
190,15	16,32	475,53
190,14	16,78	475,76
190,13	17,88	475,96
190,12	19,45	476,14
190,11	20,46	476,32
190,1	19,45	476,51
190,09	18,53	476,65
190,08	19,45	476,79
190,07	20,92	476,93
190,06	19,45	477,06
190,05	20	477,19
190,04	19,45	477,31
190,03	17,88	477,43
190,02	17,42	477,54
190,01	19,91	477,66
190	19,82	477,76
189,99	17,79	477,84
189,98	17,79	477,89
189,97	17,88	477,94
189,96	17,79	477,96
189,95	17,79	477,96
189,94	17,33	477,95
189,93	18,34	477,91
189,92	17,7	477,85
189,91	17,88	477,77
189,9	16,87	477,68
189,89	19,17	477,58
189,88	17,97	477,47
189,87	18,99	477,41
189,86	17,51	477,34
189,85	17,51	477,26
189,84	17,05	477,17
189,83	16,04	477,06
189,82	16,59	476,96
189,81	15,12	476,85
189,8	15,02	476,72
189,79	15,02	476,6
189,78	13,46	476,45
189,77	12,9	476,29
189,76	12,35	476,11
189,75	12,9	475,93
189,74	11,25	475,74
189,73	11,34	475,57
189,72	9,03	475,41
189,71	9,59	475,26
189,7	8,11	475,1
189,69	9,13	474,95
189,68	9,59	474,8
189,67	8,11	474,65
189,66	9,13	474,5
189,65	9,03	474,37
189,64	9,59	474,23
189,63	10,14	474,09
189,62	9,13	473,95
189,61	9,13	473,8
189,6	9,13	473,66
189,59	10,69	473,54
189,58	10,14	473,41
189,57	11,25	473,3
189,56	11,15	473,22
189,55	11,61	473,14
189,54	11,15	473,06
189,53	12,17	472,99
189,52	11,61	472,95
189,51	11,15	472,92
189,5	12,07	472,91
189,49	12,07	472,91
189,48	12,17	472,91
189,47	12,07	472,92
189,46	12,54	472,93
189,45	14,84	472,92
189,44	14,38	472,91
189,43	14,84	472,92
189,42	13,92	472,95
189,41	13,92	472,96
189,4	13,83	472,97
189,39	13,37	472,98
189,38	13,92	472,98
189,37	13,83	472,97
189,36	13,92	472,96
189,35	13,46	472,95
189,34	14,38	472,95
189,33	14,01	472,95
189,32	14,47	472,93
189,31	14,47	472,92
189,3	14,01	472,89
189,29	13	472,83
189,28	11,15	472,76
189,27	11,71	472,69
189,26	12,72	472,62
189,25	12,63	472,51
189,24	12,17	472,4
189,23	12,63	472,27
189,22	13,73	472,16
189,21	13,73	472,05
189,2	13,27	471,89
189,19	12,17	471,75
189,18	12,63	471,61
189,17	11,15	471,47
189,16	11,06	471,31
189,15	10,05	471,15
189,14	11,15	471
189,13	11,61	470,85
189,12	11,15	470,7
189,11	12,17	470,56
189,1	11,61	470,4
189,09	11,25	470,24
189,08	11,25	470,05
189,07	11,25	469,87
189,06	10,32	469,69
189,05	9,68	469,51
189,04	10,14	469,34
189,03	10,14	469,17
189,02	11,61	468,97
189,01	11,61	468,78
189	12,72	468,59
188,99	13,18	468,38
188,98	13,73	468,19
188,97	12,63	468
188,96	13,64	467,8
188,95	13,64	467,6
188,94	14,19	467,4
188,93	15,3	467,21
188,92	14,66	467,01
188,91	14,1	466,8
188,9	15,76	466,6
188,89	15,67	466,38
188,88	15,21	466,16
188,87	13,73	465,94
188,86	14,29	465,72
188,85	13,27	465,5
188,84	12,81	465,31
188,83	12,26	465,12
188,82	10,78	464,92
188,81	9,77	464,74
188,8	9,68	464,58
188,79	9,31	464,42
188,78	10,32	464,25
188,77	8,76	464,09
188,76	8,11	463,96
188,75	10,51	463,83
188,74	11,06	463,69
188,73	9,86	463,55
188,72	10,51	463,39
188,71	11,98	463,23
188,7	11,98	463,07
188,69	12,54	462,9
188,68	13,09	462,74
188,67	13,55	462,59
188,66	13,46	462,44
188,65	14,01	462,31
188,64	15,49	462,15
188,63	15,49	462
188,62	14,84	461,86
188,61	16,32	461,74
188,6	17,51	461,61
188,59	17,51	461,5
188,58	14,66	461,4
188,57	15,12	461,27
188,56	16,96	461,16
188,55	17,33	461,04
188,54	16,87	460,92
188,53	17,88	460,8
188,52	18,25	460,7
188,51	17,79	460,62
188,5	17,79	460,54
188,49	17,33	460,45
188,48	17,79	460,35
188,47	16,87	460,26
188,46	17,42	460,19
188,45	18,44	460,13
188,44	16,5	460,1
188,43	16,32	460,08
188,42	16,87	460,06
188,41	18,53	460,05
188,4	19,08	460,02
188,39	16,78	459,98
188,38	15,85	459,98
188,37	15,3	459,98
188,36	15,76	460
188,35	14,84	460,01
188,34	16,32	460
188,33	15,85	459,97
188,32	16,32	459,97
188,31	15,3	459,98
188,3	16,78	460,01
188,29	15,76	460,05
188,28	14,29	460,12
188,27	15,76	460,18
188,26	15,39	460,25
188,25	14,84	460,31
188,24	13,18	460,39
188,23	11,61	460,5
