#Written by Robertson Geologging WinLogger V1.5/410		
~VERSION INFORMATION		
#------------------------------------------------------------------------------		
 VERS. 2.0 : CWLS LOG ASCII STANDARD - VERSION 2.0		
 WRAP. NO  : ONE LINE PER DEPTH STEP		
~WELL INFORMATION		
#MNEM.UNIT         DATA                                DESCRIPTION OF MNEMONIC		
#------------------------------------------------------------------------------		
 STRT.M        348.0000                            :   START DEPTH		
 STOP.M          1.8300                            :   STOP DEPTH		
 STEP.M         -0.0100                            :   STEP VALUE		
 NULL.        -999.2500                            :   NULL VALUE		
 COMP.    GEUSd.                                   :   COMPANY NAME		
 WELL.    59.459                                   :   WELL NAME		
 FLD.     Jylland                                  :   FIELD NAME		
 LOC.     N/A                                      :   LOCATION		
 PROV.    N/A                                      :   PROVINCE		
 SRVC.    N/A                                      :   SERVICE COMPANY NAME		
 DATE.    26 May 14                                :   DATE		
 UWI.     N/A                                      :   UNIQUE WELL IDENTIFIER		
~PARAMETER INFORMATION		
#MNEMO.UNIT         VALUE                 DESCRIPTION OF MNEMONIC		
#------------------------------------------------------------------------------		
~OTHER INFORMATION SECTION		
#------------------------------------------------------------------------------		
~CURVE INFORMATION		
#MNEMO.UNIT         API CODE              CURVE DESCRIPTION		
#------------------------------------------------------------------------------		
 DEPTH.M                                 :   0     Depth		
 NGAM.API                                :   1     Natural Gamma		
 COND.mS/m                               :   2     Conductivity		
#------------------------------------------------------------------------------		
~A  DEPTH          NGAM          COND		
# ...
302,49	9,03	607,87
302,48	8,11	608,52
302,47	8,11	609,17
302,46	7,19	609,8
302,45	7,19	610,4
302,44	7,19	610,99
302,43	6,18	611,55
302,42	6,18	612,11
302,41	6,64	612,65
302,4	7,1	613,18
302,39	6,64	613,69
302,38	7,01	614,19
302,37	7,47	614,66
302,36	7,47	615,1
302,35	7,01	615,55
302,34	6,54	616
302,33	7,47	616,42
302,32	7,93	616,82
302,31	7,47	617,17
302,3	7,47	617,5
302,29	7,47	617,81
302,28	6,91	618,07
302,27	6,91	618,29
302,26	6,45	618,46
302,25	5,99	618,6
302,24	5,99	618,68
302,23	5,99	618,73
302,22	6,45	618,75
302,21	5,53	618,74
302,2	5,53	618,68
302,19	5,53	618,58
302,18	7,56	618,44
302,17	8,02	618,29
302,16	7,65	618,1
302,15	7,19	617,92
302,14	8,2	617,73
302,13	8,66	617,53
302,12	10,14	617,32
302,11	9,68	617,11
302,1	9,68	616,92
302,09	10,69	616,74
302,08	11,15	616,58
302,07	11,61	616,43
302,06	11,61	616,28
302,05	12,63	616,12
302,04	13,09	615,95
302,03	12,63	615,78
302,02	12,17	615,61
302,01	10,6	615,43
302	10,6	615,21
301,99	10,6	614,99
301,98	11,06	614,77
301,97	11,06	614,52
301,96	11,61	614,26
301,95	10,14	614
301,94	11,15	613,76
301,93	10,69	613,51
301,92	10,14	613,22
301,91	9,68	612,93
301,9	8,76	612,63
301,89	8,3	612,31
301,88	7,74	611,96
301,87	7,28	611,56
301,86	7,74	611,15
301,85	8,66	610,71
301,84	9,68	610,21
301,83	9,68	609,65
301,82	8,66	609,09
301,81	8,66	608,53
301,8	8,11	607,95
301,79	8,02	607,34
301,78	9,4	606,72
301,77	10,42	606,11
301,76	10,42	605,5
301,75	9,95	604,86
301,74	9,95	604,22
301,73	9,95	603,62
301,72	9,95	603,02
301,71	9,49	602,39
301,7	9,49	601,75
301,69	9,49	601,1
301,68	9,03	600,46
301,67	9,59	599,8
301,66	9,59	599,14
301,65	9,59	598,48
301,64	10,51	597,83
301,63	12,07	597,17
301,62	11,61	596,47
301,61	10,23	595,79
301,6	8,2	595,11
301,59	8,2	594,41
301,58	8,2	593,7
301,57	8,66	592,99
301,56	9,13	592,3
301,55	9,59	591,6
301,54	9,59	590,9
301,53	9,59	590,17
301,52	9,59	589,44
301,51	10,6	588,72
301,5	9,03	587,98
301,49	10,05	587,21
301,48	11,52	586,44
301,47	10,14	585,69
301,46	8,11	584,92
301,45	10,14	584,16
301,44	10,6	583,41
301,43	11,06	582,66
301,42	11,52	581,93
301,41	11,52	581,2
301,4	11,43	580,49
301,39	12,44	579,77
301,38	12,44	579,06
301,37	14,01	578,37
301,36	14,56	577,67
301,35	15,02	577
301,34	13,55	576,33
301,33	13,09	575,65
301,32	11,61	574,96
301,31	10,14	574,26
301,3	11,06	573,57
301,29	12,07	572,87
301,28	9,59	572,19
301,27	9,59	571,52
301,26	9,59	570,84
301,25	11,15	570,14
301,24	11,15	569,44
301,23	10,78	568,72
301,22	9,77	568
301,21	9,31	567,27
301,2	7,74	566,52
301,19	6,73	565,78
301,18	5,81	565,03
301,17	6,27	564,27
301,16	6,73	563,52
301,15	6,73	562,79
301,14	7,19	562,05
301,13	7,74	561,3
301,12	7,19	560,53
301,11	8,2	559,74
301,1	10,23	558,98
301,09	10,69	558,22
301,08	8,66	557,43
301,07	9,59	556,66
301,06	9,59	555,92
301,05	9,59	555,17
301,04	10,05	554,39
301,03	10,05	553,64
301,02	10,51	552,89
301,01	10,51	552,19
301	11,06	551,49
300,99	11,06	550,82
300,98	11,52	550,18
300,97	12,07	549,57
300,96	12,44	548,98
300,95	13,46	548,37
300,94	12,44	547,78
300,93	10,42	547,24
300,92	9,95	546,71
300,91	10,97	546,21
300,9	11,43	545,7
300,89	11,43	545,22
300,88	12,81	544,76
300,87	12,35	544,3
300,86	13,73	543,86
300,85	14,75	543,42
300,84	14,75	543,02
300,83	14,19	542,64
300,82	13,73	542,25
300,81	13,73	541,85
300,8	13,18	541,47
300,79	12,26	541,12
300,78	11,25	540,74
300,77	11,25	540,35
300,76	12,26	539,97
300,75	11,8	539,59
300,74	10,78	539,2
300,73	9,86	538,79
300,72	9,86	538,37
300,71	9,4	537,97
300,7	10,32	537,6
300,69	9,49	537,25
300,68	8,48	536,87
300,67	8,94	536,51
300,66	9,4	536,18
300,65	9,86	535,84
300,64	9,86	535,48
300,63	9,4	535,15
300,62	8,94	534,83
300,61	9,4	534,48
300,6	9,86	534,09
300,59	9,31	533,68
300,58	9,77	533,24
300,57	9,77	532,81
300,56	9,31	532,39
300,55	9,77	531,96
300,54	9,77	531,56
300,53	9,86	531,2
300,52	9,31	530,86
300,51	8,85	530,54
300,5	8,39	530,28
300,49	7,93	530,04
300,48	8,94	529,82
300,47	9,4	529,61
300,46	10,42	529,44
300,45	9,95	529,29
300,44	10,05	529,16
300,43	10,05	529,01
300,42	9,59	528,83
300,41	9,13	528,61
300,4	9,59	528,39
300,39	10,05	528,17
300,38	10,97	527,94
300,37	10,6	527,72
300,36	10,51	527,53
300,35	12,07	527,34
300,34	12,54	527,15
300,33	13,46	527,01
300,32	13,46	526,89
300,31	13,46	526,82
300,3	13	526,81
300,29	12,44	526,83
300,28	13,37	526,91
300,27	12,81	527,05
300,26	14,84	527,23
300,25	15,3	527,43
300,24	15,76	527,62
300,23	16,22	527,82
300,22	15,76	528,02
300,21	14,84	528,21
300,2	15,85	528,41
300,19	15,39	528,6
300,18	14,29	528,83
300,17	15,3	529,04
300,16	15,3	529,24
300,15	15,3	529,42
300,14	14,75	529,6
300,13	15,67	529,78
300,12	15,67	529,96
300,11	14,75	530,16
300,1	15,67	530,35
300,09	14,19	530,53
300,08	13,73	530,68
300,07	13,73	530,77
300,06	12,81	530,83
300,05	14,84	530,87
300,04	14,38	530,91
300,03	12,35	530,95
300,02	13,73	531,01
300,01	13,27	531,06
300	13,18	531,08
299,99	13,27	531,14
299,98	14,66	531,24
299,97	14,19	531,4
299,96	14,19	531,61
299,95	15,76	531,9
299,94	15,76	532,22
299,93	16,41	532,57
299,92	15,39	532,96
299,91	15,95	533,38
299,9	16,41	533,83
299,89	16,87	534,36
299,88	14,84	534,89
299,87	15,85	535,45
299,86	16,78	536,01
299,85	15,95	536,59
299,84	15,49	537,18
299,83	14,56	537,83
299,82	14,01	538,51
299,81	13,09	539,23
299,8	13,09	539,99
299,79	12,17	540,8
299,78	11,61	541,59
299,77	11,61	542,4
299,76	10,05	543,21
299,75	10,51	544,03
299,74	9,95	544,85
299,73	10,42	545,67
299,72	10,42	546,45
299,71	10,88	547,23
299,7	10,32	547,97
299,69	9,4	548,68
299,68	8,39	549,38
299,67	9,86	550,09
299,66	10,78	550,82
299,65	10,32	551,54
299,64	9,86	552,28
299,63	10,78	553,03
299,62	11,34	553,77
299,61	10,88	554,52
299,6	11,89	555,28
299,59	11,89	556,07
299,58	11,89	556,85
299,57	11,89	557,64
299,56	10,97	558,4
299,55	10,97	559,15
299,54	10,97	559,9
299,53	11,43	560,64
299,52	11,43	561,38
299,51	11,43	562,13
299,5	9,95	562,89
299,49	9,03	563,68
299,48	9,03	564,48
299,47	8,57	565,27
299,46	7,65	566,06
299,45	7,1	566,85
299,44	6,54	567,65
299,43	6,45	568,47
299,42	5,99	569,28
299,41	6,54	570,07
299,4	7,01	570,87
299,39	6,54	571,66
299,38	6,54	572,42
299,37	6,08	573,15
299,36	5,16	573,86
299,35	6,18	574,6
299,34	6,64	575,35
299,33	7,1	576,09
299,32	6,64	576,8
299,31	6,64	577,49
299,3	7,1	578,2
299,29	7,1	578,89
299,28	7,1	579,55
299,27	6,64	580,19
299,26	6,18	580,79
299,25	6,18	581,36
299,24	6,64	581,87
299,23	5,71	582,34
299,22	5,71	582,77
299,21	5,71	583,19
299,2	5,71	583,59
299,19	6,73	583,92
299,18	7,74	584,21
299,17	7,74	584,45
299,16	7,74	584,66
299,15	8,2	584,87
299,14	8,2	585,05
299,13	7,74	585,22
299,12	7,28	585,36
299,11	6,82	585,46
299,1	7,83	585,5
299,09	7,83	585,53
299,08	8,3	585,53
299,07	7,28	585,49
299,06	7,28	585,44
299,05	7,74	585,32
299,04	7,28	585,16
299,03	7,28	584,98
299,02	6,27	584,76
299,01	4,24	584,52
299	3,78	584,27
298,99	3,78	584,04
298,98	3,32	583,8
298,97	3,32	583,56
298,96	3,32	583,34
298,95	3,78	583,17
298,94	3,78	583,03
298,93	2,77	582,95
298,92	2,3	582,92
298,91	2,3	582,93
298,9	2,3	583
298,89	2,3	583,11
298,88	2,86	583,27
298,87	4,7	583,48
298,86	5,16	583,74
298,85	6,64	584,04
298,84	7,56	584,37
298,83	7,56	584,75
298,82	7,1	585,17
298,81	7,56	585,64
298,8	7,56	586,16
298,79	8,02	586,74
298,78	8,02	587,37
298,77	8,02	588,02
298,76	8,48	588,68
298,75	8,94	589,35
298,74	10,51	590,05
298,73	11,06	590,79
298,72	11,06	591,52
298,71	11,06	592,22
298,7	9,68	592,89
298,69	9,22	593,53
298,68	7,74	594,12
298,67	7,83	594,67
298,66	7,83	595,2
298,65	7,83	595,68
298,64	8,39	596,14
298,63	8,85	596,59
298,62	8,39	596,97
298,61	7,93	597,33
298,6	8,94	597,67
298,59	8,48	597,94
298,58	8,02	598,18
298,57	6,45	598,43
298,56	5,9	598,69
298,55	6,36	598,94
298,54	5,35	599,19
298,53	5,35	599,41
298,52	5,81	599,59
298,51	6,64	599,75
298,5	5,62	599,9
298,49	6,08	600,03
298,48	6,54	600,19
298,47	5,53	600,36
298,46	5,53	600,49
298,45	7,01	600,58
298,44	7,47	600,69
298,43	6,91	600,83
298,42	6,91	600,99
298,41	6,91	601,16
298,4	6,45	601,37
298,39	7,01	601,6
298,38	7,01	601,87
298,37	7,47	602,17
298,36	7,47	602,49
298,35	7,01	602,82
298,34	6,64	603,17
298,33	6,64	603,53
298,32	6,64	603,89
298,31	6,64	604,24
298,3	7,56	604,6
