#Written by Robertson Geologging WinLogger V1.5/410		
~VERSION INFORMATION		
#------------------------------------------------------------------------------		
 VERS. 2.0 : CWLS LOG ASCII STANDARD - VERSION 2.0		
 WRAP. NO  : ONE LINE PER DEPTH STEP		
~WELL INFORMATION		
#MNEM.UNIT         DATA                                DESCRIPTION OF MNEMONIC		
#------------------------------------------------------------------------------		
 STRT.M        348.0000                            :   START DEPTH		
 STOP.M          1.8300                            :   STOP DEPTH		
 STEP.M         -0.0100                            :   STEP VALUE		
 NULL.        -999.2500                            :   NULL VALUE		
 COMP.    GEUSd.                                   :   COMPANY NAME		
 WELL.    59.459                                   :   WELL NAME		
 FLD.     Jylland                                  :   FIELD NAME		
 LOC.     N/A                                      :   LOCATION		
 PROV.    N/A                                      :   PROVINCE		
 SRVC.    N/A                                      :   SERVICE COMPANY NAME		
 DATE.    26 May 14                                :   DATE		
 UWI.     N/A                                      :   UNIQUE WELL IDENTIFIER		
~PARAMETER INFORMATION		
#MNEMO.UNIT         VALUE                 DESCRIPTION OF MNEMONIC		
#------------------------------------------------------------------------------		
~OTHER INFORMATION SECTION		
#------------------------------------------------------------------------------		
~CURVE INFORMATION		
#MNEMO.UNIT         API CODE              CURVE DESCRIPTION		
#------------------------------------------------------------------------------		
 DEPTH.M                                 :   0     Depth		
 NGAM.API                                :   1     Natural Gamma		
 COND.mS/m                               :   2     Conductivity		
#------------------------------------------------------------------------------		
~A  DEPTH          NGAM          COND		
# ...
8,45	8,85	18,88
8,44	8,85	18,9
8,43	8,39	18,96
8,42	9,49	19,04
8,41	10,51	19,13
8,4	10,51	19,25
8,39	10,6	19,45
8,38	10,51	19,66
8,37	10,51	19,88
8,36	10,05	20,13
8,35	8,94	20,38
8,34	11,8	20,58
8,33	10,69	20,73
8,32	9,22	20,89
8,31	9,77	21,07
8,3	9,77	21,27
8,29	9,31	21,44
8,28	9,22	21,54
8,27	9,22	21,6
8,26	9,77	21,63
8,25	8,57	21,69
8,24	8,11	21,79
8,23	8,66	21,92
8,22	8,11	22,06
8,21	7,65	22,15
8,2	7,1	22,13
8,19	6,54	22,04
8,18	6,54	21,93
8,17	4,24	21,82
8,16	4,24	21,77
8,15	4,24	21,73
8,14	3,69	21,69
8,13	3,69	21,61
8,12	4,24	21,53
8,11	3,78	21,44
8,1	4,33	21,39
8,09	3,78	21,47
8,08	3,32	21,67
8,07	3,32	21,93
8,06	2,21	22,26
8,05	2,21	22,59
8,04	2,77	22,89
8,03	3,32	23,13
8,02	3,78	23,3
8,01	4,33	23,43
8	3,78	23,59
7,99	4,33	23,77
7,98	4,33	23,91
7,97	4,33	23,97
7,96	4,89	24,01
7,95	5,35	24
7,94	5,35	23,95
7,93	5,35	23,85
7,92	5,81	23,74
7,91	5,81	23,67
7,9	5,71	23,66
7,89	5,71	23,69
7,88	6,27	23,78
7,87	6,82	23,94
7,86	6,73	24,13
7,85	6,82	24,29
7,84	6,82	24,4
7,83	6,82	24,45
7,82	6,82	24,54
7,81	7,37	24,66
7,8	8,39	24,79
7,79	8,94	24,92
7,78	8,39	25,06
7,77	8,39	25,18
7,76	8,39	25,26
7,75	9,4	25,27
7,74	9,4	25,2
7,73	9,49	25,09
7,72	10,6	25,03
7,71	11,06	25,04
7,7	9,95	25,14
7,69	10,05	25,24
7,68	9,49	25,34
7,67	8,94	25,37
7,66	8,94	25,29
7,65	8,39	25,08
7,64	8,85	24,77
7,63	8,39	24,53
7,62	7,28	24,45
7,61	6,82	24,44
7,6	7,93	24,45
7,59	8,39	24,49
7,58	6,91	24,5
7,57	6,91	24,44
7,56	6,36	24,3
7,55	5,25	24,17
7,54	4,24	24,15
7,53	4,24	24,25
7,52	4,15	24,42
7,51	4,15	24,58
7,5	4,15	24,75
7,49	5,16	24,85
7,48	6,82	24,81
7,47	6,27	24,67
7,46	5,71	24,49
7,45	6,82	24,34
7,44	7,28	24,26
7,43	7,28	24,23
7,42	6,27	24,23
7,41	6,27	24,2
7,4	6,82	24,1
7,39	7,28	23,85
7,38	7,83	23,53
7,37	9,86	23,22
7,36	9,86	23
7,35	11,06	22,87
7,34	11,52	22,84
7,33	11,52	22,85
7,32	11,06	22,83
7,31	10,42	22,76
7,3	9,95	22,69
7,29	9,95	22,67
7,28	9,4	22,72
7,27	8,94	22,87
7,26	7,83	23,14
7,25	7,83	23,53
7,24	7,83	23,96
7,23	7,28	24,34
7,22	7,37	24,63
7,21	7,37	24,91
7,2	6,82	25,12
7,19	6,82	25,29
7,18	5,16	25,47
7,17	5,71	25,64
7,16	7,19	25,81
7,15	7,1	25,92
7,14	6,08	25,93
7,13	6,54	25,88
7,12	7,56	25,78
7,11	7,47	25,65
7,1	7,47	25,48
7,09	7,93	25,37
7,08	7,93	25,34
7,07	8,39	25,33
7,06	8,39	25,34
7,05	8,3	25,37
7,04	7,74	25,41
7,03	6,73	25,45
7,02	7,19	25,51
7,01	7,19	25,6
7	6,18	25,74
6,99	4,7	25,91
6,98	4,7	26,09
6,97	4,7	26,27
6,96	5,71	26,42
6,95	5,16	26,55
6,94	6,18	26,6
6,93	6,64	26,58
6,92	7,19	26,46
6,91	8,11	26,27
6,9	7,65	26,1
6,89	8,57	25,99
6,88	8,11	25,95
6,87	8,57	25,95
6,86	8,11	25,92
6,85	8,11	25,82
6,84	8,11	25,58
6,83	9,13	25,28
6,82	10,05	24,98
6,81	9,59	24,74
6,8	9,59	24,56
6,79	8,57	24,43
6,78	8,57	24,32
6,77	7,1	24,17
6,76	6,64	24,02
6,75	6,08	23,85
6,74	6,54	23,68
6,73	7,01	23,58
6,72	6,08	23,58
6,71	6,08	23,67
6,7	6,08	23,78
6,69	6,08	23,96
6,68	5,62	24,11
6,67	5,62	24,25
6,66	4,61	24,35
6,65	4,61	24,36
6,64	4,61	24,3
6,63	4,61	24,24
6,62	4,15	24,2
6,61	3,69	24,2
6,6	5,16	24,23
6,59	5,16	24,24
6,58	5,16	24,18
6,57	3,78	24,16
6,56	3,78	24,13
6,55	3,78	24,03
6,54	4,24	23,88
6,53	4,7	23,8
6,52	4,7	23,8
6,51	5,16	23,84
6,5	6,08	23,83
6,49	6,54	23,77
6,48	5,62	23,74
6,47	5,62	23,74
6,46	6,08	23,66
6,45	6,54	23,52
6,44	7,01	23,45
6,43	5,99	23,5
6,42	6,45	23,59
6,41	6,91	23,67
6,4	7,93	23,76
6,39	7,93	23,87
6,38	7,93	23,97
6,37	8,48	24
6,36	8,02	23,94
6,35	9,03	23,86
6,34	9,03	23,79
6,33	8,11	23,76
6,32	8,11	23,71
6,31	8,11	23,63
6,3	8,11	23,58
6,29	8,11	23,54
6,28	7,65	23,46
6,27	7,65	23,37
6,26	7,19	23,33
6,25	8,11	23,3
6,24	8,66	23,3
6,23	7,65	23,27
6,22	8,11	23,21
6,21	8,57	23,17
6,2	8,48	23,18
6,19	9,03	23,16
6,18	8,94	23,04
6,17	8,48	22,89
6,16	9,4	22,73
6,15	9,95	22,58
6,14	10,88	22,45
6,13	11,34	22,36
6,12	11,8	22,31
6,11	12,81	22,3
6,1	12,81	22,34
6,09	12,81	22,35
6,08	11,43	22,36
6,07	10,42	22,39
6,06	10,42	22,45
6,05	10,42	22,5
6,04	10,97	22,52
6,03	10,05	22,53
6,02	9,03	22,54
6,01	9,49	22,6
6	9,95	22,67
5,99	9,49	22,68
5,98	9,49	22,63
5,97	9,03	22,56
5,96	9,03	22,5
5,95	8,11	22,44
5,94	8,11	22,44
5,93	8,11	22,5
5,92	8,11	22,58
5,91	8,57	22,68
5,9	8,57	22,77
5,89	8,57	22,79
5,88	9,13	22,73
5,87	8,57	22,68
5,86	9,03	22,64
5,85	9,49	22,64
5,84	8,57	22,69
5,83	9,49	22,73
5,82	9,49	22,76
5,81	9,86	22,75
5,8	9,4	22,72
5,79	8,94	22,75
5,78	9,95	22,86
5,77	10,32	23,03
5,76	9,86	23,24
5,75	10,32	23,43
5,74	10,88	23,59
5,73	10,88	23,72
5,72	11,34	23,84
5,71	10,32	23,95
5,7	11,25	24,1
5,69	10,78	24,23
5,68	11,25	24,27
5,67	11,8	24,21
5,66	10,42	24,15
5,65	10,42	24,05
5,64	9,49	23,97
5,63	10,51	23,92
5,62	11,43	23,86
5,61	10,42	23,79
5,6	9,49	23,71
5,59	9,49	23,62
5,58	9,03	23,52
5,57	8,02	23,43
5,56	8,57	23,41
5,55	8,57	23,43
5,54	8,11	23,5
5,53	8,57	23,55
5,52	9,59	23,54
5,51	9,13	23,49
5,5	9,13	23,44
5,49	10,05	23,39
5,48	10,05	23,35
5,47	10,05	23,32
5,46	9,03	23,26
5,45	9,49	23,18
5,44	9,49	23,09
5,43	9,49	22,96
5,42	9,49	22,83
5,41	10,42	22,7
5,4	10,88	22,56
5,39	9,86	22,4
5,38	9,4	22,29
5,37	9,86	22,2
5,36	8,02	22,12
5,35	7,93	22,04
5,34	7,47	21,97
5,33	8,3	21,92
5,32	8,39	21,85
5,31	8,94	21,78
5,3	8,94	21,73
5,29	10,32	21,73
5,28	9,4	21,79
5,27	10,32	21,85
5,26	9,86	21,89
5,25	10,32	21,9
5,24	9,4	21,96
5,23	8,94	22,02
5,22	9,4	22,06
5,21	10,78	22,12
5,2	10,32	22,19
5,19	10,78	22,25
5,18	10,88	22,31
5,17	11,8	22,37
5,16	11,43	22,42
5,15	10,42	22,47
5,14	9,4	22,54
5,13	9,4	22,56
5,12	8,94	22,52
5,11	8,48	22,43
5,1	8,94	22,36
5,09	9,4	22,33
5,08	9,4	22,34
5,07	9,86	22,36
5,06	10,78	22,38
5,05	11,8	22,37
5,04	12,44	22,3
5,03	14,29	22,23
5,02	14,29	22,17
5,01	13,27	22,12
5	12,35	22,13
4,99	10,88	22,15
4,98	10,88	22,14
4,97	11,34	22,14
4,96	11,34	22,15
4,95	10,42	22,15
4,94	11,8	22,19
4,93	10,42	22,27
4,92	10,88	22,34
4,91	10,42	22,38
4,9	11,98	22,44
4,89	11,52	22,44
4,88	10,51	22,39
4,87	9,4	22,38
4,86	8,02	22,33
4,85	8,94	22,22
4,84	9,95	22,14
4,83	10,42	22,05
4,82	11,43	21,97
4,81	11,89	21,9
4,8	12,44	21,85
4,79	12,44	21,81
4,78	12,44	21,82
4,77	11,06	21,81
4,76	11,06	21,73
4,75	11,61	21,65
4,74	12,54	21,6
4,73	11,52	21,56
4,72	13,37	21,55
4,71	12,9	21,54
4,7	12,9	21,57
4,69	12,44	21,61
4,68	11,06	21,62
4,67	13,09	21,6
4,66	12,63	21,57
4,65	13,64	21,55
4,64	14,56	21,51
4,63	14,56	21,43
4,62	14,56	21,29
4,61	16,59	21,16
4,6	17,05	21,06
4,59	18,53	20,95
4,58	17,05	20,9
4,57	16,13	20,91
4,56	16,04	20,97
4,55	14,19	21,06
4,54	14,66	21,18
4,53	14,19	21,32
4,52	15,58	21,48
4,51	16,04	21,65
4,5	13	21,8
4,49	14,38	21,94
4,48	14,38	22,05
4,47	13	22,1
4,46	14,47	22,09
4,45	14,47	22,04
4,44	13,92	21,97
4,43	15,3	21,94
4,42	14,84	21,93
4,41	15,76	21,94
4,4	16,78	21,96
4,39	16,87	22,02
4,38	18,25	22,09
4,37	19,26	22,15
4,36	19,73	22,25
4,35	20,37	22,37
4,34	21,29	22,51
4,33	21,75	22,62
4,32	22,21	22,69
4,31	21,2	22,75
4,3	21,2	22,81
4,29	19,17	22,91
4,28	19,17	22,93
4,27	19,73	22,84
4,26	19,26	22,69
4,25	19,73	22,56
4,24	21,11	22,45
4,23	20,09	22,33
4,22	20	22,22
4,21	18,62	22,14
4,2	17,61	22,06
4,19	17,14	21,98
4,18	15,58	21,92
4,17	15,21	21,86
4,16	16,13	21,87
4,15	15,76	21,94
4,14	15,67	21,98
4,13	16,13	22,01
4,12	17,05	22,04
4,11	18,07	22,06
4,1	16,5	22,07
4,09	16,59	22,06
4,08	15,58	21,96
4,07	13,73	21,7
4,06	14,66	21,3
4,05	14,75	20,81
4,04	17,51	20,28
4,03	18,07	19,74
4,02	18,53	19,3
4,01	18,53	18,91
4	18,9	18,59
3,99	17,51	18,29
3,98	16,5	17,99
3,97	15,58	17,75
3,96	15,58	17,61
3,95	14,66	17,61
3,94	14,56	17,73
3,93	15,58	17,9
3,92	15,02	18,05
3,91	15,58	18,07
3,9	16,04	18,06
3,89	15,12	18,01
3,88	14,1	17,96
3,87	12,9	17,9
3,86	14,19	17,89
3,85	14,75	17,92
3,84	15,21	17,97
3,83	14,84	18,01
3,82	17,88	18,06
3,81	20,19	18,17
3,8	22,21	18,34
3,79	23,14	18,5
3,78	23,14	18,71
3,77	24,06	18,95
3,76	23,6	19,2
3,75	23,14	19,42
3,74	23,04	19,64
3,73	23,14	19,83
3,72	24,98	19,98
3,71	26,45	20,09
3,7	25,44	20,14
3,69	24,52	20,13
3,68	25,53	20,09
3,67	25,53	20,04
3,66	25,53	20
3,65	24,33	19,98
3,64	22,03	19,92
3,63	21,38	19,83
3,62	21,02	19,74
3,61	21,48	19,69
3,6	21,66	19,65
3,59	21,57	19,64
3,58	22,12	19,63
3,57	22,12	19,57
3,56	21,57	19,48
3,55	21,11	19,37
3,54	21,02	19,28
3,53	21,48	19,2
3,52	21,48	19,09
3,51	20,46	18,99
3,5	20,46	18,89
3,49	21,48	18,8
3,48	20,09	18,71
