#Written by Robertson Geologging WinLogger V1.5/410
~VERSION INFORMATION
#------------------------------------------------------------------------------
 VERS. 2.0 : CWLS LOG ASCII STANDARD - VERSION 2.0
 WRAP. NO  : ONE LINE PER DEPTH STEP
~WELL INFORMATION
#MNEM.UNIT         DATA                                DESCRIPTION OF MNEMONIC
#------------------------------------------------------------------------------
 STRT.M         -0.1900                            :   START DEPTH
 STOP.M        347.0100                            :   STOP DEPTH
 STEP.M          0.0100                            :   STEP VALUE
 NULL.        -999.2500                            :   NULL VALUE
 COMP.    geus                                     :   COMPANY NAME
 WELL.    dalbyover 1                              :   WELL NAME
 FLD.     bornholm                                 :   FIELD NAME
 LOC.     N/A                                      :   LOCATION
 PROV.    DK                                       :   PROVINCE
 SRVC.    N/A                                      :   SERVICE COMPANY NAME
 DATE.    16/12/13                                 :   DATE
 UWI.     N/A                                      :   UNIQUE WELL IDENTIFIER
~PARAMETER INFORMATION
#MNEMO.UNIT         VALUE                 DESCRIPTION OF MNEMONIC
#------------------------------------------------------------------------------
~OTHER INFORMATION SECTION
#------------------------------------------------------------------------------
~CURVE INFORMATION
#MNEMO.UNIT         API CODE              CURVE DESCRIPTION
#------------------------------------------------------------------------------
 DEPTH.M                                 :   0     Depth
 NGAM.API                                :   1     Natural Gamma
 COND.uScm                               :   2     Fluid Conductivity
 TEMP.DegC                               :   3     Fluid Temperature
#------------------------------------------------------------------------------
~A  DEPTH          NGAM          COND          TEMP
# ...
    47.55         20.77        367.43          8.42
    47.56         19.36        367.91          8.42
    47.57         19.36        367.43          8.42
    47.58         20.33        367.51          8.43
    47.59         23.25        367.91          8.43
    47.60         23.25        367.43          8.43
    47.61         24.22        367.51          8.43
    47.62         25.19        367.91          8.42
    47.63         25.72        367.51          8.42
    47.64         24.22        367.51          8.43
    47.65         22.98        367.91          8.43
    47.66         23.60        367.51          8.44
    47.67         25.37        367.43          8.44
    47.68         23.87        367.83          8.44
    47.69         23.78        367.35          8.44
    47.70         23.60        367.35          8.44
    47.71         24.04        367.83          8.44
    47.72         24.04        367.35          8.44
    47.73         24.48        367.43          8.44
    47.74         23.87        367.83          8.44
    47.75         24.04        367.35          8.44
    47.76         21.13        367.35          8.43
    47.77         22.19        367.75          8.43
    47.78         20.77        367.83          8.43
    47.79         22.72        367.43          8.43
    47.80         21.66        367.83          8.43
    47.81         21.66        367.91          8.43
    47.82         21.74        367.43          8.43
    47.83         22.63        367.91          8.43
    47.84         23.16        367.83          8.43
    47.85         24.13        367.83          8.43
    47.86         24.66        367.83          8.43
    47.87         23.51        367.91          8.43
    47.88         23.16        367.91          8.42
    47.89         22.54        367.83          8.42
    47.90         23.51        367.83          8.42
    47.91         23.60        367.83          8.42
    47.92         24.40        367.83          8.42
    47.93         25.99        368.23          8.41
    47.94         27.31        367.75          8.41
    47.95         28.55        367.83          8.41
    47.96         26.61        367.83          8.42
    47.97         27.05        368.23          8.42
    47.98         27.14        367.75          8.42
    47.99         26.08        367.75          8.42
    48.00         26.08        367.75          8.42
    48.01         23.87        368.23          8.43
    48.02         21.48        368.31          8.43
    48.03         21.04        368.23          8.43
    48.04         20.42        367.83          8.43
    48.05         19.89        368.31          8.43
    48.06         20.42        368.23          8.43
    48.07         18.03        368.31          8.43
    48.08         16.97        368.31          8.43
    48.09         15.56        368.72          8.43
    48.10         14.94        368.80          8.42
    48.11         14.23        368.80          8.42
    48.12         12.99        368.80          8.42
    48.13         13.52        368.31          8.42
    48.14         13.61        368.31          8.42
    48.15         13.52        368.80          8.41
    48.16         15.47        368.72          8.41
    48.17         13.52        368.80          8.41
    48.18         13.97        368.72          8.41
    48.19         15.38        368.80          8.41
    48.20         17.06        368.80          8.42
    48.21         18.56        368.72          8.42
    48.22         19.09        368.80          8.43
    48.23         18.56        368.80          8.43
    48.24         20.95        369.20          8.43
    48.25         22.54        369.20          8.44
    48.26         23.51        369.20          8.44
    48.27         24.93        369.20          8.44
    48.28         22.72        369.20          8.44
    48.29         24.13        369.20          8.44
    48.30         22.72        369.20          8.44
    48.31         23.07        369.20          8.43
    48.32         25.90        369.20          8.43
    48.33         25.37        369.20          8.43
    48.34         27.58        369.20          8.42
    48.35         27.58        369.20          8.42
    48.36         27.58        369.28          8.42
    48.37         26.96        369.68          8.42
    48.38         27.93        369.76          8.42
    48.39         27.93        369.68          8.42
    48.40         28.46        369.76          8.42
    48.41         26.08        369.68          8.42
    48.42         24.48        369.68          8.42
    48.43         22.98        369.76          8.43
    48.44         21.66        370.16          8.43
    48.45         23.07        370.08          8.43
    48.46         21.74        370.16          8.43
    48.47         22.63        370.08          8.43
    48.48         22.27        370.08          8.43
    48.49         19.45        370.08          8.43
    48.50         19.00        370.08          8.43
    48.51         18.39        370.00          8.43
    48.52         17.41        370.08          8.43
    48.53         17.41        370.57          8.43
    48.54         18.03        370.49          8.43
    48.55         16.53        370.08          8.43
    48.56         15.47        370.57          8.43
    48.57         15.91        370.57          8.43
    48.58         17.85        370.57          8.43
    48.59         18.39        370.57          8.43
    48.60         18.92        370.57          8.43
    48.61         18.83        370.57          8.43
    48.62         19.00        371.05          8.42
    48.63         17.94        371.05          8.42
    48.64         17.59        370.57          8.42
    48.65         16.97        370.65          8.42
    48.66         17.06        371.05          8.42
    48.67         16.53        370.65          8.42
    48.68         15.91        370.57          8.42
    48.69         16.97        371.13          8.42
    48.70         16.09        370.65          8.42
    48.71         14.85        371.05          8.42
    48.72         14.41        371.13          8.42
    48.73         14.41        370.65          8.43
    48.74         14.94        371.13          8.43
    48.75         14.05        371.13          8.43
    48.76         13.97        371.13          8.43
    48.77         12.99        371.13          8.43
    48.78         12.55        371.05          8.43
    48.79         12.90        371.61          8.42
    48.80         12.90        371.05          8.42
    48.81         12.90        371.13          8.42
    48.82         12.90        371.13          8.43
    48.83         13.79        371.13          8.43
    48.84         13.88        371.13          8.43
    48.85         12.90        371.05          8.43
    48.86         12.37        371.13          8.43
    48.87         12.82        371.53          8.43
    48.88         12.29        371.05          8.43
    48.89         11.84        371.13          8.43
    48.90         13.79        371.05          8.43
    48.91         12.29        371.13          8.43
    48.92         11.23        371.05          8.43
    48.93         11.84        370.57          8.43
    48.94         12.29        370.57          8.43
    48.95         12.20        371.05          8.43
    48.96         10.25        370.57          8.43
    48.97         10.70        370.57          8.44
    48.98         10.08        370.08          8.44
    48.99         10.16        370.16          8.43
    49.00          9.72        370.08          8.43
    49.01         10.78        660.38          8.43
    49.02         11.23       1604.85          8.43
    49.03         13.97       1604.85          8.43
    49.04         13.44       1604.93          8.43
    49.05         13.52       1604.93          8.43
    49.06         13.44       1604.45          8.43
    49.07         12.55       1604.45          8.43
    49.08         12.55       1604.45          8.43
