#Written by Robertson Geologging WinLogger V1.5/410
~VERSION INFORMATION
#------------------------------------------------------------------------------
 VERS. 2.0 : CWLS LOG ASCII STANDARD - VERSION 2.0
 WRAP. NO  : ONE LINE PER DEPTH STEP
~WELL INFORMATION
#MNEM.UNIT         DATA                                DESCRIPTION OF MNEMONIC
#------------------------------------------------------------------------------
 STRT.M         -0.1900                            :   START DEPTH
 STOP.M        347.0100                            :   STOP DEPTH
 STEP.M          0.0100                            :   STEP VALUE
 NULL.        -999.2500                            :   NULL VALUE
 COMP.    geus                                     :   COMPANY NAME
 WELL.    dalbyover 1                              :   WELL NAME
 FLD.     bornholm                                 :   FIELD NAME
 LOC.     N/A                                      :   LOCATION
 PROV.    DK                                       :   PROVINCE
 SRVC.    N/A                                      :   SERVICE COMPANY NAME
 DATE.    16/12/13                                 :   DATE
 UWI.     N/A                                      :   UNIQUE WELL IDENTIFIER
~PARAMETER INFORMATION
#MNEMO.UNIT         VALUE                 DESCRIPTION OF MNEMONIC
#------------------------------------------------------------------------------
~OTHER INFORMATION SECTION
#------------------------------------------------------------------------------
~CURVE INFORMATION
#MNEMO.UNIT         API CODE              CURVE DESCRIPTION
#------------------------------------------------------------------------------
 DEPTH.M                                 :   0     Depth
 NGAM.API                                :   1     Natural Gamma
 COND.uScm                               :   2     Fluid Conductivity
 TEMP.DegC                               :   3     Fluid Temperature
#------------------------------------------------------------------------------
~A  DEPTH          NGAM          COND          TEMP
# ...
   184.61          4.60        406.12         10.58
   184.62          4.15        405.56         10.58
   184.63          5.13        406.12         10.58
   184.64          5.13        405.64         10.58
   184.65          5.57        406.12         10.58
   184.66          5.04        405.64         10.58
   184.67          5.04        406.12         10.58
   184.68          5.57        405.64         10.58
   184.69          5.57        406.12         10.58
   184.70          6.10        405.64         10.58
   184.71          5.66        406.12         10.58
   184.72          6.63        405.64         10.58
   184.73          6.19        406.20         10.59
   184.74          7.16        405.64         10.59
   184.75          7.60        406.12         10.59
   184.76          7.60        405.64         10.59
   184.77          7.60        406.12         10.59
   184.78          7.60        405.64         10.59
   184.79          7.60        406.12         10.59
   184.80          7.07        405.64         10.59
   184.81          7.07        406.12         10.59
   184.82          7.60        405.64         10.59
   184.83          7.16        406.12         10.59
   184.84          7.60        405.64         10.59
   184.85          7.16        406.20         10.60
   184.86          6.63        405.72         10.60
   184.87          7.07        406.20         10.60
   184.88          7.07        405.72         10.60
   184.89          6.10        406.20         10.60
   184.90          6.10        405.72         10.60
   184.91          5.13        406.20         10.60
   184.92          4.68        405.72         10.60
   184.93          4.68        406.20         10.60
   184.94          5.66        405.72         10.60
   184.95          7.16        406.20         10.60
   184.96          7.60        405.72         10.59
   184.97          7.16        406.20         10.59
   184.98          8.13        406.20         10.59
   184.99          8.13        406.20         10.59
   185.00          8.13        406.20         10.59
   185.01          8.66        406.20         10.59
   185.02          8.13        406.20         10.59
   185.03          7.69        406.20         10.59
   185.04          7.25        406.20         10.59
   185.05          7.25        406.20         10.59
   185.06          7.78        406.20         10.60
   185.07          7.78        406.20         10.60
   185.08          8.75        406.20         10.60
   185.09          9.72        406.20         10.60
   185.10          9.72        406.20         10.60
   185.11          8.75        406.20         10.60
   185.12          6.81        406.20         10.59
   185.13          6.81        406.20         10.59
   185.14          7.25        406.20         10.59
   185.15          6.72        406.20         10.59
   185.16          5.75        406.20         10.59
   185.17          6.19        406.20         10.59
   185.18          5.22        406.69         10.60
   185.19          5.22        406.20         10.60
   185.20          5.66        406.20         10.60
   185.21          5.13        406.20         10.60
   185.22          5.13        406.20         10.61
   185.23          5.57        406.20         10.61
   185.24          5.57        406.20         10.62
   185.25          4.60        406.69         10.62
   185.26          3.62        406.20         10.62
   185.27          4.07        406.69         10.62
   185.28          5.04        406.12         10.62
   185.29          6.01        406.12         10.62
   185.30          6.01        406.12         10.61
   185.31          5.57        406.12         10.61
   185.32          6.19        406.61         10.61
   185.33          6.19        406.12         10.60
   185.34          5.75        406.61         10.60
   185.35          5.75        406.12         10.60
   185.36          6.72        406.12         10.60
   185.37          7.69        406.61         10.60
   185.38          7.25        406.04         10.60
   185.39          7.25        406.61         10.61
   185.40          7.25        406.20         10.61
   185.41          7.78        406.69         10.61
   185.42          8.22        406.20         10.62
   185.43          8.66        406.20         10.62
   185.44          8.66        406.69         10.62
   185.45          7.69        406.20         10.62
   185.46          6.72        406.69         10.62
   185.47          7.25        406.20         10.62
   185.48          7.69        406.20         10.62
   185.49          6.63        406.77         10.62
   185.50          6.63        406.28         10.62
   185.51          7.07        406.69         10.61
   185.52          7.07        406.20         10.61
   185.53          6.54        406.69         10.61
   185.54          5.57        406.20         10.60
   185.55          5.57        406.20         10.60
   185.56          6.01        406.69         10.60
   185.57          5.04        406.20         10.61
   185.58          4.51        406.69         10.61
   185.59          4.07        406.20         10.61
   185.60          3.62        406.20         10.61
   185.61          3.18        406.69         10.60
   185.62          4.15        406.20         10.60
   185.63          4.15        406.69         10.60
   185.64          4.15        406.20         10.61
   185.65          3.71        406.69         10.61
   185.66          4.15        406.69         10.61
   185.67          5.13        406.12         10.61
   185.68          5.66        406.61         10.60
   185.69          6.72        406.12         10.60
   185.70          6.72        406.61         10.60
   185.71          6.28        406.61         10.60
   185.72          6.28        406.12         10.61
   185.73          6.28        406.61         10.61
   185.74          6.72        406.12         10.61
   185.75          7.69        406.61         10.61
   185.76          8.13        406.61         10.61
   185.77          8.13        406.12         10.61
   185.78          8.57        406.69         10.61
   185.79          8.04        406.20         10.61
   185.80          8.04        406.69         10.62
   185.81          7.51        406.69         10.62
   185.82          7.96        406.20         10.62
   185.83          8.49        406.69         10.63
   185.84          7.51        406.12         10.63
   185.85          6.54        406.61         10.63
   185.86          5.48        406.61         10.63
   185.87          6.01        406.12         10.63
   185.88          6.01        406.61         10.63
   185.89          6.98        406.12         10.63
   185.90          6.54        406.61         10.63
   185.91          6.10        406.61         10.63
   185.92          6.10        406.12         10.63
   185.93          6.10        406.61         10.63
   185.94          7.16        406.61         10.63
   185.95          7.60        406.69         10.63
   185.96          7.16        406.69         10.63
   185.97          8.57        406.20         10.63
   185.98          8.13        406.69         10.63
   185.99          8.13        406.69         10.63
   186.00          7.16        406.69         10.63
   186.01          7.60        406.69         10.63
   186.02          8.57        406.20         10.63
   186.03          9.10        406.69         10.63
   186.04          8.13        406.69         10.63
   186.05          8.13        406.20         10.63
   186.06          7.16        406.69         10.63
   186.07          7.16        406.20         10.63
   186.08          7.60        406.69         10.63
   186.09          8.04        406.69         10.63
   186.10          8.04        406.20         10.63
   186.11          7.42        406.69         10.63
   186.12          6.98        406.20         10.62
   186.13          7.42        406.69         10.62
   186.14          6.45        406.69         10.62
