#Written by Robertson Geologging WinLogger V1.5/410
~VERSION INFORMATION
#------------------------------------------------------------------------------
 VERS. 2.0 : CWLS LOG ASCII STANDARD - VERSION 2.0
 WRAP. NO  : ONE LINE PER DEPTH STEP
~WELL INFORMATION
#MNEM.UNIT         DATA                                DESCRIPTION OF MNEMONIC
#------------------------------------------------------------------------------
 STRT.M         -0.1900                            :   START DEPTH
 STOP.M        347.0100                            :   STOP DEPTH
 STEP.M          0.0100                            :   STEP VALUE
 NULL.        -999.2500                            :   NULL VALUE
 COMP.    geus                                     :   COMPANY NAME
 WELL.    dalbyover 1                              :   WELL NAME
 FLD.     bornholm                                 :   FIELD NAME
 LOC.     N/A                                      :   LOCATION
 PROV.    DK                                       :   PROVINCE
 SRVC.    N/A                                      :   SERVICE COMPANY NAME
 DATE.    16/12/13                                 :   DATE
 UWI.     N/A                                      :   UNIQUE WELL IDENTIFIER
~PARAMETER INFORMATION
#MNEMO.UNIT         VALUE                 DESCRIPTION OF MNEMONIC
#------------------------------------------------------------------------------
~OTHER INFORMATION SECTION
#------------------------------------------------------------------------------
~CURVE INFORMATION
#MNEMO.UNIT         API CODE              CURVE DESCRIPTION
#------------------------------------------------------------------------------
 DEPTH.M                                 :   0     Depth
 NGAM.API                                :   1     Natural Gamma
 COND.uScm                               :   2     Fluid Conductivity
 TEMP.DegC                               :   3     Fluid Temperature
#------------------------------------------------------------------------------
~A  DEPTH          NGAM          COND          TEMP
# ...
    70.65         13.08        379.49          8.62
    70.66         14.05        379.33          8.62
    70.67         14.05        379.33          8.62
    70.68         14.85        379.33          8.62
    70.69         13.52        379.33          8.62
    70.70         16.44        379.33          8.62
    70.71         17.41        379.33          8.62
    70.72         17.41        379.33          8.62
    70.73         17.85        379.33          8.62
    70.74         19.80        379.33          8.62
    70.75         18.83        379.33          8.62
    70.76         19.36        379.33          8.62
    70.77         17.85        379.33          8.63
    70.78         17.85        379.33          8.62
    70.79         18.83        379.82          8.62
    70.80         18.83        379.82          8.62
    70.81         18.83        379.98          8.62
    70.82         18.30        379.82          8.62
    70.83         18.39        379.82          8.62
    70.84         17.94        379.33          8.62
    70.85         16.00        379.33          8.62
    70.86         15.91        379.49          8.62
    70.87         14.41        379.33          8.62
    70.88         14.50        379.82          8.62
    70.89         14.50        379.82          8.63
    70.90         14.50        379.33          8.64
    70.91         12.11        379.33          8.64
    70.92         12.11        379.66          8.64
    70.93         11.58        379.66          8.64
    70.94         12.55        379.66          8.63
    70.95         12.11        380.14          8.63
    70.96         10.16        379.74          8.63
    70.97         11.14        379.58          8.63
    70.98         10.70        379.74          8.63
    70.99         10.70        379.74          8.63
    71.00         10.61        379.74          8.62
    71.01         11.58        379.74          8.62
    71.02         11.14        380.22          8.62
    71.03         10.16        379.74          8.62
    71.04          9.72        379.90          8.62
    71.05          9.63        379.90          8.62
    71.06          9.10        379.90          8.62
    71.07          8.66        380.30          8.62
    71.08          8.66        380.30          8.62
    71.09          8.66        380.62          8.62
    71.10         10.25        380.14          8.62
    71.11          9.28        380.30          8.62
    71.12          8.75        380.30          8.62
    71.13          8.75        379.82          8.62
    71.14          8.22        380.30          8.62
    71.15          9.10        380.14          8.62
    71.16          8.66        380.14          8.63
    71.17          8.13        379.66          8.63
    71.18          7.60        379.82          8.64
    71.19          9.19        379.82          8.64
    71.20          9.19        379.82          8.64
    71.21          9.19        379.82          8.64
    71.22          8.22        379.66          8.64
    71.23          8.22        379.82          8.64
    71.24          8.66        379.82          8.64
    71.25          9.72        379.82          8.64
    71.26          9.72        379.82          8.64
    71.27          8.57        379.98          8.63
    71.28          9.10        379.98          8.63
    71.29          9.10        379.82          8.62
    71.30         10.08        379.82          8.62
    71.31         10.61        379.82          8.62
    71.32          9.19        379.82          8.62
    71.33          9.63        379.98          8.62
    71.34          9.63        379.82          8.61
    71.35          9.19        379.82          8.61
    71.36          7.60        379.33          8.61
    71.37         10.34        379.82          8.61
    71.38         10.34        379.82          8.61
    71.39         10.34        379.82          8.61
    71.40          9.90        379.82          8.61
    71.41          9.99        379.82          8.61
    71.42          9.37        379.33          8.60
    71.43          9.37        379.33          8.60
    71.44          9.37        379.66          8.60
    71.45          9.99        379.33          8.60
    71.46          9.55        379.82          8.60
    71.47          8.57        379.82          8.60
    71.48          8.57        379.33          8.60
    71.49          9.63        379.17          8.60
    71.50          9.19        379.17          8.60
    71.51         10.70        379.17          8.60
    71.52         12.11        379.17          8.60
    71.53         13.52        379.66          8.60
    71.54         11.31        379.82          8.60
    71.55         10.34        379.33          8.60
    71.56         10.78        379.66          8.60
    71.57         10.78        379.17          8.60
    71.58         10.25        379.66          8.61
    71.59          9.81        379.66          8.61
    71.60         10.87        379.82          8.61
    71.61         10.87        379.82          8.60
    71.62          9.72        380.30          8.60
    71.63         10.70        380.30          8.60
    71.64         11.14        379.82          8.60
    71.65         10.70        379.66          8.60
    71.66         10.08        380.14          8.60
    71.67         10.52        379.82          8.60
    71.68          9.02        380.30          8.60
    71.69          8.04        379.82          8.60
    71.70          7.16        379.82          8.60
    71.71          6.63        379.66          8.61
    71.72          7.07        379.82          8.60
    71.73          7.60        379.33          8.60
    71.74          7.60        379.82          8.60
    71.75          8.13        379.82          8.60
    71.76         10.08        379.98          8.60
    71.77          9.02        379.49          8.60
    71.78          9.02        379.82          8.60
    71.79          9.02        379.82          8.60
    71.80          9.02        379.98          8.60
    71.81          9.55        379.98          8.60
    71.82          9.99        379.98          8.60
    71.83          9.55        379.82          8.60
    71.84          9.10        379.98          8.60
    71.85          8.66        379.49          8.61
    71.86          9.19        379.98          8.61
    71.87          9.72        379.82          8.61
    71.88         11.14        379.82          8.61
    71.89         11.14        379.98          8.61
    71.90         11.14        379.49          8.61
    71.91         12.11        379.82          8.61
    71.92         12.64        379.82          8.61
    71.93         10.70        379.82          8.61
    71.94         11.14        379.82          8.61
    71.95         10.70        379.82          8.61
    71.96         11.23        379.82          8.61
    71.97         10.78        379.82          8.61
    71.98         10.25        379.82          8.60
    71.99          9.72        379.82          8.60
    72.00         10.70        379.82          8.60
    72.01         11.23        379.82          8.59
    72.02         12.20        379.33          8.58
    72.03         11.67        379.82          8.58
    72.04         10.61        379.82          8.58
    72.05         10.16        379.98          8.58
    72.06         10.25        379.82          8.58
    72.07         10.25        379.82          8.58
    72.08          9.72        379.33          8.58
    72.09         10.61        379.82          8.58
    72.10         11.58        379.98          8.58
    72.11         12.73        379.82          8.59
    72.12         13.70        379.82          8.59
    72.13         12.73        379.82          8.59
    72.14         13.17        379.33          8.59
    72.15         12.73        379.82          8.59
    72.16         13.70        379.66          8.60
    72.17         12.73        379.66          8.60
    72.18         12.20        379.33          8.60
