#Written by Robertson Geologging WinLogger V1.5/410
~VERSION INFORMATION
#------------------------------------------------------------------------------
 VERS. 2.0 : CWLS LOG ASCII STANDARD - VERSION 2.0
 WRAP. NO  : ONE LINE PER DEPTH STEP
~WELL INFORMATION
#MNEM.UNIT         DATA                                DESCRIPTION OF MNEMONIC
#------------------------------------------------------------------------------
 STRT.M          0.0000                            :   START DEPTH
 STOP.M        347.5900                            :   STOP DEPTH
 STEP.M          0.0100                            :   STEP VALUE
 NULL.        -999.2500                            :   NULL VALUE
 COMP.    GEUSd.                                   :   COMPANY NAME
 WELL.    59.459                                   :   WELL NAME
 FLD.     Jylland                                  :   FIELD NAME
 LOC.     N/A                                      :   LOCATION
 PROV.    N/A                                      :   PROVINCE
 SRVC.    N/A                                      :   SERVICE COMPANY NAME
 DATE.    26 May 14                                :   DATE
 UWI.     N/A                                      :   UNIQUE WELL IDENTIFIER
~PARAMETER INFORMATION
#MNEMO.UNIT         VALUE                 DESCRIPTION OF MNEMONIC
#------------------------------------------------------------------------------
~OTHER INFORMATION SECTION
#------------------------------------------------------------------------------
~CURVE INFORMATION
#MNEMO.UNIT         API CODE              CURVE DESCRIPTION
#------------------------------------------------------------------------------
 DEPTH.M                                 :   0     Depth
 TEMP.DegC                               :   1     Fluid Temperature
 COND.uScm                               :   2     Fluid Conductivity
 NGAM.API                                :   3     Natural Gamma
#------------------------------------------------------------------------------
~A  DEPTH          TEMP          COND          NGAM
# ...
    47.74          8.62        398.80         26.87
    47.75          8.62        398.80         27.22
    47.76          8.61        398.96         26.43
    47.77          8.61        399.28         27.40
    47.78          8.61        399.28         28.82
    47.79          8.61        399.28         28.37
    47.80          8.61        398.96         28.99
    47.81          8.61        399.45         27.93
    47.82          8.60        399.28         28.90
    47.83          8.60        399.28         28.46
    47.84          8.60        399.77         25.54
    47.85          8.60        399.93         24.57
    47.86          8.61        399.93         24.22
    47.87          8.61        400.25         26.34
    47.88          8.61        399.77         26.34
    47.89          8.61        399.93         25.90
    47.90          8.61        400.41         26.34
    47.91          8.61        400.25         24.84
    47.92          8.61        400.25         23.51
    47.93          8.61        400.41         23.42
    47.94          8.61        400.41         22.45
    47.95          8.61        400.09         21.48
    47.96          8.61        400.41         21.48
    47.97          8.60        400.41         22.45
    47.98          8.60        399.93         22.45
    47.99          8.60        400.49         22.98
    48.00          8.60        400.33         23.42
    48.01          8.60        399.85         25.37
    48.02          8.60        399.85         26.87
    48.03          8.60        399.36         26.34
    48.04          8.60        399.69         24.22
    48.05          8.60        399.85         25.90
    48.06          8.60        399.69         27.84
    48.07          8.59        399.20         27.40
    48.08          8.59        399.20         27.93
    48.09          8.60        399.20         29.88
    48.10          8.59        398.64         29.96
    48.11          8.59        398.80         31.91
    48.12          8.59        398.80         30.94
    48.13          8.59        398.80         31.38
    48.14          8.59        398.80         30.41
    48.15          8.59        398.80         29.52
    48.16          8.59        398.64         28.99
    48.17          8.58        398.80         28.55
    48.18          8.58        398.80         28.02
    48.19          8.58        398.80         27.49
    48.20          8.58        398.80         28.02
    48.21          8.58        398.80         28.02
    48.22          8.58        399.12         26.87
    48.23          8.58        399.28         23.95
    48.24          8.58        399.28         23.42
    48.25          8.58        399.28         23.78
    48.26          8.58        399.28         22.36
    48.27          8.58        399.28         23.33
    48.28          8.58        399.28         21.39
    48.29          8.58        399.28         21.39
    48.30          8.58        399.28         20.95
    48.31          8.58        399.28         21.66
    48.32          8.58        399.28         22.19
    48.33          8.58        399.28         22.19
    48.34          8.58        399.12         22.19
    48.35          8.58        398.88         22.72
    48.36          8.58        398.88         23.25
    48.37          8.58        398.40         24.93
    48.38          8.58        398.40         24.48
    48.39          8.59        398.24         22.98
    48.40          8.59        398.24         24.93
    48.41          8.59        398.24         24.40
    48.42          8.59        398.24         25.99
    48.43          8.59        398.24         27.40
    48.44          8.59        397.76         26.87
    48.45          8.59        397.76         26.78
    48.46          8.59        398.00         29.26
    48.47          8.58        398.00         29.26
    48.48          8.58        398.00         27.05
    48.49          8.58        397.60         28.46
    48.50          8.58        397.60         28.37
    48.51          8.57        397.60         27.84
    48.52          8.57        397.60         26.34
    48.53          8.57        397.60         25.81
    48.54          8.57        397.60         23.60
    48.55          8.57        397.76         25.54
    48.56          8.58        397.35         25.10
    48.57          8.58        397.35         24.40
    48.58          8.59        397.35         25.90
    48.59          8.59        397.35         25.37
    48.60          8.59        397.76         24.40
    48.61          8.59        397.92         23.42
    48.62          8.59        397.92         22.98
    48.63          8.59        397.92         21.48
    48.64          8.60        397.92         21.39
    48.65          8.60        397.92         22.36
    48.66          8.59        397.76         19.98
    48.67          8.59        398.32         19.09
    48.68          8.59        398.32         19.09
    48.69          8.58        398.32         19.62
    48.70          8.58        398.32         20.59
    48.71          8.57        398.08         20.59
    48.72          8.57        397.92         18.65
    48.73          8.56        397.92         19.53
    48.74          8.56        397.92         18.74
    48.75          8.56        398.08         17.32
    48.76          8.56        398.08         16.35
    48.77          8.56        398.08         15.38
    48.78          8.56        397.92         15.38
    48.79          8.55        397.51         15.38
    48.80          8.56        397.68         14.94
    48.81          8.56        397.68         14.50
    48.82          8.56        397.92         14.05
    48.83          8.57        397.92         14.50
    48.84          8.57        398.40         16.00
    48.85          8.57        398.40         15.56
    48.86          8.57        398.24         16.97
    48.87          8.57        398.40         15.56
    48.88          8.56        398.40         17.32
    48.89          8.56        398.40         16.35
    48.90          8.56        398.80         15.91
    48.91          8.56        398.64         14.94
    48.92          8.56        398.80         15.29
    48.93          8.56        398.80         15.29
    48.94          8.56        398.96         17.24
    48.95          8.56        398.48         18.21
    48.96          8.56        398.48         18.21
    48.97          8.56        398.48         18.56
    48.98          8.56        398.48         20.51
    48.99          8.56        398.48         20.95
    49.00          8.56        398.48         22.45
    49.01          8.56        398.48         21.48
    49.02          8.56        398.48         22.45
    49.03          8.56        398.08         22.27
    49.04          8.56        398.08         23.25
    49.05          8.56        397.92         22.01
    49.06          8.56        397.92         23.42
    49.07          8.55        397.92         24.93
    49.08          8.55        397.92         25.90
    49.09          8.55        397.92         25.90
    49.10          8.55        397.51         25.46
    49.11          8.55        397.51         24.48
    49.12          8.55        397.51         23.51
    49.13          8.55        397.51         24.48
    49.14          8.55        397.76         23.60
    49.15          8.55        397.92         22.63
    49.16          8.55        397.92         21.21
    49.17          8.55        397.92         20.24
    49.18          8.55        397.68         20.68
    49.19          8.55        397.68         21.66
    49.20          8.55        397.51         19.89
    49.21          8.55        397.92         19.89
    49.22          8.55        398.08         19.36
    49.23          8.55        397.68         17.94
    49.24          8.55        397.68         16.88
    49.25          8.55        397.68         17.41
    49.26          8.55        397.51         16.09
    49.27          8.55        397.68         16.09
