#Written by Robertson Geologging WinLogger V1.5/410
~VERSION INFORMATION
#------------------------------------------------------------------------------
 VERS. 2.0 : CWLS LOG ASCII STANDARD - VERSION 2.0
 WRAP. NO  : ONE LINE PER DEPTH STEP
~WELL INFORMATION
#MNEM.UNIT         DATA                                DESCRIPTION OF MNEMONIC
#------------------------------------------------------------------------------
 STRT.M          0.0000                            :   START DEPTH
 STOP.M        347.5900                            :   STOP DEPTH
 STEP.M          0.0100                            :   STEP VALUE
 NULL.        -999.2500                            :   NULL VALUE
 COMP.    GEUSd.                                   :   COMPANY NAME
 WELL.    59.459                                   :   WELL NAME
 FLD.     Jylland                                  :   FIELD NAME
 LOC.     N/A                                      :   LOCATION
 PROV.    N/A                                      :   PROVINCE
 SRVC.    N/A                                      :   SERVICE COMPANY NAME
 DATE.    26 May 14                                :   DATE
 UWI.     N/A                                      :   UNIQUE WELL IDENTIFIER
~PARAMETER INFORMATION
#MNEMO.UNIT         VALUE                 DESCRIPTION OF MNEMONIC
#------------------------------------------------------------------------------
~OTHER INFORMATION SECTION
#------------------------------------------------------------------------------
~CURVE INFORMATION
#MNEMO.UNIT         API CODE              CURVE DESCRIPTION
#------------------------------------------------------------------------------
 DEPTH.M                                 :   0     Depth
 TEMP.DegC                               :   1     Fluid Temperature
 COND.uScm                               :   2     Fluid Conductivity
 NGAM.API                                :   3     Natural Gamma
#------------------------------------------------------------------------------
~A  DEPTH          TEMP          COND          NGAM
# ...
    70.84          8.58        406.61         23.33
    70.85          8.58        406.12         23.33
    70.86          8.58        406.12         22.45
    70.87          8.58        406.12         21.04
    70.88          8.58        406.04         21.92
    70.89          8.58        406.04         20.24
    70.90          8.58        405.96         18.30
    70.91          8.58        405.56         17.85
    70.92          8.58        405.96         18.39
    70.93          8.57        405.48         16.35
    70.94          8.57        405.48         14.94
    70.95          8.57        405.48         13.61
    70.96          8.57        405.56         13.61
    70.97          8.58        405.48         14.05
    70.98          8.58        405.48         13.61
    70.99          8.58        405.56         12.20
    71.00          8.58        405.08         12.73
    71.01          8.58        405.56         12.64
    71.02          8.58        405.56         13.08
    71.03          8.58        405.08         13.61
    71.04          8.58        405.56         13.61
    71.05          8.58        405.56         12.73
    71.06          8.58        405.56         12.20
    71.07          8.58        405.48         13.97
    71.08          8.58        405.96         14.94
    71.09          8.59        405.48         14.94
    71.10          8.59        405.88         14.50
    71.11          8.59        405.96         14.50
    71.12          8.59        405.96         14.94
    71.13          8.59        405.96         14.94
    71.14          8.59        406.44         13.97
    71.15          8.59        405.96         13.52
    71.16          8.59        406.36         13.97
    71.17          8.59        405.88         13.44
    71.18          8.59        406.36         12.99
    71.19          8.59        405.88         11.58
    71.20          8.59        406.36         10.61
    71.21          8.59        405.88         11.58
    71.22          8.59        406.28         11.14
    71.23          8.59        405.88         10.70
    71.24          8.59        406.28          9.37
    71.25          8.59        405.88          7.87
    71.26          8.59        406.36          7.34
    71.27          8.59        405.88          9.28
    71.28          8.59        406.36          9.63
    71.29          8.59        405.88         10.61
    71.30          8.59        406.36         11.05
    71.31          8.59        405.96         10.08
    71.32          8.59        406.44         10.52
    71.33          8.59        406.44         10.52
    71.34          8.59        406.36         11.49
    71.35          8.59        406.36         12.02
    71.36          8.59        406.77         13.35
    71.37          8.59        406.36         13.79
    71.38          8.58        406.85         13.26
    71.39          8.58        406.85         13.70
    71.40          8.58        407.33         15.11
    71.41          8.58        406.85         15.11
    71.42          8.59        407.25         15.11
    71.43          8.59        407.25         14.67
    71.44          8.59        407.25         13.61
    71.45          8.59        407.25         13.26
    71.46          8.59        407.25         13.61
    71.47          8.59        406.85         14.14
    71.48          8.59        407.25         14.67
    71.49          8.59        407.25         15.56
    71.50          8.59        406.85         15.11
    71.51          8.59        406.85         13.70
    71.52          8.59        406.85         14.05
    71.53          8.59        406.85         13.70
    71.54          8.59        406.36         13.70
    71.55          8.58        406.36         13.70
    71.56          8.58        406.85         14.14
    71.57          8.58        406.36         13.70
    71.58          8.58        406.77         13.70
    71.59          8.58        406.28         14.67
    71.60          8.58        406.28         14.67
    71.61          8.58        406.28         14.23
    71.62          8.58        406.28         13.26
    71.63          8.58        406.36         12.82
    71.64          8.58        406.36         13.26
    71.65          8.58        406.36         13.17
    71.66          8.58        406.36         13.26
    71.67          8.58        405.88         14.14
    71.68          8.58        406.36         15.56
    71.69          8.58        405.96         14.67
    71.70          8.58        406.44         14.14
    71.71          8.58        406.04         14.14
    71.72          8.58        406.44         14.67
    71.73          8.59        405.96         14.23
    71.74          8.59        406.36         16.18
    71.75          8.59        405.88         16.18
    71.76          8.59        406.36         14.76
    71.77          8.59        405.88         14.76
    71.78          8.59        405.88         14.32
    71.79          8.59        405.88         14.76
    71.80          8.59        405.80         15.38
    71.81          8.59        405.32         14.41
    71.82          8.58        405.32         14.94
    71.83          8.58        405.32         14.85
    71.84          8.58        405.32         14.41
    71.85          8.59        404.84         13.44
    71.86          8.59        404.92         15.65
    71.87          8.59        404.92         16.18
    71.88          8.59        405.00         16.71
    71.89          8.58        405.00         16.18
    71.90          8.59        404.51         16.71
    71.91          8.59        405.00         16.00
    71.92          8.59        405.00         16.53
    71.93          8.59        405.00         17.50
    71.94          8.59        404.51         17.94
    71.95          8.59        404.59         18.47
    71.96          8.59        405.08         19.00
    71.97          8.59        405.08         17.94
    71.98          8.59        404.59         18.47
    71.99          8.59        405.00         17.94
    72.00          8.60        405.08         16.62
    72.01          8.60        405.08         16.62
    72.02          8.59        405.08         16.62
    72.03          8.59        405.16         15.38
    72.04          8.59        405.08         14.85
    72.05          8.59        405.08         14.76
    72.06          8.59        405.48         15.29
    72.07          8.59        405.00         15.29
    72.08          8.59        404.92         13.97
    72.09          8.59        405.40         13.44
    72.10          8.58        404.92         13.44
    72.11          8.58        404.84         14.76
    72.12          8.58        405.32         14.76
    72.13          8.58        404.92         13.79
    72.14          8.59        404.84         14.23
    72.15          8.59        405.32         14.67
    72.16          8.59        405.40         14.76
    72.17          8.59        404.92         16.18
    72.18          8.59        404.92         16.62
    72.19          8.59        405.40         18.12
    72.20          8.59        404.92         18.12
    72.21          8.59        405.00         17.68
    72.22          8.59        405.48         18.74
    72.23          8.59        405.00         18.21
    72.24          8.59        405.00         17.68
    72.25          8.58        405.48         17.24
    72.26          8.58        405.00         17.77
    72.27          8.58        405.40         17.24
    72.28          8.59        405.40         15.47
    72.29          8.59        405.48         14.94
    72.30          8.59        405.48         15.38
    72.31          8.59        405.48         14.05
    72.32          8.59        405.48         13.08
    72.33          8.59        405.48         12.55
    72.34          8.59        405.48         11.58
    72.35          8.59        405.88         11.14
    72.36          8.59        405.40          9.63
    72.37          8.59        405.88          8.66
