#Written by Robertson Geologging WinLogger V1.5/410
~VERSION INFORMATION
#------------------------------------------------------------------------------
 VERS. 2.0 : CWLS LOG ASCII STANDARD - VERSION 2.0
 WRAP. NO  : ONE LINE PER DEPTH STEP
~WELL INFORMATION
#MNEM.UNIT         DATA                                DESCRIPTION OF MNEMONIC
#------------------------------------------------------------------------------
 STRT.M          0.0000                            :   START DEPTH
 STOP.M        347.5900                            :   STOP DEPTH
 STEP.M          0.0100                            :   STEP VALUE
 NULL.        -999.2500                            :   NULL VALUE
 COMP.    GEUSd.                                   :   COMPANY NAME
 WELL.    59.459                                   :   WELL NAME
 FLD.     Jylland                                  :   FIELD NAME
 LOC.     N/A                                      :   LOCATION
 PROV.    N/A                                      :   PROVINCE
 SRVC.    N/A                                      :   SERVICE COMPANY NAME
 DATE.    26 May 14                                :   DATE
 UWI.     N/A                                      :   UNIQUE WELL IDENTIFIER
~PARAMETER INFORMATION
#MNEMO.UNIT         VALUE                 DESCRIPTION OF MNEMONIC
#------------------------------------------------------------------------------
~OTHER INFORMATION SECTION
#------------------------------------------------------------------------------
~CURVE INFORMATION
#MNEMO.UNIT         API CODE              CURVE DESCRIPTION
#------------------------------------------------------------------------------
 DEPTH.M                                 :   0     Depth
 TEMP.DegC                               :   1     Fluid Temperature
 COND.uScm                               :   2     Fluid Conductivity
 NGAM.API                                :   3     Natural Gamma
#------------------------------------------------------------------------------
~A  DEPTH          TEMP          COND          NGAM
# ...
   207.90         10.94      25743.14         20.24
   207.91         10.94      25745.73         19.45
   207.92         10.94      25748.05         20.33
   207.93         10.94      25749.90         20.33
   207.94         10.93      25751.56         21.66
   207.95         10.93      25753.41         22.10
   207.96         10.93      25755.27         21.30
   207.97         10.93      25756.84         21.74
   207.98         10.93      25759.15         20.33
   207.99         10.93      25761.56         19.89
   208.00         10.94      25764.06         18.92
   208.01         10.94      25766.83         19.80
   208.02         10.94      25770.44         18.92
   208.03         10.94      25772.76         17.94
   208.04         10.94      25775.99         17.50
   208.05         10.94      25778.96         17.50
   208.06         10.94      25782.20         16.18
   208.07         10.94      25784.97         14.50
   208.08         10.94      25787.56         15.29
   208.09         10.94      25789.88         14.85
   208.10         10.94      25792.56         15.29
   208.11         10.94      25795.71         13.08
   208.12         10.94      25798.02         12.64
   208.13         10.94      25799.59         12.64
   208.14         10.94      25802.83         12.20
   208.15         10.94      25805.15         12.20
   208.16         10.94      25807.28         11.76
   208.17         10.94      25809.13         11.31
   208.18         10.93      25811.44         11.31
   208.19         10.93      25814.40         13.26
   208.20         10.93      25817.18         12.29
   208.21         10.93      25819.12         11.40
   208.22         10.93      25821.53         11.40
   208.23         10.93      25824.96         11.84
   208.24         10.93      25827.83         11.84
   208.25         10.93      25830.60         10.96
   208.26         10.93      25833.66         11.49
   208.27         10.93      25836.90         12.37
   208.28         10.94      25838.93         13.26
   208.29         10.94      25841.71         14.23
   208.30         10.94      25843.84         13.70
   208.31         10.94      25846.16         13.70
   208.32         10.94      25848.84         13.70
   208.33         10.95      25851.06         12.82
   208.34         10.95      25853.19         14.23
   208.35         10.95      25855.51         13.79
   208.36         10.95      25857.82         12.29
   208.37         10.95      25859.39         11.84
   208.38         10.95      25861.25         11.84
   208.39         10.95      25863.38         12.73
   208.40         10.95      25865.23         12.29
   208.41         10.95      25866.34         13.08
   208.42         10.95      25867.73         13.08
   208.43         10.95      25869.12         13.52
   208.44         10.95      25870.60         13.08
   208.45         10.95      25871.06         12.20
   208.46         10.95      25871.99         12.64
   208.47         10.95      25871.99         13.08
   208.48         10.95      25873.37         13.08
   208.49         10.95      25873.93         13.08
   208.50         10.95      25874.86         13.52
   208.51         10.94      25875.78         12.55
   208.52         10.94      25877.26         13.44
   208.53         10.94      25878.19         13.44
   208.54         10.94      25879.76         13.88
   208.55         10.94      25880.69         13.88
   208.56         10.94      25882.73         13.52
   208.57         10.94      25884.58         13.52
   208.58         10.94      25886.89         12.73
   208.59         10.94      25888.00         11.84
   208.60         10.94      25890.23         10.87
   208.61         10.94      25892.36         10.96
   208.62         10.94      25894.21         10.96
   208.63         10.94      25895.50          9.99
   208.64         10.94      25897.63          9.55
   208.65         10.94      25898.84          9.10
   208.66         10.94      25900.04          9.10
   208.67         10.94      25900.78          8.22
   208.68         10.93      25901.71          8.22
   208.69         10.93      25903.10          7.78
   208.70         10.93      25904.67          7.34
   208.71         10.93      25906.06          6.89
   208.72         10.93      25907.63          6.45
   208.73         10.93      25909.49          5.92
   208.74         10.93      25911.80          5.48
   208.75         10.93      25913.84          6.28
   208.76         10.93      25916.25          7.60
   208.77         10.93      25919.21          7.16
   208.78         10.94      25921.99          6.19
   208.79         10.94      25924.95          6.19
   208.80         10.94      25927.27          6.19
   208.81         10.94      25930.32          6.63
   208.82         10.93      25932.64          6.63
   208.83         10.93      25935.14          6.63
   208.84         10.93      25937.92          7.51
   208.85         10.93      25940.70          8.04
   208.86         10.93      25943.29          8.49
   208.87         10.93      25946.44          8.49
   208.88         10.93      25949.13          8.93
   208.89         10.93      25952.83          8.93
   208.90         10.93      25955.89          8.93
   208.91         10.93      25959.13          9.37
   208.92         10.93      25962.65          8.49
   208.93         10.94      25966.82          7.60
   208.94         10.94      25970.80          9.37
   208.95         10.94      25974.51          9.37
   208.96         10.94      25978.21          9.81
   208.97         10.95      25982.38          9.81
   208.98         10.95      25986.55         10.34
   208.99         10.95      25991.27         11.23
   209.00         10.95      25994.98         12.11
   209.01         10.95      25999.61         14.58
   209.02         10.95      26004.71         14.94
   209.03         10.95      26008.88         13.17
   209.04         10.95      26013.14         13.61
   209.05         10.95      26017.77         13.17
   209.06         10.95      26022.40         14.14
   209.07         10.94      26027.22         13.70
   209.08         10.94      26032.04         13.70
   209.09         10.94      26036.67         13.26
   209.10         10.95      26041.77         12.82
   209.11         10.95      26046.86         11.49
   209.12         10.95      26051.50         12.90
   209.13         10.95      26056.22         12.90
   209.14         10.95      26061.32         12.46
   209.15         10.96      26065.95         11.49
   209.16         10.96      26070.59         11.49
   209.17         10.96      26074.76         11.05
   209.18         10.97      26079.39          7.69
   209.19         10.97      26083.56          6.81
   209.20         10.97      26087.73          6.81
   209.21         10.97      26091.26          6.36
   209.22         10.96      26095.43          6.36
   209.23         10.96      26099.04          5.39
   209.24         10.96      26102.19          5.39
   209.25         10.96      26105.90          6.28
   209.26         10.96      26109.52          6.28
   209.27         10.96      26113.22          7.60
   209.28         10.95      26117.02          7.16
   209.29         10.95      26121.01          6.19
   209.30         10.95      26125.18          6.19
   209.31         10.95      26129.63          7.51
   209.32         10.95      26134.45          7.07
   209.33         10.95      26139.09          6.63
   209.34         10.95      26143.72          6.63
   209.35         10.95      26148.82          7.07
   209.36         10.95      26153.46          7.07
   209.37         10.95      26158.09          7.51
   209.38         10.95      26162.82          7.96
   209.39         10.95      26167.36          8.40
   209.40         10.95      26171.17          8.84
   209.41         10.95      26175.34          9.72
   209.42         10.96      26178.95          8.40
   209.43         10.96      26181.74          8.84
