#Written by Robertson Geologging WinLogger V1.5/410
~VERSION INFORMATION
#------------------------------------------------------------------------------
 VERS. 2.0 : CWLS LOG ASCII STANDARD - VERSION 2.0
 WRAP. NO  : ONE LINE PER DEPTH STEP
~WELL INFORMATION
#MNEM.UNIT         DATA                                DESCRIPTION OF MNEMONIC
#------------------------------------------------------------------------------
 STRT.M         -0.1900                            :   START DEPTH
 STOP.M        347.0100                            :   STOP DEPTH
 STEP.M          0.0100                            :   STEP VALUE
 NULL.        -999.2500                            :   NULL VALUE
 COMP.    geus                                     :   COMPANY NAME
 WELL.    dalbyover 1                              :   WELL NAME
 FLD.     bornholm                                 :   FIELD NAME
 LOC.     N/A                                      :   LOCATION
 PROV.    DK                                       :   PROVINCE
 SRVC.    N/A                                      :   SERVICE COMPANY NAME
 DATE.    16/12/13                                 :   DATE
 UWI.     N/A                                      :   UNIQUE WELL IDENTIFIER
~PARAMETER INFORMATION
#MNEMO.UNIT         VALUE                 DESCRIPTION OF MNEMONIC
#------------------------------------------------------------------------------
~OTHER INFORMATION SECTION
#------------------------------------------------------------------------------
~CURVE INFORMATION
#MNEMO.UNIT         API CODE              CURVE DESCRIPTION
#------------------------------------------------------------------------------
 DEPTH.M                                 :   0     Depth
 NGAM.API                                :   1     Natural Gamma
 COND.uScm                               :   2     Fluid Conductivity
 TEMP.DegC                               :   3     Fluid Temperature
#------------------------------------------------------------------------------
~A  DEPTH          NGAM          COND          TEMP
# ...
   230.81          3.18        411.43         11.52
   230.82          3.62        411.43         11.53
   230.83          3.62        411.43         11.53
   230.84          3.09        411.43         11.53
   230.85          3.09        411.43         11.53
   230.86          2.65        411.43         11.53
   230.87          3.62        411.43         11.53
   230.88          4.60        411.84         11.53
   230.89          4.60        411.43         11.53
   230.90          4.15        411.43         11.53
   230.91          4.60        411.43         11.53
   230.92          4.15        411.43         11.53
   230.93          4.60        411.43         11.52
   230.94          4.60        411.43         11.52
   230.95          4.60        411.43         11.52
   230.96          4.60        411.43         11.52
   230.97          4.15        411.43         11.52
   230.98          3.71        411.43         11.52
   230.99          3.71        411.43         11.52
   231.00          4.15        411.43         11.52
   231.01          3.71        411.43         11.52
   231.02          4.68        411.84         11.52
   231.03          4.68        411.43         11.53
   231.04          4.68        411.43         11.53
   231.05          4.15        411.43         11.53
   231.06          5.13        411.43         11.53
   231.07          5.57        411.43         11.53
   231.08          5.13        411.43         11.53
   231.09          5.13        411.43         11.53
   231.10          5.13        411.43         11.53
   231.11          5.57        411.43         11.53
   231.12          5.57        411.43         11.53
   231.13          6.01        411.43         11.53
   231.14          6.98        411.43         11.53
   231.15          6.98        411.43         11.53
   231.16          6.54        411.84         11.53
   231.17          6.54        411.43         11.53
   231.18          6.54        411.43         11.53
   231.19          6.01        411.84         11.53
   231.20          6.45        411.43         11.53
   231.21          5.92        411.43         11.53
   231.22          5.92        411.84         11.53
   231.23          5.92        411.43         11.53
   231.24          6.45        411.43         11.54
   231.25          6.45        411.92         11.54
   231.26          7.42        411.51         11.54
   231.27          8.93        411.51         11.54
   231.28          8.49        411.92         11.54
   231.29          8.49        411.51         11.54
   231.30          8.49        411.51         11.55
   231.31          7.96        411.92         11.55
   231.32          8.40        411.51         11.55
   231.33          8.40        411.51         11.55
   231.34          8.40        411.51         11.54
   231.35          8.40        411.51         11.54
   231.36          7.96        411.43         11.54
   231.37          7.51        411.43         11.54
   231.38          7.60        411.43         11.53
   231.39          7.16        411.43         11.53
   231.40          6.19        411.43         11.53
   231.41          5.22        411.43         11.53
   231.42          6.19        411.43         11.53
   231.43          5.66        411.43         11.53
   231.44          4.68        411.43         11.53
   231.45          4.68        411.84         11.53
   231.46          4.68        411.43         11.53
   231.47          4.68        411.43         11.53
   231.48          4.68        411.84         11.53
   231.49          4.24        411.43         11.53
   231.50          4.68        411.43         11.53
   231.51          4.24        411.84         11.53
   231.52          4.68        411.43         11.53
   231.53          4.68        411.43         11.52
   231.54          6.10        411.84         11.52
   231.55          5.57        411.43         11.53
   231.56          6.54        411.43         11.53
   231.57          6.54        411.84         11.53
   231.58          6.54        411.43         11.53
   231.59          6.01        411.43         11.53
   231.60          5.57        411.84         11.54
   231.61          5.04        411.43         11.54
   231.62          5.04        411.43         11.54
   231.63          5.04        411.84         11.54
   231.64          4.60        411.43         11.54
   231.65          4.15        411.43         11.54
   231.66          4.15        411.84         11.54
   231.67          3.71        411.84         11.54
   231.68          4.15        411.43         11.54
   231.69          3.71        411.84         11.54
   231.70          3.71        411.84         11.54
   231.71          2.30        411.43         11.54
   231.72          2.30        411.84         11.54
   231.73          1.77        411.92         11.54
   231.74          1.77        411.51         11.54
   231.75          2.83        412.00         11.54
   231.76          2.83        412.00         11.54
   231.77          2.83        411.59         11.54
   231.78          3.36        411.59         11.54
   231.79          3.36        412.00         11.54
   231.80          5.30        411.59         11.53
   231.81          5.30        411.59         11.53
   231.82          5.30        412.00         11.53
   231.83          5.30        411.59         11.53
   231.84          5.75        411.51         11.54
   231.85          5.30        411.92         11.54
   231.86          5.30        411.43         11.53
   231.87          5.30        411.43         11.53
   231.88          6.28        411.84         11.53
   231.89          6.72        411.43         11.53
   231.90          7.25        411.43         11.53
   231.91          7.25        411.84         11.53
   231.92          7.16        411.84         11.53
   231.93          6.72        411.43         11.53
   231.94          7.69        411.84         11.53
   231.95          6.72        411.84         11.53
   231.96          6.72        411.43         11.53
   231.97          4.77        411.84         11.53
   231.98          5.22        411.84         11.53
   231.99          5.22        411.43         11.54
   232.00          6.19        411.84         11.54
   232.01          6.19        411.84         11.54
   232.02          6.19        411.43         11.55
   232.03          6.19        411.43         11.55
   232.04          6.63        411.43         11.55
   232.05          6.63        411.03         11.55
   232.06          6.63        411.03         11.55
   232.07          5.66        411.43         11.55
   232.08          6.10        411.43         11.55
   232.09          5.57        411.03         11.55
   232.10          6.01        411.51         11.56
   232.11          6.01        411.51         11.56
   232.12          6.01        411.11         11.56
   232.13          6.45        411.51         11.56
   232.14          6.89        411.51         11.56
   232.15          6.45        411.51         11.56
   232.16          6.89        411.92         11.56
   232.17          5.92        412.00         11.56
   232.18          5.48        411.59         11.56
   232.19          5.92        411.59         11.56
   232.20          5.92        412.00         11.56
   232.21          6.45        411.51         11.56
   232.22          5.92        411.51         11.56
   232.23          5.92        411.92         11.56
   232.24          6.89        411.51         11.56
   232.25          7.42        411.51         11.56
   232.26          8.93        411.92         11.56
   232.27          9.46        411.51         11.56
   232.28         10.43        411.43         11.55
   232.29         10.43        411.84         11.55
   232.30         10.43        411.84         11.55
   232.31         10.43        411.43         11.55
   232.32         11.40        411.84         11.55
   232.33         11.93        411.84         11.54
   232.34         12.37        411.43         11.54
