#Written by Robertson Geologging WinLogger V1.5/410
~VERSION INFORMATION
#------------------------------------------------------------------------------
 VERS. 2.0 : CWLS LOG ASCII STANDARD - VERSION 2.0
 WRAP. NO  : ONE LINE PER DEPTH STEP
~WELL INFORMATION
#MNEM.UNIT         DATA                                DESCRIPTION OF MNEMONIC
#------------------------------------------------------------------------------
 STRT.M          0.0000                            :   START DEPTH
 STOP.M        347.5900                            :   STOP DEPTH
 STEP.M          0.0100                            :   STEP VALUE
 NULL.        -999.2500                            :   NULL VALUE
 COMP.    GEUSd.                                   :   COMPANY NAME
 WELL.    59.459                                   :   WELL NAME
 FLD.     Jylland                                  :   FIELD NAME
 LOC.     N/A                                      :   LOCATION
 PROV.    N/A                                      :   PROVINCE
 SRVC.    N/A                                      :   SERVICE COMPANY NAME
 DATE.    26 May 14                                :   DATE
 UWI.     N/A                                      :   UNIQUE WELL IDENTIFIER
~PARAMETER INFORMATION
#MNEMO.UNIT         VALUE                 DESCRIPTION OF MNEMONIC
#------------------------------------------------------------------------------
~OTHER INFORMATION SECTION
#------------------------------------------------------------------------------
~CURVE INFORMATION
#MNEMO.UNIT         API CODE              CURVE DESCRIPTION
#------------------------------------------------------------------------------
 DEPTH.M                                 :   0     Depth
 TEMP.DegC                               :   1     Fluid Temperature
 COND.uScm                               :   2     Fluid Conductivity
 NGAM.API                                :   3     Natural Gamma
#------------------------------------------------------------------------------
~A  DEPTH          TEMP          COND          NGAM
# ...
   117.04          9.19       1169.07          7.16
   117.05          9.19       1169.47          8.13
   117.06          9.20       1169.96          7.69
   117.07          9.20       1170.44          8.13
   117.08          9.20       1170.93          7.69
   117.09          9.20       1171.25          8.66
   117.10          9.19       1171.74          8.66
   117.11          9.19       1172.63          9.63
   117.12          9.19       1173.03          9.63
   117.13          9.19       1173.84          9.19
   117.14          9.19       1174.24         11.49
   117.15          9.20       1175.13         11.49
   117.16          9.20       1176.10         11.05
   117.17          9.19       1176.83         11.58
   117.18          9.19       1177.72         10.25
   117.19          9.19       1179.01         10.61
   117.20          9.19       1179.58         11.05
   117.21          9.19       1181.12         11.05
   117.22          9.19       1182.01          9.63
   117.23          9.19       1182.90         10.08
   117.24          9.19       1183.87         10.52
   117.25          9.19       1185.00         10.08
   117.26          9.19       1185.89          9.10
   117.27          9.19       1186.29          9.10
   117.28          9.20       1187.34          8.13
   117.29          9.20       1188.23          9.90
   117.30          9.20       1188.72         11.31
   117.31          9.21       1189.77          9.55
   117.32          9.21       1190.01         11.49
   117.33          9.21       1190.50         12.37
   117.34          9.21       1191.39         12.37
   117.35          9.21       1191.87         12.37
   117.36          9.21       1192.52         12.02
   117.37          9.22       1192.92         12.02
   117.38          9.22       1193.81         12.02
   117.39          9.22       1194.22         12.46
   117.40          9.22       1194.62         12.02
   117.41          9.22       1195.02         12.02
   117.42          9.22       1195.75         12.02
   117.43          9.22       1196.32         11.58
   117.44          9.23       1197.13         12.46
   117.45          9.23       1197.61         12.46
   117.46          9.23       1198.50         11.67
   117.47          9.23       1198.99         11.23
   117.48          9.23       1199.96         11.23
   117.49          9.22       1200.93         10.16
   117.50          9.22       1201.90         10.25
   117.51          9.22       1202.87         10.25
   117.52          9.23       1203.84         10.70
   117.53          9.22       1204.32         10.61
   117.54          9.22       1205.13         10.16
   117.55          9.22       1206.10         11.14
   117.56          9.22       1206.59         10.70
   117.57          9.22       1207.48         12.02
   117.58          9.22       1208.37         11.58
   117.59          9.22       1208.77         11.58
   117.60          9.22       1209.17         11.58
   117.61          9.22       1209.58         10.70
   117.62          9.21       1209.98         11.14
   117.63          9.21       1210.79         11.58
   117.64          9.21       1211.20         10.61
   117.65          9.20       1212.09         10.08
   117.66          9.20       1212.09          9.63
   117.67          9.21       1212.89          8.66
   117.68          9.21       1213.38          8.66
   117.69          9.21       1213.86          9.55
   117.70          9.21       1214.35          8.66
   117.71          9.21       1215.16          9.10
   117.72          9.21       1215.64          8.13
   117.73          9.21       1216.13          9.46
   117.74          9.21       1216.53          8.57
   117.75          9.22       1217.42          8.57
   117.76          9.22       1217.83          9.02
   117.77          9.22       1218.72          9.90
   117.78          9.22       1219.20          9.46
   117.79          9.22       1219.93          9.46
   117.80          9.22       1220.33          8.04
   117.81          9.22       1221.22          8.49
   117.82          9.22       1221.30          8.04
   117.83          9.22       1222.03          7.60
   117.84          9.22       1222.92          7.60
   117.85          9.22       1223.49          8.04
   117.86          9.22       1223.97          6.72
   117.87          9.22       1224.70          6.72
   117.88          9.22       1225.19          8.22
   117.89          9.22       1226.08          8.22
   117.90          9.22       1226.48          6.89
   117.91          9.22       1226.97          6.89
   117.92          9.22       1227.37          7.42
   117.93          9.22       1228.26          6.98
   117.94          9.22       1228.66          6.54
   117.95          9.22       1229.31          6.98
   117.96          9.22       1230.20          6.54
   117.97          9.22       1230.61          7.96
   117.98          9.22       1231.25          7.96
   117.99          9.22       1231.90          7.96
   118.00          9.22       1232.38          8.40
   118.01          9.22       1233.03          9.81
   118.02          9.22       1233.92          8.84
   118.03          9.22       1234.57          8.84
   118.04          9.22       1235.05          9.28
   118.05          9.22       1235.70          7.34
   118.06          9.22       1236.35          8.31
   118.07          9.22       1236.51          9.28
   118.08          9.22       1237.40          8.84
   118.09          9.22       1237.80          9.81
   118.10          9.22       1238.05          9.81
   118.11          9.21       1238.61          9.37
   118.12          9.21       1239.02          9.90
   118.13          9.21       1239.42         10.34
   118.14          9.21       1239.83         10.34
   118.15          9.21       1240.23         10.34
   118.16          9.21       1240.63         11.31
   118.17          9.21       1241.20         11.84
   118.18          9.21       1241.93         10.43
   118.19          9.22       1241.93          9.99
   118.20          9.22       1242.41         11.93
   118.21          9.22       1243.79         12.46
   118.22          9.22       1244.11         13.35
   118.23          9.22       1245.08         11.93
   118.24          9.22       1246.05         10.96
   118.25          9.22       1246.46         11.40
   118.26          9.22       1246.94          9.90
   118.27          9.22       1248.32         10.87
   118.28          9.22       1248.72         11.31
   118.29          9.22       1249.21         11.31
   118.30          9.22       1250.18         11.31
   118.31          9.22       1250.66         11.23
   118.32          9.22       1251.07         12.20
   118.33          9.22       1251.55         13.17
   118.34          9.22       1251.55         13.17
   118.35          9.22       1251.96         13.17
   118.36          9.23       1252.36         14.58
   118.37          9.23       1252.85         13.08
   118.38          9.23       1252.85         12.11
   118.39          9.23       1253.25         11.67
   118.40          9.23       1253.66         12.64
   118.41          9.23       1254.06         13.97
   118.42          9.22       1254.47         13.52
   118.43          9.22       1254.87         13.08
   118.44          9.22       1255.27         13.52
   118.45          9.22       1256.16         13.97
   118.46          9.22       1256.16         12.99
   118.47          9.22       1257.05         12.99
   118.48          9.21       1257.94         12.64
   118.49          9.21       1257.94         11.67
   118.50          9.21       1258.43         10.70
   118.51          9.21       1258.91          9.72
   118.52          9.21       1259.72         10.70
   118.53          9.22       1260.21          9.28
   118.54          9.22       1260.29         10.16
   118.55          9.22       1260.78         10.16
   118.56          9.22       1261.10         10.16
   118.57          9.23       1261.58          9.63
