#Written by Robertson Geologging WinLogger V1.5/410
~VERSION INFORMATION
#------------------------------------------------------------------------------
 VERS. 2.0 : CWLS LOG ASCII STANDARD - VERSION 2.0
 WRAP. NO  : ONE LINE PER DEPTH STEP
~WELL INFORMATION
#MNEM.UNIT         DATA                                DESCRIPTION OF MNEMONIC
#------------------------------------------------------------------------------
 STRT.M         -0.1900                            :   START DEPTH
 STOP.M        347.0100                            :   STOP DEPTH
 STEP.M          0.0100                            :   STEP VALUE
 NULL.        -999.2500                            :   NULL VALUE
 COMP.    geus                                     :   COMPANY NAME
 WELL.    dalbyover 1                              :   WELL NAME
 FLD.     bornholm                                 :   FIELD NAME
 LOC.     N/A                                      :   LOCATION
 PROV.    DK                                       :   PROVINCE
 SRVC.    N/A                                      :   SERVICE COMPANY NAME
 DATE.    16/12/13                                 :   DATE
 UWI.     N/A                                      :   UNIQUE WELL IDENTIFIER
~PARAMETER INFORMATION
#MNEMO.UNIT         VALUE                 DESCRIPTION OF MNEMONIC
#------------------------------------------------------------------------------
~OTHER INFORMATION SECTION
#------------------------------------------------------------------------------
~CURVE INFORMATION
#MNEMO.UNIT         API CODE              CURVE DESCRIPTION
#------------------------------------------------------------------------------
 DEPTH.M                                 :   0     Depth
 NGAM.API                                :   1     Natural Gamma
 COND.uScm                               :   2     Fluid Conductivity
 TEMP.DegC                               :   3     Fluid Temperature
#------------------------------------------------------------------------------
~A  DEPTH          NGAM          COND          TEMP
# ...
    92.21          5.39        380.46          8.73
    92.22          5.30        380.94          8.73
    92.23          3.89        380.46          8.73
    92.24          3.45        380.46          8.74
    92.25          3.89        380.46          8.74
    92.26          3.36        380.94          8.74
    92.27          3.36        380.62          8.74
    92.28          3.89        380.46          8.74
    92.29          4.33        380.94          8.74
    92.30          3.80        380.46          8.74
    92.31          3.36        380.46          8.74
    92.32          3.89        380.94          8.74
    92.33          3.89        380.46          8.75
    92.34          4.33        380.62          8.74
    92.35          3.36        380.94          8.74
    92.36          3.36        381.10          8.74
    92.37          3.80        380.62          8.74
    92.38          3.71        380.46          8.73
    92.39          3.27        380.94          8.73
    92.40          3.27        380.62          8.73
    92.41          3.80        380.62          8.73
    92.42          3.36        380.94          8.73
    92.43          4.33        380.46          8.73
    92.44          4.77        380.62          8.73
    92.45          5.30        380.94          8.73
    92.46          5.30        380.46          8.73
    92.47          5.30        380.78          8.72
    92.48          5.30        380.94          8.73
    92.49          4.77        380.94          8.73
    92.50          5.75        380.46          8.73
    92.51          5.30        380.78          8.74
    92.52          5.30        380.94          8.74
    92.53          5.83        380.46          8.74
    92.54          6.36        380.94          8.74
    92.55          5.92        380.78          8.74
    92.56          6.45        380.46          8.74
    92.57          6.89        380.94          8.74
    92.58          6.81        380.46          8.74
    92.59          7.25        380.46          8.74
    92.60          6.28        380.94          8.74
    92.61          6.28        380.94          8.74
    92.62          5.66        380.46          8.73
    92.63          5.22        380.46          8.73
    92.64          5.75        380.94          8.73
    92.65          6.19        380.46          8.73
    92.66          6.63        380.94          8.73
    92.67          6.19        380.94          8.73
    92.68          6.63        380.46          8.73
    92.69          7.07        380.46          8.73
    92.70          7.51        380.78          8.73
    92.71          6.54        380.46          8.73
    92.72          6.54        380.46          8.73
    92.73          6.01        380.94          8.73
    92.74          5.57        380.78          8.73
    92.75          6.19        380.78          8.73
    92.76          5.75        380.94          8.73
    92.77          5.75        380.46          8.72
    92.78          5.30        380.30          8.72
    92.79          5.39        380.78          8.72
    92.80          6.36        380.94          8.72
    92.81          5.83        380.46          8.73
    92.82          6.45        380.78          8.73
    92.83          6.45        380.78          8.73
    92.84          5.92        380.46          8.73
    92.85          6.01        380.94          8.73
    92.86          5.57        380.46          8.73
    92.87          5.04        380.78          8.74
    92.88          5.57        380.94          8.74
    92.89          5.57        380.94          8.74
    92.90          5.57        380.46          8.74
    92.91          6.54        380.46          8.74
    92.92          6.45        380.94          8.74
    92.93          6.45        380.46          8.73
    92.94          6.89        380.94          8.73
    92.95          7.34        380.94          8.73
    92.96          6.81        380.46          8.73
    92.97          6.89        380.46          8.73
    92.98          7.87        380.46          8.73
    92.99          6.81        380.46          8.74
    93.00          7.42        380.46          8.74
    93.01          8.40        380.94          8.74
    93.02          7.87        380.94          8.74
    93.03          7.87        380.46          8.74
    93.04          7.42        380.94          8.74
    93.05          8.84        380.46          8.74
    93.06          8.84        380.30          8.74
    93.07         10.25        380.46          8.74
    93.08          9.81        380.94          8.74
    93.09          9.28        380.46          8.74
    93.10          9.28        380.46          8.74
    93.11          9.37        380.94          8.74
    93.12          8.93        380.46          8.74
    93.13          8.93        380.78          8.74
    93.14          8.31        380.94          8.74
    93.15          7.34        380.46          8.74
    93.16          7.78        380.46          8.74
    93.17          6.72        380.62          8.74
    93.18          6.72        380.94          8.75
    93.19          7.78        380.46          8.75
    93.20          8.22        380.62          8.74
    93.21          8.22        380.94          8.74
    93.22          6.81        380.46          8.74
    93.23          6.81        380.62          8.74
    93.24          5.39        380.62          8.74
    93.25          4.86        380.62          8.74
    93.26          4.42        380.62          8.74
    93.27          4.42        380.62          8.74
    93.28          5.30        380.62          8.74
    93.29          6.28        380.62          8.74
    93.30          7.34        380.62          8.74
    93.31          7.34        380.94          8.74
    93.32          8.31        380.62          8.74
    93.33          7.87        380.62          8.74
    93.34          7.87        380.46          8.74
    93.35          7.34        380.14          8.75
    93.36          6.28        380.46          8.75
    93.37          6.89        380.46          8.74
    93.38          7.34        380.94          8.74
    93.39          6.81        380.94          8.74
    93.40          6.81        380.46          8.74
    93.41          7.87        380.94          8.74
    93.42          7.87        380.46          8.74
    93.43          7.87        380.46          8.74
    93.44          7.87        380.46          8.74
    93.45          7.42        380.94          8.73
    93.46          6.89        380.94          8.73
    93.47          6.81        380.46          8.73
    93.48          6.89        380.94          8.73
    93.49          7.34        380.46          8.73
    93.50          8.31        380.46          8.73
    93.51          8.84        380.46          8.73
    93.52          8.40        380.46          8.74
    93.53          9.81        380.46          8.74
    93.54          9.19        380.46          8.73
    93.55          9.28        380.94          8.73
    93.56         10.25        380.46          8.73
    93.57         10.25        380.46          8.73
    93.58          9.19        380.94          8.73
    93.59          9.19        380.46          8.73
    93.60          9.19        380.62          8.74
    93.61         10.61        380.46          8.74
    93.62          9.63        380.94          8.74
    93.63          9.19        380.46          8.74
    93.64          8.22        380.94          8.74
    93.65          8.13        380.94          8.74
    93.66          6.72        380.46          8.74
    93.67          6.72        380.46          8.74
    93.68          7.25        380.46          8.74
    93.69          8.22        380.46          8.74
    93.70          8.22        380.46          8.74
    93.71          8.31        380.78          8.74
    93.72          7.78        380.94          8.74
    93.73          7.25        380.46          8.74
    93.74          7.69        380.46          8.74
