#Written by Robertson Geologging WinLogger V1.5/410
~VERSION INFORMATION
#------------------------------------------------------------------------------
 VERS. 2.0 : CWLS LOG ASCII STANDARD - VERSION 2.0
 WRAP. NO  : ONE LINE PER DEPTH STEP
~WELL INFORMATION
#MNEM.UNIT         DATA                                DESCRIPTION OF MNEMONIC
#------------------------------------------------------------------------------
 STRT.M          0.0000                            :   START DEPTH
 STOP.M        347.5900                            :   STOP DEPTH
 STEP.M          0.0100                            :   STEP VALUE
 NULL.        -999.2500                            :   NULL VALUE
 COMP.    GEUSd.                                   :   COMPANY NAME
 WELL.    59.459                                   :   WELL NAME
 FLD.     Jylland                                  :   FIELD NAME
 LOC.     N/A                                      :   LOCATION
 PROV.    N/A                                      :   PROVINCE
 SRVC.    N/A                                      :   SERVICE COMPANY NAME
 DATE.    26 May 14                                :   DATE
 UWI.     N/A                                      :   UNIQUE WELL IDENTIFIER
~PARAMETER INFORMATION
#MNEMO.UNIT         VALUE                 DESCRIPTION OF MNEMONIC
#------------------------------------------------------------------------------
~OTHER INFORMATION SECTION
#------------------------------------------------------------------------------
~CURVE INFORMATION
#MNEMO.UNIT         API CODE              CURVE DESCRIPTION
#------------------------------------------------------------------------------
 DEPTH.M                                 :   0     Depth
 TEMP.DegC                               :   1     Fluid Temperature
 COND.uScm                               :   2     Fluid Conductivity
 NGAM.API                                :   3     Natural Gamma
#------------------------------------------------------------------------------
~A  DEPTH          TEMP          COND          NGAM
# ...
     1.54        -83.23       3573.60         72.13
     1.55          8.93       3665.43         73.63
     1.56         11.18       3757.26         74.07
     1.57         12.86       3849.09         74.60
     1.58         13.98       3940.91         74.51
     1.59         14.55       4032.74         73.98
     1.60         14.55       4032.74         72.57
     1.61         14.55         10.86         74.78
     1.62         14.55         10.86         78.14
     1.63         14.55         10.86         79.02
     1.64         14.55         10.86         78.49
     1.65         14.55         10.86         81.50
     1.66         14.54         10.86         82.29
     1.67         14.54         10.86         81.05
     1.68         14.54         10.86         77.78
     1.69         14.55         10.86         78.84
     1.70         14.55         10.86         77.34
     1.71         14.55         10.86         77.69
     1.72         14.55         10.86         74.69
     1.73         14.55         10.86         73.63
     1.74         14.55         10.86         72.04
     1.75         14.55         10.86         71.07
     1.76         14.55         10.86         73.19
     1.77         14.55         10.86         75.13
     1.78         14.55         10.86         71.15
     1.79         14.55         10.86         67.80
     1.80         14.55         10.86         65.85
     1.81         14.55         10.86         62.40
     1.82         14.56         10.86         58.60
     1.83         14.56         10.86         57.63
     1.84         14.56         10.86         56.48
     1.85         14.56         10.86         57.54
     1.86         14.56         10.86         57.54
     1.87         14.56         10.86         57.37
     1.88         14.56         10.86         58.96
     1.89         14.57         10.86         60.90
     1.90         14.57         10.86         60.46
     1.91         14.57         10.86         63.46
     1.92         14.57         10.86         66.47
     1.93         14.57         10.86         62.40
     1.94         14.57         10.86         61.43
     1.95         14.56         10.86         63.46
     1.96         14.56         10.86         61.52
     1.97         14.56         10.86         59.31
     1.98         14.56         10.86         64.26
     1.99         14.56         10.86         63.82
     2.00         14.56         10.86         60.90
     2.01         14.55         10.86         63.11
     2.02         14.55         10.86         63.73
     2.03         14.55         10.86         62.31
     2.04         14.55         10.86         62.05
     2.05         14.56         10.86         59.57
     2.06         14.56         10.86         60.11
     2.07         14.56         10.86         60.72
     2.08         14.56         10.86         57.72
     2.09         14.56         10.86         54.71
     2.10         14.56         10.86         54.71
     2.11         14.56         10.86         52.77
     2.12         14.56         10.86         50.74
     2.13         14.56         10.86         49.41
     2.14         14.56         10.86         52.06
     2.15         14.56         10.86         50.56
     2.16         14.56         10.86         49.06
     2.17         14.56         10.86         53.92
     2.18         14.56         10.86         50.56
     2.19         14.56         10.86         48.26
     2.20         14.56         10.86         45.79
     2.21         14.56         10.86         48.26
     2.22         14.56         10.86         48.26
     2.23         14.57         10.86         48.26
     2.24         14.57         10.86         48.17
     2.25         14.57         10.86         47.02
     2.26         14.58         10.86         46.05
     2.27         14.58         10.86         48.00
     2.28         14.58         10.86         48.00
     2.29         14.58         10.86         47.02
     2.30         14.58         10.86         46.85
     2.31         14.59         10.86         43.93
     2.32         14.59         10.86         41.01
     2.33         14.59         10.86         41.01
     2.34         14.60         10.86         35.71
     2.35         14.59         10.86         34.12
     2.36         14.59         10.86         36.51
     2.37         14.59         10.86         36.95
     2.38         14.59         10.86         36.42
     2.39         14.58         10.86         35.62
     2.40         14.58         10.86         33.94
     2.41         14.57         10.86         31.11
     2.42         14.57         10.86         31.29
     2.43         14.56         10.86         32.26
     2.44         14.56         10.86         30.32
     2.45         14.56         10.86         32.26
     2.46         14.56         10.86         31.82
     2.47         14.56         10.86         31.47
     2.48         14.56         10.86         30.94
     2.49         14.56         10.86         29.96
     2.50         14.56         10.86         31.47
     2.51         14.56         10.86         32.00
     2.52         14.57         10.86         33.76
     2.53         14.57         10.86         34.83
     2.54         14.58         10.86         33.85
     2.55         14.58         10.86         31.91
     2.56         14.59         10.86         31.73
     2.57         14.59         10.86         31.47
     2.58         14.59         10.86         30.85
     2.59         14.58         10.86         28.99
     2.60         14.58         10.86         28.99
     2.61         14.58         10.86         29.35
     2.62         14.58         10.86         28.02
     2.63         14.58         10.86         28.82
     2.64         14.58         10.86         29.17
     2.65         14.57         10.86         29.70
     2.66         14.57         10.86         29.70
     2.67         14.57         10.86         27.75
     2.68         14.56         10.86         27.14
     2.69         14.56         10.86         30.23
     2.70         14.57         10.86         28.73
     2.71         14.57         10.86         27.75
     2.72         14.57         10.86         28.73
     2.73         14.57         10.86         28.37
     2.74         14.56         10.86         28.82
     2.75         14.56         10.86         29.35
     2.76         14.57         10.86         30.76
     2.77         14.57         10.86         34.74
     2.78         14.57         10.86         34.91
     2.79         14.57         10.86         35.27
     2.80         14.57         10.86         36.42
     2.81         14.57         10.86         37.39
     2.82         14.57         10.86         35.97
     2.83         14.57         10.86         36.95
     2.84         14.57         10.86         36.95
     2.85         14.57         10.86         37.48
     2.86         14.57         10.86         34.56
     2.87         14.57         10.86         35.53
     2.88         14.57         10.86         36.06
     2.89         14.56         10.86         35.53
     2.90         14.56         10.86         37.39
     2.91         14.56         10.86         37.92
     2.92         14.56         10.86         38.01
     2.93         14.56         10.86         38.45
     2.94         14.55         10.86         35.00
     2.95         14.55         10.86         34.47
     2.96         14.56         10.86         33.50
     2.97         14.55         10.86         32.00
     2.98         14.55         10.86         30.58
     2.99         14.55         10.86         31.02
     3.00         14.55         10.86         31.29
     3.01         14.55         10.86         32.26
     3.02         14.56         10.86         33.68
     3.03         14.56         10.86         32.70
     3.04         14.56         10.86         31.20
     3.05         14.56         10.86         31.64
     3.06         14.56         10.86         31.47
     3.07         14.56         10.86         30.94
