#Written by Robertson Geologging WinLogger V1.5/410
~VERSION INFORMATION
#------------------------------------------------------------------------------
 VERS. 2.0 : CWLS LOG ASCII STANDARD - VERSION 2.0
 WRAP. NO  : ONE LINE PER DEPTH STEP
~WELL INFORMATION
#MNEM.UNIT         DATA                                DESCRIPTION OF MNEMONIC
#------------------------------------------------------------------------------
 STRT.M          0.0000                            :   START DEPTH
 STOP.M        347.5900                            :   STOP DEPTH
 STEP.M          0.0100                            :   STEP VALUE
 NULL.        -999.2500                            :   NULL VALUE
 COMP.    GEUSd.                                   :   COMPANY NAME
 WELL.    59.459                                   :   WELL NAME
 FLD.     Jylland                                  :   FIELD NAME
 LOC.     N/A                                      :   LOCATION
 PROV.    N/A                                      :   PROVINCE
 SRVC.    N/A                                      :   SERVICE COMPANY NAME
 DATE.    26 May 14                                :   DATE
 UWI.     N/A                                      :   UNIQUE WELL IDENTIFIER
~PARAMETER INFORMATION
#MNEMO.UNIT         VALUE                 DESCRIPTION OF MNEMONIC
#------------------------------------------------------------------------------
~OTHER INFORMATION SECTION
#------------------------------------------------------------------------------
~CURVE INFORMATION
#MNEMO.UNIT         API CODE              CURVE DESCRIPTION
#------------------------------------------------------------------------------
 DEPTH.M                                 :   0     Depth
 TEMP.DegC                               :   1     Fluid Temperature
 COND.uScm                               :   2     Fluid Conductivity
 NGAM.API                                :   3     Natural Gamma
#------------------------------------------------------------------------------
~A  DEPTH          TEMP          COND          NGAM
# ...
   277.20         12.18      35815.47          8.49
   277.21         12.18      35816.44          8.04
   277.22         12.19      35816.44          8.49
   277.23         12.19      35816.44          7.16
   277.24         12.19      35816.93          7.16
   277.25         12.19      35817.41          7.16
   277.26         12.19      35817.99          7.16
   277.27         12.19      35818.48          7.16
   277.28         12.19      35818.38          7.16
   277.29         12.19      35819.35          7.25
   277.30         12.19      35820.80          8.13
   277.31         12.19      35821.29          7.69
   277.32         12.19      35822.26          7.69
   277.33         12.19      35822.74          8.13
   277.34         12.19      35823.23          6.81
   277.35         12.19      35823.71          5.83
   277.36         12.19      35823.71          5.83
   277.37         12.19      35823.71          5.83
   277.38         12.19      35823.71          5.83
   277.39         12.19      35824.78          4.95
   277.40         12.19      35824.78          5.39
   277.41         12.19      35824.78          5.83
   277.42         12.19      35824.78          6.28
   277.43         12.19      35825.26          5.83
   277.44         12.19      35825.75          4.95
   277.45         12.19      35826.23          4.51
   277.46         12.19      35826.23          4.42
   277.47         12.20      35826.71          4.42
   277.48         12.20      35827.20          4.42
   277.49         12.20      35827.20          4.86
   277.50         12.20      35827.68          5.83
   277.51         12.20      35828.17          6.28
   277.52         12.20      35828.65          6.72
   277.53         12.20      35829.14          7.16
   277.54         12.20      35829.62          8.13
   277.55         12.20      35830.11          8.57
   277.56         12.20      35830.59          9.46
   277.57         12.20      35831.08          9.02
   277.58         12.20      35832.05          8.57
   277.59         12.20      35833.11          7.69
   277.60         12.20      35834.08          8.13
   277.61         12.20      35834.86          8.57
   277.62         12.19      35835.44          9.02
   277.63         12.19      35835.92          8.13
   277.64         12.20      35836.89          8.13
   277.65         12.20      35836.89          9.02
   277.66         12.20      35837.38          9.46
   277.67         12.20      35838.54          8.49
   277.68         12.20      35839.99          8.04
   277.69         12.20      35840.96          7.60
   277.70         12.20      35841.83          7.60
   277.71         12.20      35842.32          6.63
   277.72         12.20      35843.00          6.19
   277.73         12.20      35843.87          5.30
   277.74         12.20      35843.97          5.30
   277.75         12.20      35844.45          6.19
   277.76         12.20      35844.94          6.63
   277.77         12.20      35845.42          6.19
   277.78         12.20      35845.71          7.07
   277.79         12.20      35845.23          7.07
   277.80         12.20      35845.42          7.07
   277.81         12.20      35844.94          6.19
   277.82         12.20      35845.42          5.75
   277.83         12.20      35844.94          5.83
   277.84         12.20      35844.65          5.39
   277.85         12.20      35845.52          5.39
   277.86         12.20      35845.52          6.28
   277.87         12.20      35846.00          5.83
   277.88         12.20      35846.00          6.28
   277.89         12.20      35846.20          6.28
   277.90         12.20      35846.68          6.72
   277.91         12.20      35846.49          7.16
   277.92         12.20      35846.97          7.60
   277.93         12.20      35847.46          7.16
   277.94         12.20      35847.94          8.04
   277.95         12.20      35848.72          8.04
   277.96         12.20      35849.69          7.60
   277.97         12.20      35850.17          7.60
   277.98         12.20      35850.65          8.49
   277.99         12.20      35851.14          8.04
   278.00         12.20      35851.43          7.51
   278.01         12.20      35851.62          7.51
   278.02         12.20      35852.11          7.96
   278.03         12.20      35853.08          7.96
   278.04         12.20      35853.56          8.93
   278.05         12.20      35854.05          9.37
   278.06         12.20      35854.53          9.37
   278.07         12.20      35854.34          9.90
   278.08         12.20      35854.34          9.90
   278.09         12.20      35854.82          9.02
   278.10         12.20      35854.82          9.46
   278.11         12.20      35855.79          9.55
   278.12         12.20      35856.57          9.10
   278.13         12.20      35857.34          9.99
   278.14         12.19      35857.83         11.31
   278.15         12.19      35858.31         10.43
   278.16         12.19      35859.77         10.43
   278.17         12.19      35860.25          9.99
   278.18         12.20      35860.93         10.43
   278.19         12.20      35861.70         10.43
   278.20         12.20      35862.67          9.55
   278.21         12.20      35863.64          9.02
   278.22         12.20      35864.13          8.13
   278.23         12.20      35865.10          8.13
   278.24         12.20      35865.78          7.16
   278.25         12.21      35866.75          7.16
   278.26         12.21      35867.71          6.72
   278.27         12.21      35868.20          6.72
   278.28         12.21      35868.20          6.19
   278.29         12.21      35869.65          6.63
   278.30         12.21      35870.82          5.75
   278.31         12.21      35871.30          4.42
   278.32         12.21      35872.27          5.30
   278.33         12.21      35872.76          5.30
   278.34         12.21      35873.73          6.19
   278.35         12.21      35874.21          5.75
   278.36         12.21      35874.21          5.75
   278.37         12.21      35874.21          6.19
   278.38         12.21      35874.21          6.19
   278.39         12.21      35875.66          6.63
   278.40         12.21      35875.18          6.63
   278.41         12.21      35875.66          7.51
   278.42         12.21      35876.15          7.51
   278.43         12.21      35876.63          7.96
   278.44         12.21      35877.12          8.40
   278.45         12.20      35877.12          8.40
   278.46         12.20      35877.12          7.51
   278.47         12.20      35878.18          9.28
   278.48         12.20      35878.67          9.72
   278.49         12.20      35879.64          9.28
   278.50         12.20      35880.12          9.72
   278.51         12.20      35881.19          9.28
   278.52         12.20      35881.67         10.61
   278.53         12.20      35882.64         10.61
   278.54         12.20      35883.61         10.16
   278.55         12.21      35884.19         10.61
   278.56         12.21      35885.16         10.61
   278.57         12.21      35886.62         11.05
   278.58         12.21      35887.49         10.61
   278.59         12.21      35888.94         10.16
   278.60         12.21      35889.91         10.70
   278.61         12.21      35891.08         10.70
   278.62         12.20      35891.95         12.02
   278.63         12.20      35892.92         11.58
   278.64         12.20      35892.92         10.25
   278.65         12.20      35893.40         10.25
   278.66         12.20      35894.76         10.70
   278.67         12.20      35895.25         11.58
   278.68         12.21      35895.73         11.14
   278.69         12.21      35895.73         10.25
   278.70         12.21      35895.73          9.37
   278.71         12.21      35895.73          9.81
   278.72         12.21      35895.54          9.81
   278.73         12.22      35895.05          9.81
