#Written by Robertson Geologging WinLogger V1.5/410
~VERSION INFORMATION
#------------------------------------------------------------------------------
 VERS. 2.0 : CWLS LOG ASCII STANDARD - VERSION 2.0
 WRAP. NO  : ONE LINE PER DEPTH STEP
~WELL INFORMATION
#MNEM.UNIT         DATA                                DESCRIPTION OF MNEMONIC
#------------------------------------------------------------------------------
 STRT.M         -0.1900                            :   START DEPTH
 STOP.M        347.0100                            :   STOP DEPTH
 STEP.M          0.0100                            :   STEP VALUE
 NULL.        -999.2500                            :   NULL VALUE
 COMP.    geus                                     :   COMPANY NAME
 WELL.    dalbyover 1                              :   WELL NAME
 FLD.     bornholm                                 :   FIELD NAME
 LOC.     N/A                                      :   LOCATION
 PROV.    DK                                       :   PROVINCE
 SRVC.    N/A                                      :   SERVICE COMPANY NAME
 DATE.    16/12/13                                 :   DATE
 UWI.     N/A                                      :   UNIQUE WELL IDENTIFIER
~PARAMETER INFORMATION
#MNEMO.UNIT         VALUE                 DESCRIPTION OF MNEMONIC
#------------------------------------------------------------------------------
~OTHER INFORMATION SECTION
#------------------------------------------------------------------------------
~CURVE INFORMATION
#MNEMO.UNIT         API CODE              CURVE DESCRIPTION
#------------------------------------------------------------------------------
 DEPTH.M                                 :   0     Depth
 NGAM.API                                :   1     Natural Gamma
 COND.uScm                               :   2     Fluid Conductivity
 TEMP.DegC                               :   3     Fluid Temperature
#------------------------------------------------------------------------------
~A  DEPTH          NGAM          COND          TEMP
# ...
   344.77          9.46        437.75         13.32
   344.78          8.57        437.75         13.32
   344.79          8.57        437.75         13.32
   344.80          7.69        437.75         13.32
   344.81          7.25        437.75         13.32
   344.82          7.25        437.58         13.32
   344.83          7.25        437.99         13.32
   344.84          8.13        438.15         13.32
   344.85          7.16        437.99         13.32
   344.86          7.16        437.75         13.32
   344.87          6.28        437.58         13.32
   344.88          6.28        437.99         13.33
   344.89          6.28        437.99         13.33
   344.90          5.83        437.99         13.33
   344.91          5.39        437.99         13.33
   344.92          4.42        437.99         13.33
   344.93          5.39        437.99         13.33
   344.94          6.28        437.99         13.34
   344.95          5.83        437.83         13.34
   344.96          5.83        437.99         13.34
   344.97          5.83        438.23         13.34
   344.98          5.83        438.39         13.33
   344.99          6.28        438.23         13.33
   345.00          5.83        437.99         13.33
   345.01          5.39        437.83         13.33
   345.02          6.81        437.99         13.33
   345.03          6.36        438.23         13.33
   345.04          5.92        438.23         13.33
   345.05          5.92        438.23         13.32
   345.06          5.92        438.23         13.32
   345.07          6.36        438.23         13.32
   345.08          6.81        438.23         13.32
   345.09          6.81        437.83         13.33
   345.10          6.28        437.83         13.33
   345.11          5.39        438.23         13.33
   345.12          5.92        438.23         13.33
   345.13          5.48        438.23         13.33
   345.14          5.92        438.23         13.33
   345.15          5.92        438.39         13.33
   345.16          5.48        438.23         13.33
   345.17          6.36        437.99         13.33
   345.18          5.92        437.83         13.33
   345.19          4.95        437.99         13.32
   345.20          4.95        438.23         13.32
   345.21          4.95        438.23         13.32
   345.22          5.48        438.23         13.32
   345.23          5.92        438.23         13.32
   345.24          5.92        438.23         13.32
   345.25          5.92        438.23         13.33
   345.26          5.92        438.07         13.33
   345.27          6.36        438.23         13.33
   345.28          6.89        438.47         13.33
   345.29          6.36        438.23         13.33
   345.30          6.36        438.23         13.33
   345.31          6.89        438.23         13.34
   345.32          8.66        438.39         13.34
   345.33          9.10        438.23         13.34
   345.34          8.66        438.39         13.34
   345.35          9.63        438.23         13.34
   345.36         10.52        438.39         13.34
   345.37         10.52        438.39         13.34
   345.38         10.96        437.99         13.34
   345.39         10.43        437.99         13.34
   345.40          9.99        438.39         13.34
   345.41         10.87        438.39         13.34
   345.42         10.43        438.39         13.34
   345.43         11.31        437.99         13.34
   345.44         10.87        437.99         13.33
   345.45          9.90        437.99         13.34
   345.46          9.46        437.99         13.34
   345.47          9.46        437.83         13.34
   345.48          8.93        437.99         13.34
   345.49          7.16        438.23         13.34
   345.50          6.72        438.39         13.34
   345.51          8.49        438.23         13.34
   345.52          7.51        437.83         13.34
   345.53          6.19        437.83         13.35
   345.54          7.07        438.23         13.35
   345.55          6.63        438.23         13.35
   345.56          6.19        438.23         13.35
   345.57          6.19        438.23         13.35
   345.58          5.30        437.99         13.36
   345.59          5.75        437.83         13.36
   345.60          4.86        437.99         13.36
   345.61          4.42        437.83         13.36
   345.62          5.39        437.99         13.36
   345.63          5.39        438.23         13.36
   345.64          5.39        438.39         13.36
   345.65          4.95        438.23         13.36
   345.66          5.39        438.23         13.36
   345.67          5.39        437.83         13.36
   345.68          3.18        437.83         13.36
   345.69          4.07        438.23         13.35
   345.70          4.07        438.23         13.35
   345.71          3.18        438.23         13.35
   345.72          3.62        438.23         13.34
   345.73          3.62        438.23         13.34
   345.74          3.62        438.23         13.34
   345.75          4.51        438.23         13.34
   345.76          4.51        438.39         13.34
   345.77          4.51        438.39         13.34
   345.78          4.51        438.79         13.34
   345.79          3.54        438.79         13.34
   345.80          3.54        438.79         13.34
   345.81          4.86        438.79         13.34
   345.82          5.30        438.63         13.34
   345.83          5.30        438.79         13.34
   345.84          6.28        438.39         13.34
   345.85          6.28        438.79         13.34
   345.86          7.16        438.39         13.34
   345.87          7.60        438.63         13.34
   345.88          7.60        438.39         13.34
   345.89          7.60        438.39         13.34
   345.90          8.04        438.55         13.34
   345.91          8.49        438.39         13.34
   345.92          7.16        438.55         13.34
   345.93          6.72        438.55         13.34
   345.94          6.72        438.55         13.34
   345.95          7.16        438.79         13.35
   345.96          7.60        438.55         13.35
   345.97          7.60        438.79         13.35
   345.98          6.28        438.55         13.36
   345.99          5.83        438.79         13.36
   346.00          6.28        438.79         13.36
   346.01          5.75        438.63         13.36
   346.02          5.75        438.79         13.36
   346.03          4.42        438.63         13.36
   346.04          3.98        438.79         13.37
   346.05          4.86        438.63         13.36
   346.06          5.83        438.79         13.36
   346.07          5.83        438.63         13.36
   346.08          5.39        438.79         13.35
   346.09          5.83        438.63         13.35
   346.10          6.72        438.79         13.35
   346.11          6.72        438.63         13.34
   346.12          6.72        438.79         13.34
   346.13          6.72        439.03         13.34
   346.14          7.16        438.79         13.34
   346.15          7.16        439.03         13.34
   346.16          7.16        439.19         13.33
   346.17          6.28        439.03         13.34
   346.18          5.83        439.19         13.34
   346.19          6.28        439.03         13.34
   346.20          6.28        439.03         13.34
   346.21          6.28        439.03         13.35
   346.22          5.39        439.03         13.35
   346.23          3.98        439.03         13.35
   346.24          3.54        438.63         13.36
   346.25          3.54        439.03         13.36
   346.26          3.09        438.63         13.36
   346.27          3.09        438.47         13.36
   346.28          4.07        438.63         13.37
   346.29          4.60        438.47         13.37
   346.30          4.60        438.63         13.37
