#Written by Robertson Geologging WinLogger V1.5/410
~VERSION INFORMATION
#------------------------------------------------------------------------------
 VERS. 2.0 : CWLS LOG ASCII STANDARD - VERSION 2.0
 WRAP. NO  : ONE LINE PER DEPTH STEP
~WELL INFORMATION
#MNEM.UNIT         DATA                                DESCRIPTION OF MNEMONIC
#------------------------------------------------------------------------------
 STRT.M          0.0000                            :   START DEPTH
 STOP.M        347.5900                            :   STOP DEPTH
 STEP.M          0.0100                            :   STEP VALUE
 NULL.        -999.2500                            :   NULL VALUE
 COMP.    GEUSd.                                   :   COMPANY NAME
 WELL.    59.459                                   :   WELL NAME
 FLD.     Jylland                                  :   FIELD NAME
 LOC.     N/A                                      :   LOCATION
 PROV.    N/A                                      :   PROVINCE
 SRVC.    N/A                                      :   SERVICE COMPANY NAME
 DATE.    26 May 14                                :   DATE
 UWI.     N/A                                      :   UNIQUE WELL IDENTIFIER
~PARAMETER INFORMATION
#MNEMO.UNIT         VALUE                 DESCRIPTION OF MNEMONIC
#------------------------------------------------------------------------------
~OTHER INFORMATION SECTION
#------------------------------------------------------------------------------
~CURVE INFORMATION
#MNEMO.UNIT         API CODE              CURVE DESCRIPTION
#------------------------------------------------------------------------------
 DEPTH.M                                 :   0     Depth
 TEMP.DegC                               :   1     Fluid Temperature
 COND.uScm                               :   2     Fluid Conductivity
 NGAM.API                                :   3     Natural Gamma
#------------------------------------------------------------------------------
~A  DEPTH          TEMP          COND          NGAM
# ...
   184.80         10.48      17387.70          5.48
   184.81         10.48      17390.98          5.48
   184.82         10.48      17393.02          5.92
   184.83         10.48      17395.86          5.48
   184.84         10.48      17398.70          5.04
   184.85         10.48      17401.98          5.48
   184.86         10.48      17404.20          5.48
   184.87         10.48      17407.13          6.36
   184.88         10.48      17410.68          6.81
   184.89         10.48      17413.61          8.13
   184.90         10.48      17416.71          7.69
   184.91         10.48      17419.73          9.02
   184.92         10.48      17421.95          9.46
   184.93         10.48      17425.41          8.49
   184.94         10.48      17428.25          8.49
   184.95         10.47      17431.36          8.93
   184.96         10.47      17434.29          8.49
   184.97         10.47      17437.84          8.04
   184.98         10.47      17441.30          8.49
   184.99         10.47      17444.40          8.04
   185.00         10.47      17447.87          8.04
   185.01         10.47      17451.42          7.60
   185.02         10.46      17454.34          7.16
   185.03         10.46      17457.45          7.60
   185.04         10.46      17459.85          6.72
   185.05         10.46      17462.16          6.72
   185.06         10.46      17465.09          5.83
   185.07         10.46      17468.19          6.28
   185.08         10.47      17470.77          5.39
   185.09         10.47      17473.25          4.95
   185.10         10.47      17475.91          5.39
   185.11         10.47      17478.93          5.83
   185.12         10.47      17481.60          5.39
   185.13         10.47      17484.53          5.39
   185.14         10.47      17488.08          4.86
   185.15         10.47      17492.52          4.42
   185.16         10.47      17497.22          4.86
   185.17         10.47      17501.39          5.30
   185.18         10.47      17505.74          5.75
   185.19         10.47      17510.72          6.19
   185.20         10.48      17515.60          5.30
   185.21         10.48      17520.48          5.30
   185.22         10.48      17524.39          4.86
   185.23         10.48      17529.27          4.86
   185.24         10.48      17534.25          4.42
   185.25         10.48      17538.86          5.92
   185.26         10.47      17544.01          6.81
   185.27         10.47      17548.90          6.36
   185.28         10.47      17553.78          6.36
   185.29         10.47      17557.69          6.81
   185.30         10.47      17561.69          7.25
   185.31         10.47      17565.68          7.78
   185.32         10.47      17569.68          7.78
   185.33         10.47      17574.12          7.78
   185.34         10.47      17578.21          9.72
   185.35         10.47      17582.03          9.28
   185.36         10.48      17585.93          8.84
   185.37         10.48      17589.22          8.84
   185.38         10.48      17592.51          9.72
   185.39         10.48      17595.35          9.72
   185.40         10.48      17599.35          9.72
   185.41         10.48      17602.46         10.61
   185.42         10.48      17604.85          8.66
   185.43         10.48      17607.96          8.22
   185.44         10.48      17610.89          8.22
   185.45         10.48      17613.83          7.78
   185.46         10.48      17616.93          7.34
   185.47         10.48      17619.96          6.89
   185.48         10.49      17622.89          5.92
   185.49         10.49      17626.00          6.36
   185.50         10.50      17629.91          6.36
   185.51         10.50      17633.37          4.42
   185.52         10.50      17637.37          5.39
   185.53         10.50      17641.81          5.39
   185.54         10.50      17645.36          6.28
   185.55         10.51      17649.81          6.81
   185.56         10.51      17653.89          8.13
   185.57         10.51      17657.80          8.13
   185.58         10.51      17662.25          7.69
   185.59         10.51      17666.69          8.66
   185.60         10.51      17670.69          8.22
   185.61         10.51      17674.69          9.10
   185.62         10.51      17678.60          9.10
   185.63         10.51      17682.60         10.08
   185.64         10.51      17686.06          9.99
   185.65         10.51      17689.62         11.40
   185.66         10.51      17693.08         10.96
   185.67         10.51      17696.37         11.49
   185.68         10.50      17699.57         11.93
   185.69         10.50      17702.50         11.40
   185.70         10.50      17705.44         11.40
   185.71         10.50      17708.55         11.84
   185.72         10.50      17711.48         10.43
   185.73         10.50      17714.50          9.55
   185.74         10.50      17717.17          9.55
   185.75         10.49      17720.63          9.99
   185.76         10.49      17723.75          9.02
   185.77         10.49      17726.77          9.02
   185.78         10.50      17729.26          8.57
   185.79         10.50      17732.99          9.02
   185.80         10.50      17735.92          8.93
   185.81         10.50      17738.77          8.57
   185.82         10.50      17742.59          7.60
   185.83         10.50      17746.06          8.04
   185.84         10.50      17749.17          7.51
   185.85         10.50      17752.10          7.07
   185.86         10.50      17755.21          6.63
   185.87         10.50      17758.68          7.51
   185.88         10.50      17761.70          6.19
   185.89         10.50      17765.70          6.63
   185.90         10.50      17768.19          6.19
   185.91         10.50      17771.66          6.19
   185.92         10.50      17774.77          5.30
   185.93         10.51      17777.26          5.75
   185.94         10.51      17780.37          6.63
   185.95         10.50      17783.13          7.16
   185.96         10.51      17786.42          7.16
   185.97         10.51      17789.27          6.72
   185.98         10.51      17792.47          6.72
   185.99         10.51      17795.85          6.72
   186.00         10.50      17799.22          6.72
   186.01         10.50      17803.23          6.72
   186.02         10.50      17806.69          6.28
   186.03         10.51      17811.14          6.28
   186.04         10.51      17815.05          6.36
   186.05         10.51      17818.79          6.36
   186.06         10.50      17822.79          7.25
   186.07         10.50      17826.88          7.25
   186.08         10.50      17831.15          7.78
   186.09         10.50      17835.33          8.66
   186.10         10.50      17839.07          9.19
   186.11         10.50      17843.07          8.31
   186.12         10.50      17847.07          7.78
   186.13         10.50      17851.52          7.34
   186.14         10.50      17854.99          7.34
   186.15         10.50      17858.99          8.31
   186.16         10.50      17862.99          8.84
   186.17         10.50      17866.91          9.28
   186.18         10.50      17870.91          9.81
   186.19         10.50      17874.91         10.25
   186.20         10.50      17877.94         10.70
   186.21         10.50      17881.49         10.70
   186.22         10.50      17884.79         11.14
   186.23         10.50      17887.10         10.25
   186.24         10.50      17889.86         11.23
   186.25         10.50      17893.77         11.14
   186.26         10.50      17896.88         10.25
   186.27         10.50      17899.82          9.72
   186.28         10.50      17904.27         10.16
   186.29         10.50      17908.18         10.16
   186.30         10.51      17912.63         10.61
   186.31         10.51      17917.08         10.61
   186.32         10.51      17921.62         10.61
   186.33         10.51      17926.07         10.61
