#Written by Robertson Geologging WinLogger V1.5/410
~VERSION INFORMATION
#------------------------------------------------------------------------------
 VERS. 2.0 : CWLS LOG ASCII STANDARD - VERSION 2.0
 WRAP. NO  : ONE LINE PER DEPTH STEP
~WELL INFORMATION
#MNEM.UNIT         DATA                                DESCRIPTION OF MNEMONIC
#------------------------------------------------------------------------------
 STRT.M         -0.1900                            :   START DEPTH
 STOP.M        347.0100                            :   STOP DEPTH
 STEP.M          0.0100                            :   STEP VALUE
 NULL.        -999.2500                            :   NULL VALUE
 COMP.    geus                                     :   COMPANY NAME
 WELL.    dalbyover 1                              :   WELL NAME
 FLD.     bornholm                                 :   FIELD NAME
 LOC.     N/A                                      :   LOCATION
 PROV.    DK                                       :   PROVINCE
 SRVC.    N/A                                      :   SERVICE COMPANY NAME
 DATE.    16/12/13                                 :   DATE
 UWI.     N/A                                      :   UNIQUE WELL IDENTIFIER
~PARAMETER INFORMATION
#MNEMO.UNIT         VALUE                 DESCRIPTION OF MNEMONIC
#------------------------------------------------------------------------------
~OTHER INFORMATION SECTION
#------------------------------------------------------------------------------
~CURVE INFORMATION
#MNEMO.UNIT         API CODE              CURVE DESCRIPTION
#------------------------------------------------------------------------------
 DEPTH.M                                 :   0     Depth
 NGAM.API                                :   1     Natural Gamma
 COND.uScm                               :   2     Fluid Conductivity
 TEMP.DegC                               :   3     Fluid Temperature
#------------------------------------------------------------------------------
~A  DEPTH          NGAM          COND          TEMP
# ...
   161.51          8.31        397.43         10.12
   161.52          7.87        397.43         10.12
   161.53          7.87        397.68         10.12
   161.54          7.87        397.68         10.12
   161.55          7.42        397.68         10.12
   161.56          7.42        397.68         10.12
   161.57          6.01        397.68         10.11
   161.58          5.48        397.27         10.11
   161.59          5.48        397.27         10.12
   161.60          5.48        397.27         10.12
   161.61          5.48        397.35         10.12
   161.62          5.92        397.60         10.12
   161.63          6.36        397.60         10.12
   161.64          6.36        397.60         10.12
   161.65          6.36        397.60         10.12
   161.66          6.36        397.19         10.12
   161.67          5.92        397.35         10.12
   161.68          4.95        397.35         10.13
   161.69          5.39        397.76         10.12
   161.70          4.95        397.76         10.13
   161.71          4.51        397.76         10.13
   161.72          4.51        397.35         10.12
   161.73          4.51        397.35         10.13
   161.74          4.51        397.35         10.13
   161.75          4.07        397.35         10.13
   161.76          3.62        397.35         10.13
   161.77          3.62        397.76         10.13
   161.78          4.07        397.60         10.13
   161.79          4.07        397.60         10.13
   161.80          5.57        397.60         10.13
   161.81          5.57        397.19         10.13
   161.82          5.57        397.19         10.13
   161.83          5.57        397.60         10.13
   161.84          5.57        397.60         10.12
   161.85          5.57        397.60         10.13
   161.86          5.57        397.60         10.13
   161.87          6.54        397.60         10.13
   161.88          6.98        397.60         10.13
   161.89          7.96        397.60         10.13
   161.90          6.98        397.19         10.13
   161.91          7.42        397.19         10.13
   161.92          7.42        397.60         10.13
   161.93          7.87        397.60         10.13
   161.94          7.42        397.60         10.13
   161.95          7.42        397.60         10.13
   161.96          6.98        397.60         10.13
   161.97          5.04        397.60         10.13
   161.98          5.57        397.60         10.12
   161.99          6.54        397.60         10.12
   162.00          7.51        397.19         10.12
   162.01          7.96        397.60         10.13
   162.02          8.49        397.51         10.13
   162.03          8.04        397.51         10.13
   162.04          7.07        397.51         10.13
   162.05          7.07        397.51         10.13
   162.06          7.07        397.51         10.14
   162.07          7.07        397.51         10.14
   162.08          6.63        397.51         10.14
   162.09          7.07        397.51         10.15
   162.10          6.63        397.51         10.15
   162.11          7.07        397.51         10.15
   162.12          7.07        397.51         10.14
   162.13          7.07        397.60         10.14
   162.14          7.51        397.60         10.14
   162.15          6.98        397.60         10.14
   162.16          6.54        397.60         10.14
   162.17          5.57        397.60         10.13
   162.18          6.10        397.60         10.13
   162.19          5.13        397.60         10.13
   162.20          5.13        397.60         10.13
   162.21          5.13        397.19         10.13
   162.22          4.68        397.60         10.13
   162.23          4.15        397.60         10.13
   162.24          4.15        397.60         10.13
   162.25          4.15        397.60         10.13
   162.26          3.71        397.60         10.13
   162.27          3.71        397.60         10.13
   162.28          3.71        397.60         10.12
   162.29          4.24        397.60         10.12
   162.30          4.68        397.60         10.12
   162.31          4.68        397.19         10.13
   162.32          6.10        397.60         10.13
   162.33          5.13        397.51         10.13
   162.34          6.10        397.51         10.12
   162.35          5.57        397.51         10.12
   162.36          5.57        397.51         10.12
   162.37          6.54        397.51         10.12
   162.38          6.54        397.51         10.13
   162.39          6.54        397.51         10.13
   162.40          6.10        397.51         10.13
   162.41          7.69        397.51         10.13
   162.42          8.13        397.92         10.13
   162.43          8.13        397.51         10.13
   162.44          8.57        397.60         10.13
   162.45          8.57        397.60         10.13
   162.46          8.66        397.60         10.13
   162.47          8.66        397.60         10.14
   162.48          9.19        397.60         10.14
   162.49          7.78        397.60         10.14
   162.50          8.22        397.60         10.14
   162.51          7.25        397.60         10.14
   162.52          7.78        397.60         10.14
   162.53          8.75        397.60         10.14
   162.54          8.22        397.60         10.14
   162.55          8.66        397.60         10.14
   162.56          8.66        397.60         10.14
   162.57          8.66        397.60         10.14
   162.58          8.04        397.60         10.14
   162.59          7.60        397.60         10.14
   162.60          7.60        397.60         10.14
   162.61          7.16        397.60         10.14
   162.62          7.16        397.60         10.14
   162.63          6.54        397.60         10.14
   162.64          6.10        397.60         10.14
   162.65          6.10        397.60         10.14
   162.66          6.54        397.60         10.14
   162.67          6.54        397.60         10.14
   162.68          7.07        397.60         10.14
   162.69          6.10        397.60         10.14
   162.70          5.13        397.60         10.13
   162.71          5.13        397.60         10.13
   162.72          4.68        397.60         10.13
   162.73          5.13        397.60         10.13
   162.74          5.13        397.60         10.14
   162.75          4.15        397.60         10.14
   162.76          4.15        397.92         10.14
   162.77          4.60        397.92         10.14
   162.78          4.60        397.68         10.15
   162.79          5.13        397.68         10.15
   162.80          4.68        397.68         10.15
   162.81          4.68        397.60         10.16
   162.82          3.71        397.76         10.16
   162.83          4.68        397.76         10.16
   162.84          4.24        397.76         10.16
   162.85          3.71        397.76         10.16
   162.86          4.68        397.76         10.16
   162.87          4.68        397.84         10.16
   162.88          4.68        397.43         10.15
   162.89          4.68        397.68         10.15
   162.90          4.24        397.68         10.15
   162.91          4.77        397.68         10.14
   162.92          5.22        397.76         10.14
   162.93          5.22        397.60         10.14
   162.94          6.19        397.60         10.14
   162.95          6.19        397.60         10.14
   162.96          5.66        397.60         10.14
   162.97          5.66        397.60         10.14
   162.98          6.10        397.60         10.14
   162.99          6.54        397.60         10.14
   163.00          5.13        397.60         10.14
   163.01          5.57        397.60         10.14
   163.02          5.57        397.60         10.14
   163.03          4.60        397.51         10.14
   163.04          5.04        397.51         10.15
