#Written by Robertson Geologging WinLogger V1.5/410
~VERSION INFORMATION
#------------------------------------------------------------------------------
 VERS. 2.0 : CWLS LOG ASCII STANDARD - VERSION 2.0
 WRAP. NO  : ONE LINE PER DEPTH STEP
~WELL INFORMATION
#MNEM.UNIT         DATA                                DESCRIPTION OF MNEMONIC
#------------------------------------------------------------------------------
 STRT.M          0.0000                            :   START DEPTH
 STOP.M        347.5900                            :   STOP DEPTH
 STEP.M          0.0100                            :   STEP VALUE
 NULL.        -999.2500                            :   NULL VALUE
 COMP.    GEUSd.                                   :   COMPANY NAME
 WELL.    59.459                                   :   WELL NAME
 FLD.     Jylland                                  :   FIELD NAME
 LOC.     N/A                                      :   LOCATION
 PROV.    N/A                                      :   PROVINCE
 SRVC.    N/A                                      :   SERVICE COMPANY NAME
 DATE.    26 May 14                                :   DATE
 UWI.     N/A                                      :   UNIQUE WELL IDENTIFIER
~PARAMETER INFORMATION
#MNEMO.UNIT         VALUE                 DESCRIPTION OF MNEMONIC
#------------------------------------------------------------------------------
~OTHER INFORMATION SECTION
#------------------------------------------------------------------------------
~CURVE INFORMATION
#MNEMO.UNIT         API CODE              CURVE DESCRIPTION
#------------------------------------------------------------------------------
 DEPTH.M                                 :   0     Depth
 TEMP.DegC                               :   1     Fluid Temperature
 COND.uScm                               :   2     Fluid Conductivity
 NGAM.API                                :   3     Natural Gamma
#------------------------------------------------------------------------------
~A  DEPTH          TEMP          COND          NGAM
# ...
   254.10         11.82      34645.07          9.90
   254.11         11.82      34645.65         10.34
   254.12         11.81      34646.13          9.46
   254.13         11.81      34646.61          9.90
   254.14         11.81      34646.61          9.90
   254.15         11.82      34647.19          8.57
   254.16         11.82      34647.67          8.13
   254.17         11.81      34647.67          8.13
   254.18         11.81      34648.63          7.69
   254.19         11.81      34649.12          7.25
   254.20         11.81      34650.08          6.72
   254.21         11.81      34651.72          6.72
   254.22         11.81      34652.20          6.28
   254.23         11.81      34653.65          6.28
   254.24         11.81      34654.13          4.95
   254.25         11.81      34655.58          4.95
   254.26         11.81      34656.06          3.98
   254.27         11.82      34657.12          3.98
   254.28         11.82      34658.08          4.42
   254.29         11.83      34658.08          5.30
   254.30         11.83      34658.57          5.30
   254.31         11.83      34659.05          5.30
   254.32         11.83      34659.53          4.42
   254.33         11.83      34659.53          4.86
   254.34         11.83      34659.53          5.30
   254.35         11.83      34660.01          6.28
   254.36         11.83      34659.53          7.16
   254.37         11.83      34660.01          6.72
   254.38         11.83      34659.43          6.72
   254.39         11.82      34658.95          6.72
   254.40         11.82      34659.92          6.72
   254.41         11.82      34660.40          7.16
   254.42         11.83      34660.88          7.60
   254.43         11.83      34660.88          8.49
   254.44         11.83      34661.94          8.49
   254.45         11.83      34661.94          8.57
   254.46         11.83      34662.52          8.57
   254.47         11.83      34662.52          8.13
   254.48         11.83      34663.00          9.46
   254.49         11.83      34663.97          9.90
   254.50         11.83      34665.03          9.46
   254.51         11.83      34665.03          9.02
   254.52         11.83      34665.51          8.49
   254.53         11.83      34665.99          7.60
   254.54         11.83      34666.57          7.60
   254.55         11.83      34666.95          7.16
   254.56         11.83      34667.92          7.16
   254.57         11.83      34667.82          8.49
   254.58         11.83      34669.27          8.04
   254.59         11.83      34669.75          8.04
   254.60         11.84      34670.23          7.16
   254.61         11.84      34670.81          7.16
   254.62         11.83      34671.78          6.19
   254.63         11.83      34672.26          6.19
   254.64         11.83      34672.74          6.19
   254.65         11.83      34673.80          5.75
   254.66         11.83      34673.80          5.30
   254.67         11.84      34674.28          5.30
   254.68         11.84      34675.73          5.30
   254.69         11.84      34675.92          5.30
   254.70         11.84      34676.40          5.30
   254.71         11.84      34676.89          5.75
   254.72         11.84      34677.18          5.75
   254.73         11.84      34677.66          5.30
   254.74         11.84      34678.14          4.42
   254.75         11.84      34677.85          4.86
   254.76         11.84      34677.18          4.42
   254.77         11.84      34678.14          4.42
   254.78         11.84      34679.59          4.42
   254.79         11.84      34680.55          4.42
   254.80         11.84      34682.29          3.54
   254.81         11.83      34683.25          3.54
   254.82         11.83      34684.50          3.09
   254.83         11.83      34684.99          3.09
   254.84         11.83      34684.99          3.54
   254.85         11.83      34685.47          3.98
   254.86         11.83      34686.72          3.98
   254.87         11.83      34687.69          4.42
   254.88         11.84      34688.17          4.42
   254.89         11.84      34687.20          3.98
   254.90         11.84      34686.53          4.42
   254.91         11.84      34685.56          5.39
   254.92         11.84      34685.56          4.95
   254.93         11.85      34685.28          4.95
   254.94         11.85      34685.37          5.39
   254.95         11.85      34685.85          5.39
   254.96         11.85      34686.34          5.83
   254.97         11.85      34686.63          6.72
   254.98         11.85      34687.11          6.72
   254.99         11.85      34687.11          6.72
   255.00         11.85      34687.59          6.72
   255.01         11.85      34687.78          6.72
   255.02         11.85      34688.26          7.16
   255.03         11.85      34688.26          6.72
   255.04         11.85      34688.07          6.72
   255.05         11.85      34688.94          6.28
   255.06         11.85      34688.94          6.72
   255.07         11.85      34689.42          6.28
   255.08         11.85      34689.62          5.30
   255.09         11.84      34689.90          6.19
   255.10         11.84      34690.87          8.84
   255.11         11.84      34691.35          9.28
   255.12         11.84      34692.32          9.72
   255.13         11.84      34693.28         10.25
   255.14         11.83      34694.15          9.37
   255.15         11.83      34695.79          9.81
   255.16         11.83      34696.27          9.37
   255.17         11.83      34697.72          9.37
   255.18         11.83      34698.68          8.93
   255.19         11.83      34699.64          8.04
   255.20         11.83      34700.80          8.93
   255.21         11.83      34701.77          8.93
   255.22         11.84      34702.25          8.93
   255.23         11.84      34702.73          8.49
   255.24         11.84      34703.69          9.37
   255.25         11.84      34704.76          8.93
   255.26         11.85      34705.24          8.04
   255.27         11.85      34706.20          5.39
   255.28         11.85      34706.68          5.39
   255.29         11.85      34707.17          5.39
   255.30         11.85      34707.65          4.86
   255.31         11.84      34708.61          5.75
   255.32         11.84      34708.13          6.28
   255.33         11.84      34709.10          7.16
   255.34         11.84      34709.58          7.60
   255.35         11.84      34709.58          8.04
   255.36         11.84      34709.58          8.04
   255.37         11.84      34710.06          8.49
   255.38         11.84      34710.06          8.93
   255.39         11.84      34710.06          8.93
   255.40         11.85      34710.06          8.93
   255.41         11.85      34710.06          8.49
   255.42         11.85      34709.58          8.49
   255.43         11.85      34710.64          9.37
   255.44         11.85      34711.12         10.25
   255.45         11.85      34711.60          9.37
   255.46         11.85      34712.09          8.93
   255.47         11.85      34712.66          8.93
   255.48         11.85      34712.66          8.93
   255.49         11.85      34713.63          8.40
   255.50         11.85      34713.63          7.96
   255.51         11.85      34714.69          7.51
   255.52         11.85      34715.17          7.07
   255.53         11.85      34716.14          7.51
   255.54         11.85      34716.52          8.40
   255.55         11.85      34717.00          8.49
   255.56         11.85      34717.97          8.93
   255.57         11.86      34718.55          8.93
   255.58         11.86      34718.93          9.81
   255.59         11.85      34719.90         11.58
   255.60         11.86      34719.90         12.11
   255.61         11.86      34721.34         11.67
   255.62         11.86      34721.34         12.99
   255.63         11.86      34722.79         12.99
