#Written by Robertson Geologging WinLogger V1.5/410
~VERSION INFORMATION
#------------------------------------------------------------------------------
 VERS. 2.0 : CWLS LOG ASCII STANDARD - VERSION 2.0
 WRAP. NO  : ONE LINE PER DEPTH STEP
~WELL INFORMATION
#MNEM.UNIT         DATA                                DESCRIPTION OF MNEMONIC
#------------------------------------------------------------------------------
 STRT.M          0.0000                            :   START DEPTH
 STOP.M        347.5900                            :   STOP DEPTH
 STEP.M          0.0100                            :   STEP VALUE
 NULL.        -999.2500                            :   NULL VALUE
 COMP.    GEUSd.                                   :   COMPANY NAME
 WELL.    59.459                                   :   WELL NAME
 FLD.     Jylland                                  :   FIELD NAME
 LOC.     N/A                                      :   LOCATION
 PROV.    N/A                                      :   PROVINCE
 SRVC.    N/A                                      :   SERVICE COMPANY NAME
 DATE.    26 May 14                                :   DATE
 UWI.     N/A                                      :   UNIQUE WELL IDENTIFIER
~PARAMETER INFORMATION
#MNEMO.UNIT         VALUE                 DESCRIPTION OF MNEMONIC
#------------------------------------------------------------------------------
~OTHER INFORMATION SECTION
#------------------------------------------------------------------------------
~CURVE INFORMATION
#MNEMO.UNIT         API CODE              CURVE DESCRIPTION
#------------------------------------------------------------------------------
 DEPTH.M                                 :   0     Depth
 TEMP.DegC                               :   1     Fluid Temperature
 COND.uScm                               :   2     Fluid Conductivity
 NGAM.API                                :   3     Natural Gamma
#------------------------------------------------------------------------------
~A  DEPTH          TEMP          COND          NGAM
# ...
   300.30         12.55      37089.06         19.80
   300.31         12.56      37089.26         20.24
   300.32         12.56      37089.74         19.71
   300.33         12.56      37090.04         17.50
   300.34         12.56      37090.04         17.94
   300.35         12.56      37090.52         17.50
   300.36         12.55      37091.01         17.50
   300.37         12.55      37092.18         16.97
   300.38         12.55      37091.99         17.41
   300.39         12.55      37091.99         17.85
   300.40         12.55      37092.96         17.85
   300.41         12.55      37093.15         18.30
   300.42         12.55      37092.96         17.32
   300.43         12.55      37093.45         16.88
   300.44         12.55      37094.13         16.44
   300.45         12.55      37094.42         16.44
   300.46         12.56      37094.91         14.23
   300.47         12.56      37095.88         13.35
   300.48         12.56      37095.88         12.46
   300.49         12.56      37096.57         14.23
   300.50         12.56      37097.54         14.67
   300.51         12.56      37097.05         13.70
   300.52         12.56      37098.03         12.82
   300.53         12.56      37098.71         12.82
   300.54         12.56      37099.20         12.82
   300.55         12.56      37099.68         14.14
   300.56         12.56      37100.85         14.14
   300.57         12.56      37101.34         13.26
   300.58         12.56      37101.83         12.37
   300.59         12.55      37102.32         12.82
   300.60         12.55      37102.32         14.14
   300.61         12.55      37102.80         14.58
   300.62         12.54      37103.78         14.85
   300.63         12.54      37104.27         15.29
   300.64         12.54      37105.24         15.73
   300.65         12.54      37105.73         15.29
   300.66         12.53      37106.70         13.08
   300.67         12.53      37107.19         13.44
   300.68         12.54      37107.68         13.44
   300.69         12.54      37107.19         13.44
   300.70         12.54      37107.68         12.55
   300.71         12.55      37108.65         11.67
   300.72         12.55      37108.65          9.37
   300.73         12.56      37109.14          8.93
   300.74         12.56      37109.14          8.49
   300.75         12.56      37109.63          8.04
   300.76         12.57      37109.63          8.49
   300.77         12.57      37108.65          8.04
   300.78         12.57      37108.65          8.40
   300.79         12.58      37108.65          7.25
   300.80         12.58      37109.63          7.25
   300.81         12.58      37109.63          6.81
   300.82         12.58      37110.11          6.81
   300.83         12.58      37110.11          6.81
   300.84         12.58      37110.60          6.89
   300.85         12.58      37111.09          7.60
   300.86         12.58      37110.60          7.60
   300.87         12.58      37111.09          8.49
   300.88         12.58      37112.06          9.81
   300.89         12.58      37112.55         11.05
   300.90         12.58      37113.04         11.49
   300.91         12.58      37113.52         11.93
   300.92         12.58      37113.91         11.84
   300.93         12.58      37114.40         12.29
   300.94         12.58      37115.38         11.40
   300.95         12.58      37115.28         10.61
   300.96         12.58      37115.77         11.05
   300.97         12.58      37117.03         12.82
   300.98         12.57      37117.52         13.97
   300.99         12.57      37118.49         15.29
   301.00         12.57      37119.47         16.62
   301.01         12.56      37119.96         16.62
   301.02         12.56      37120.64         17.24
   301.03         12.56      37121.22         18.56
   301.04         12.56      37121.71         19.00
   301.05         12.56      37122.20         18.83
   301.06         12.56      37123.76         18.12
   301.07         12.56      37124.25         17.68
   301.08         12.56      37124.64         18.12
   301.09         12.56      37125.12         18.21
   301.10         12.56      37125.61         17.77
   301.11         12.56      37125.61         18.21
   301.12         12.56      37126.10         18.21
   301.13         12.56      37126.39         17.32
   301.14         12.56      37127.36         17.77
   301.15         12.56      37128.05         16.18
   301.16         12.56      37128.53         15.82
   301.17         12.57      37128.53         14.94
   301.18         12.57      37129.51         15.38
   301.19         12.57      37129.51         13.61
   301.20         12.57      37129.51         12.73
   301.21         12.57      37130.00         12.73
   301.22         12.57      37130.68         12.02
   301.23         12.58      37131.17         11.49
   301.24         12.58      37131.65         11.93
   301.25         12.58      37131.65         11.93
   301.26         12.58      37131.95         11.93
   301.27         12.57      37132.43         11.93
   301.28         12.57      37132.14         12.37
   301.29         12.57      37132.14         12.82
   301.30         12.57      37132.92         13.70
   301.31         12.57      37133.41         11.93
   301.32         12.57      37133.41         13.26
   301.33         12.57      37133.70         14.05
   301.34         12.57      37133.70         14.05
   301.35         12.57      37133.80         13.08
   301.36         12.57      37133.80         13.97
   301.37         12.57      37133.31         13.52
   301.38         12.57      37133.31         13.97
   301.39         12.57      37134.09         14.41
   301.40         12.57      37134.58         14.05
   301.41         12.57      37134.58         13.17
   301.42         12.58      37135.55         13.88
   301.43         12.58      37135.55         14.32
   301.44         12.57      37136.04         13.44
   301.45         12.58      37136.53         13.88
   301.46         12.58      37136.14         14.32
   301.47         12.58      37137.11         14.23
   301.48         12.58      37138.09         14.23
   301.49         12.58      37138.57         12.90
   301.50         12.58      37139.06         12.02
   301.51         12.59      37139.06         12.46
   301.52         12.59      37140.04         14.32
   301.53         12.59      37140.13         14.32
   301.54         12.59      37140.13         13.88
   301.55         12.59      37140.62         12.46
   301.56         12.58      37141.11         12.46
   301.57         12.58      37141.89         12.46
   301.58         12.58      37142.38         13.35
   301.59         12.58      37142.38         13.52
   301.60         12.58      37142.86         13.44
   301.61         12.58      37142.86         13.44
   301.62         12.58      37143.35         12.11
   301.63         12.58      37142.38         12.82
   301.64         12.58      37142.76         12.37
   301.65         12.58      37143.74         11.49
   301.66         12.58      37143.74         12.37
   301.67         12.59      37144.71         12.29
   301.68         12.59      37145.20         11.84
   301.69         12.59      37145.69         10.08
   301.70         12.59      37146.66          9.19
   301.71         12.59      37146.66          9.63
   301.72         12.59      37147.15          9.28
   301.73         12.59      37147.64         10.16
   301.74         12.59      37149.10         11.76
   301.75         12.59      37149.59         12.20
   301.76         12.59      37150.08         11.31
   301.77         12.59      37150.56         10.52
   301.78         12.58      37150.56         10.96
   301.79         12.58      37151.05         11.40
   301.80         12.58      37150.08         10.96
   301.81         12.58      37150.08         11.05
   301.82         12.58      37151.05         11.49
   301.83         12.58      37151.54         11.05
