#Written by Robertson Geologging WinLogger V1.5/410
~VERSION INFORMATION
#------------------------------------------------------------------------------
 VERS. 2.0 : CWLS LOG ASCII STANDARD - VERSION 2.0
 WRAP. NO  : ONE LINE PER DEPTH STEP
~WELL INFORMATION
#MNEM.UNIT         DATA                                DESCRIPTION OF MNEMONIC
#------------------------------------------------------------------------------
 STRT.M          0.0000                            :   START DEPTH
 STOP.M        347.5900                            :   STOP DEPTH
 STEP.M          0.0100                            :   STEP VALUE
 NULL.        -999.2500                            :   NULL VALUE
 COMP.    GEUSd.                                   :   COMPANY NAME
 WELL.    59.459                                   :   WELL NAME
 FLD.     Jylland                                  :   FIELD NAME
 LOC.     N/A                                      :   LOCATION
 PROV.    N/A                                      :   PROVINCE
 SRVC.    N/A                                      :   SERVICE COMPANY NAME
 DATE.    26 May 14                                :   DATE
 UWI.     N/A                                      :   UNIQUE WELL IDENTIFIER
~PARAMETER INFORMATION
#MNEMO.UNIT         VALUE                 DESCRIPTION OF MNEMONIC
#------------------------------------------------------------------------------
~OTHER INFORMATION SECTION
#------------------------------------------------------------------------------
~CURVE INFORMATION
#MNEMO.UNIT         API CODE              CURVE DESCRIPTION
#------------------------------------------------------------------------------
 DEPTH.M                                 :   0     Depth
 TEMP.DegC                               :   1     Fluid Temperature
 COND.uScm                               :   2     Fluid Conductivity
 NGAM.API                                :   3     Natural Gamma
#------------------------------------------------------------------------------
~A  DEPTH          TEMP          COND          NGAM
# ...
   346.50         13.36      38748.88         10.08
   346.51         13.36      38749.37          9.99
   346.52         13.35      38749.37          9.99
   346.53         13.35      38750.85         11.76
   346.54         13.35      38751.34         11.76
   346.55         13.34      38751.83         12.20
   346.56         13.34      38752.32         12.20
   346.57         13.34      38752.81         11.76
   346.58         13.33      38753.30         12.20
   346.59         13.33      38753.30         13.97
   346.60         13.33      38753.79         13.97
   346.61         13.33      38754.28         11.76
   346.62         13.33      38755.26         12.20
   346.63         13.34      38756.24         11.93
   346.64         13.34      38756.54         11.49
   346.65         13.35      38757.03         11.40
   346.66         13.35      38757.52         11.40
   346.67         13.36      38757.03         10.96
   346.68         13.36      38757.52         10.96
   346.69         13.36      38758.01         10.96
   346.70         13.37      38758.50          9.63
   346.71         13.37      38759.48          9.19
   346.72         13.37      38760.46          8.75
   346.73         13.37      38761.45          9.19
   346.74         13.37      38762.92          9.63
   346.75         13.36      38766.06         10.70
   346.76         13.36      38765.67          9.37
   346.77         13.36      38603.35         10.25
   346.78         13.36      38181.63         10.25
   346.79         13.35      37635.23         10.70
   346.80         13.35      36911.33          9.81
   346.81         13.35      36050.97         10.25
   346.82         13.35      35106.09         10.78
   346.83         13.35      34128.42          9.90
   346.84         13.35      33132.98         10.78
   346.85         13.34      32122.11         10.34
   346.86         13.34      31104.17          9.90
   346.87         13.34      30095.18         11.23
   346.88         13.34      29255.57         12.11
   346.89         13.34      28681.48         12.99
   346.90         13.34      28236.23         13.88
   346.91         13.34      27975.50         13.44
   346.92         13.34      27859.16         13.70
   346.93         13.34      27831.54         15.47
   346.94         13.34      27838.56         15.47
   346.95         13.34      27863.90         15.91
   346.96         13.34      27905.97         15.91
   346.97         13.35      27952.70         16.79
   346.98         13.35      27996.17         17.24
   346.99         13.36      28034.51         16.79
   347.00         13.36      28069.11         18.12
   347.01         13.36      28099.51         19.89
   347.02         13.36      28122.71         20.33
   347.03         13.36      28136.75         21.21
   347.04         13.36      28145.17         20.77
   347.05         13.35      28151.25         19.89
   347.06         13.35      28160.52         20.33
   347.07         13.35      28173.16         19.45
   347.08         13.35      28190.01         20.33
   347.09         13.35      28208.74         19.00
   347.10         13.35      28230.28         19.00
   347.11         13.35      28258.38         18.12
   347.12         13.35      28291.64         18.56
   347.13         13.35      28329.78         17.68
   347.14         13.35      28376.64         16.79
   347.15         13.36      28429.59         16.35
   347.16         13.36      28491.00         15.47
   347.17         13.36      28558.05         15.03
   347.18         13.36      28628.88         13.70
   347.19         13.36      28706.31         14.14
   347.20         13.36      28786.10         13.70
   347.21         13.36      28864.50         12.82
   347.22         13.37      28938.70         14.58
   347.23         13.37      29009.63         13.70
   347.24         13.37      29076.34         13.70
   347.25         13.37      29134.79         14.14
   347.26         13.37      29186.95         13.26
   347.27         13.38      29229.72         11.49
   347.28         13.38      29263.57         11.05
   347.29         13.38      29287.55         11.93
   347.30         13.38      29302.60         13.08
   347.31         13.38      29309.66         13.52
   347.32         13.37      29310.13         14.41
   347.33         13.37      29305.42         14.85
   347.34         13.37      29296.01         14.41
   347.35         13.37      29284.25         13.08
   347.36         13.36      29272.30         12.64
   347.37         13.36      29261.95         13.08
   347.38         13.36      29253.02         13.97
   347.39         13.35      29244.08         12.20
   347.40         13.35      29236.08         12.20
   347.41         13.35      29229.03         13.08
   347.42         13.36      29223.85         13.08
   347.43         13.36      29219.15         13.97
   347.44         13.36      29213.31         15.11
   347.45         13.36      29209.08         16.00
   347.46         13.36      29207.20         14.23
   347.47         13.36      29207.20         13.08
   347.48         13.36      29209.55         12.64
   347.49         13.37      29213.79         11.31
   347.50         13.37      29219.90         11.76
   347.51         13.37      29226.96         12.20
   347.52         13.37      29234.48         12.20
   347.53         13.37      29242.01         12.20
   347.54         13.37      29251.42         11.76
   347.55         13.37      29263.84         11.76
   347.56         13.37      29276.54         11.76
   347.57         13.37      29290.18         11.76
   347.58         13.37      29304.77         10.87
   347.59         13.37      29319.35          9.55
