#Written by Robertson Geologging WinLogger V1.5/410
~VERSION INFORMATION
#------------------------------------------------------------------------------
 VERS. 2.0 : CWLS LOG ASCII STANDARD - VERSION 2.0
 WRAP. NO  : ONE LINE PER DEPTH STEP
~WELL INFORMATION
#MNEM.UNIT         DATA                                DESCRIPTION OF MNEMONIC
#------------------------------------------------------------------------------
 STRT.M         -0.1900                            :   START DEPTH
 STOP.M        347.0100                            :   STOP DEPTH
 STEP.M          0.0100                            :   STEP VALUE
 NULL.        -999.2500                            :   NULL VALUE
 COMP.    geus                                     :   COMPANY NAME
 WELL.    dalbyover 1                              :   WELL NAME
 FLD.     bornholm                                 :   FIELD NAME
 LOC.     N/A                                      :   LOCATION
 PROV.    DK                                       :   PROVINCE
 SRVC.    N/A                                      :   SERVICE COMPANY NAME
 DATE.    16/12/13                                 :   DATE
 UWI.     N/A                                      :   UNIQUE WELL IDENTIFIER
~PARAMETER INFORMATION
#MNEMO.UNIT         VALUE                 DESCRIPTION OF MNEMONIC
#------------------------------------------------------------------------------
~OTHER INFORMATION SECTION
#------------------------------------------------------------------------------
~CURVE INFORMATION
#MNEMO.UNIT         API CODE              CURVE DESCRIPTION
#------------------------------------------------------------------------------
 DEPTH.M                                 :   0     Depth
 NGAM.API                                :   1     Natural Gamma
 COND.uScm                               :   2     Fluid Conductivity
 TEMP.DegC                               :   3     Fluid Temperature
#------------------------------------------------------------------------------
~A  DEPTH          NGAM          COND          TEMP
# ...
   115.31          7.34        382.63          9.04
   115.32          6.36        382.47          9.04
   115.33          7.96        382.71          9.04
   115.34          6.36        382.71          9.04
   115.35          7.34        382.55          9.04
   115.36          6.89        382.79          9.04
   115.37          7.34        382.79          9.04
   115.38          7.87        382.63          9.04
   115.39          8.31        382.87          9.04
   115.40          8.84        382.87          9.04
   115.41          9.28        382.63          9.04
   115.42          9.28        382.87          9.04
   115.43         10.52        382.87          9.04
   115.44         12.90        382.63          9.04
   115.45         12.90        382.63          9.04
   115.46         13.44        382.79          9.04
   115.47         13.88        382.55          9.04
   115.48         13.88        382.55          9.04
   115.49         14.41        382.71          9.04
   115.50         13.35        382.47          9.04
   115.51         13.35        382.95          9.04
   115.52         12.90        382.63          9.04
   115.53         13.97        382.39          9.04
   115.54         13.97        382.87          9.04
   115.55         13.44        382.55          9.04
   115.56         12.99        382.55          9.04
   115.57         13.44        382.87          9.04
   115.58         12.90        382.87          9.04
   115.59         13.97        382.55          9.03
   115.60         12.20        382.87          9.04
   115.61         10.78        382.87          9.04
   115.62         10.78        382.87          9.04
   115.63         10.16        383.20          9.04
   115.64          9.72        382.87          9.04
   115.65         12.02        382.87          9.04
   115.66         11.49        383.20          9.04
   115.67         11.40        382.71          9.04
   115.68         11.40        382.95          9.05
   115.69         11.84        382.95          9.05
   115.70         11.31        382.79          9.05
   115.71         11.31        383.03          9.05
   115.72         10.87        383.03          9.05
   115.73         10.87        382.55          9.05
   115.74         10.34        382.07          9.05
   115.75         10.43        382.63          9.05
   115.76         10.78        382.63          9.05
   115.77         10.78        382.15          9.05
   115.78         10.34        382.87          9.05
   115.79         10.78        382.63          9.05
   115.80         10.34        382.63          9.05
   115.81         10.87        382.79          9.05
   115.82          9.55        382.55          9.04
   115.83         10.08        382.55          9.04
   115.84         10.08        382.55          9.04
   115.85         10.61        383.28          9.04
   115.86         10.61        383.03          9.05
   115.87         11.05        383.03          9.05
   115.88         11.67        383.20          9.05
   115.89         12.11        382.95          9.05
   115.90         12.55        382.95          9.05
   115.91         12.55        382.63          9.05
   115.92         12.02        382.95          9.05
   115.93         11.05        382.95          9.05
   115.94         11.67        382.63          9.05
   115.95         11.58        383.11          9.05
   115.96         11.14        382.87          9.05
   115.97         11.14        383.11          9.06
   115.98         11.67        382.63          9.06
   115.99         10.70        382.95          9.06
   116.00          9.72        383.20          9.06
   116.01         10.34        383.20          9.06
   116.02         10.25        383.03          9.06
   116.03          9.28        383.28          9.06
   116.04          9.37        383.28          9.06
   116.05          9.19        383.28          9.06
   116.06          9.19        383.28          9.06
   116.07          9.19        382.95          9.06
   116.08          9.81        382.71          9.06
   116.09         10.25        383.20          9.06
   116.10          9.81        383.44          9.06
   116.11          9.81        383.20          9.06
   116.12          9.81        382.71          9.06
   116.13         10.78        383.44          9.06
   116.14         11.23        383.20          9.06
   116.15         10.16        383.20          9.06
   116.16         11.14        383.20          9.06
   116.17         11.58        383.20          9.05
   116.18         10.52        383.52          9.05
   116.19         10.08        383.52          9.05
   116.20          9.63        383.20          9.05
   116.21          9.10        382.95          9.05
   116.22          8.13        382.95          9.05
   116.23         10.08        383.11          9.05
   116.24         10.08        382.87          9.05
   116.25         10.08        382.87          9.05
   116.26          9.63        382.87          9.05
   116.27         10.08        382.87          9.05
   116.28          9.02        382.87          9.05
   116.29          9.55        383.11          9.06
   116.30          9.02        383.11          9.06
   116.31          9.10        383.44          9.06
   116.32          9.10        382.95          9.06
   116.33          8.66        383.20          9.06
   116.34          8.22        383.52          9.06
   116.35          8.22        383.52          9.06
   116.36          8.66        383.20          9.06
   116.37          8.66        383.20          9.06
   116.38          8.66        383.52          9.06
   116.39          8.66        383.20          9.05
   116.40          6.28        382.95          9.05
   116.41          7.42        382.95          9.05
   116.42          6.36        382.95          9.05
   116.43          6.81        383.68          9.05
   116.44          6.89        382.95          9.06
   116.45          7.34        382.95          9.06
   116.46          6.36        383.20          9.06
   116.47          7.34        383.52          9.06
   116.48          7.87        383.52          9.07
   116.49          9.28        383.52          9.07
   116.50          9.28        383.52          9.07
   116.51          9.72        383.52          9.07
   116.52         10.78        383.52          9.07
   116.53         11.31        383.20          9.07
   116.54         11.76        382.95          9.07
   116.55         11.23        383.44          9.07
   116.56         11.84        383.68          9.07
   116.57         12.29        383.44          9.07
   116.58         11.67        382.95          9.07
   116.59         11.67        382.95          9.07
   116.60         11.23        383.20          9.07
   116.61         11.67        383.52          9.07
   116.62         11.23        383.52          9.07
   116.63         11.23        383.20          9.07
   116.64         10.87        383.52          9.07
   116.65          9.81        383.52          9.07
   116.66          8.40        383.20          9.06
   116.67          7.42        382.95          9.06
   116.68          6.98        382.95          9.07
   116.69          6.89        383.44          9.07
   116.70          6.45        383.68          9.07
   116.71          6.01        383.44          9.07
   116.72          6.98        382.95          9.07
   116.73          7.51        383.20          9.08
   116.74          8.04        383.52          9.08
   116.75          8.04        383.52          9.08
   116.76          8.49        383.20          9.08
   116.77          9.02        383.52          9.09
   116.78          8.49        383.52          9.09
   116.79          8.49        383.76          9.09
   116.80          9.02        383.76          9.08
   116.81          8.40        383.52          9.09
   116.82          8.84        383.03          9.09
   116.83          8.84        383.76          9.09
   116.84          8.84        383.52          9.08
