#Written by Robertson Geologging WinLogger V1.5/410
~VERSION INFORMATION
#------------------------------------------------------------------------------
 VERS. 2.0 : CWLS LOG ASCII STANDARD - VERSION 2.0
 WRAP. NO  : ONE LINE PER DEPTH STEP
~WELL INFORMATION
#MNEM.UNIT         DATA                                DESCRIPTION OF MNEMONIC
#------------------------------------------------------------------------------
 STRT.M          0.0000                            :   START DEPTH
 STOP.M        347.5900                            :   STOP DEPTH
 STEP.M          0.0100                            :   STEP VALUE
 NULL.        -999.2500                            :   NULL VALUE
 COMP.    GEUSd.                                   :   COMPANY NAME
 WELL.    59.459                                   :   WELL NAME
 FLD.     Jylland                                  :   FIELD NAME
 LOC.     N/A                                      :   LOCATION
 PROV.    N/A                                      :   PROVINCE
 SRVC.    N/A                                      :   SERVICE COMPANY NAME
 DATE.    26 May 14                                :   DATE
 UWI.     N/A                                      :   UNIQUE WELL IDENTIFIER
~PARAMETER INFORMATION
#MNEMO.UNIT         VALUE                 DESCRIPTION OF MNEMONIC
#------------------------------------------------------------------------------
~OTHER INFORMATION SECTION
#------------------------------------------------------------------------------
~CURVE INFORMATION
#MNEMO.UNIT         API CODE              CURVE DESCRIPTION
#------------------------------------------------------------------------------
 DEPTH.M                                 :   0     Depth
 TEMP.DegC                               :   1     Fluid Temperature
 COND.uScm                               :   2     Fluid Conductivity
 NGAM.API                                :   3     Natural Gamma
#------------------------------------------------------------------------------
~A  DEPTH          TEMP          COND          NGAM
# ...
   140.14          9.62       9283.95         11.84
   140.15          9.62       9286.07         12.29
   140.16          9.62       9287.94         12.29
   140.17          9.62       9290.06         12.73
   140.18          9.62       9291.93         13.70
   140.19          9.62       9294.47         14.67
   140.20          9.62       9296.34         14.23
   140.21          9.62       9298.04         15.20
   140.22          9.62       9300.33         15.11
   140.23          9.62       9301.95         15.11
   140.24          9.62       9303.47         15.47
   140.25          9.62       9304.83         15.56
   140.26          9.62       9306.53         15.56
   140.27          9.62       9307.46         16.00
   140.28          9.62       9308.74         15.11
   140.29          9.62       9310.69         14.58
   140.30          9.62       9311.54         13.79
   140.31          9.63       9313.41         13.26
   140.32          9.63       9315.10         14.14
   140.33          9.63       9316.55         16.53
   140.34          9.63       9318.75         16.53
   140.35          9.63       9320.71         15.11
   140.36          9.63       9323.00         15.11
   140.37          9.63       9324.78         15.56
   140.38          9.63       9327.50         16.53
   140.39          9.63       9329.79         16.53
   140.40          9.63       9331.66         16.53
   140.41          9.63       9334.21         15.20
   140.42          9.63       9335.65         14.23
   140.43          9.63       9338.20         14.67
   140.44          9.62       9340.57         13.79
   140.45          9.63       9342.44         15.11
   140.46          9.63       9344.31         14.67
   140.47          9.63       9346.43         13.70
   140.48          9.63       9348.30         12.82
   140.49          9.63       9350.34         11.93
   140.50          9.63       9352.29         10.87
   140.51          9.63       9354.67          9.99
   140.52          9.63       9356.79         10.96
   140.53          9.63       9359.60          9.99
   140.54          9.63       9362.14          9.55
   140.55          9.63       9364.52          7.60
   140.56          9.63       9367.32          6.28
   140.57          9.63       9370.47          5.83
   140.58          9.63       9372.67          7.25
   140.59          9.63       9375.82          7.69
   140.60          9.63       9378.19          7.25
   140.61          9.64       9381.17          7.25
   140.62          9.64       9383.71          6.81
   140.63          9.64       9386.52          6.81
   140.64          9.64       9389.06          7.25
   140.65          9.64       9391.44          8.13
   140.66          9.64       9394.25          8.57
   140.67          9.64       9395.86          8.66
   140.68          9.64       9398.41          9.10
   140.69          9.64       9401.30          8.13
   140.70          9.64       9404.27          9.10
   140.71          9.64       9407.58          8.66
   140.72          9.64       9411.15          9.10
   140.73          9.64       9415.40         10.52
   140.74          9.64       9419.64         11.40
   140.75          9.64       9423.89         10.43
   140.76          9.63       9428.65         10.43
   140.77          9.63       9432.56         10.43
   140.78          9.63       9438.08         10.43
   140.79          9.63       9441.90          9.55
   140.80          9.64       9446.15          9.55
   140.81          9.64       9449.97          9.99
   140.82          9.63       9453.71          9.10
   140.83          9.64       9456.94          8.66
   140.84          9.64       9459.57          7.69
   140.85          9.64       9462.29          8.22
   140.86          9.64       9464.93          8.22
   140.87          9.65       9467.56          6.81
   140.88          9.65       9470.70          6.81
   140.89          9.65       9473.00          6.36
   140.90          9.65       9476.82          4.95
   140.91          9.65       9480.05          4.07
   140.92          9.65       9483.45          4.07
   140.93          9.65       9487.27          4.07
   140.94          9.65       9491.10          4.07
   140.95          9.64       9494.84          4.07
   140.96          9.64       9498.66          5.04
   140.97          9.64       9502.49          5.92
   140.98          9.64       9505.97          5.04
   140.99          9.64       9509.63          5.04
   141.00          9.64       9512.94          4.60
   141.01          9.64       9516.34          5.04
   141.02          9.64       9520.16          4.07
   141.03          9.64       9523.39          5.48
   141.04          9.64       9526.79          5.48
   141.05          9.64       9529.60          6.45
   141.06          9.64       9533.42          7.87
   141.07          9.64       9536.82          9.63
   141.08          9.64       9540.57         10.61
   141.09          9.64       9544.31         10.61
   141.10          9.64       9547.79         11.14
   141.11          9.64       9551.96         11.58
   141.12          9.64       9555.53         11.58
   141.13          9.63       9558.84         11.05
   141.14          9.63       9562.41         10.61
   141.15          9.63       9565.13         10.61
   141.16          9.63       9568.70         11.05
   141.17          9.63       9571.00         11.49
   141.18          9.63       9573.30         11.58
   141.19          9.64       9575.85         12.02
   141.20          9.64       9577.80         10.61
   141.21          9.64       9580.27         11.05
   141.22          9.64       9582.73         10.08
   141.23          9.65       9584.69          8.66
   141.24          9.65       9587.07          7.34
   141.25          9.65       9589.20          7.34
   141.26          9.65       9592.00          6.89
   141.27          9.65       9594.55          5.92
   141.28          9.65       9597.87          6.89
   141.29          9.65       9601.52          7.34
   141.30          9.65       9604.67          6.89
   141.31          9.65       9608.67          7.42
   141.32          9.65       9612.32          7.87
   141.33          9.64       9616.07          8.40
   141.34          9.64       9620.32          7.96
   141.35          9.64       9624.57          7.42
   141.36          9.64       9629.25          6.98
   141.37          9.64       9633.93          7.42
   141.38          9.64       9638.69          6.98
   141.39          9.64       9643.71          7.42
   141.40          9.64       9648.56          7.42
   141.41          9.64       9653.49          6.98
   141.42          9.65       9658.00          6.01
   141.43          9.65       9662.68          6.89
   141.44          9.65       9666.93          7.34
   141.45          9.65       9671.18          6.36
   141.46          9.65       9675.44          6.89
   141.47          9.65       9679.69          6.89
   141.48          9.65       9683.09          6.81
   141.49          9.65       9686.84          6.89
   141.50          9.65       9689.90          5.92
   141.51          9.65       9693.22          6.81
   141.52          9.65       9696.62          7.25
   141.53          9.65       9700.36          8.22
   141.54          9.65       9703.94          8.66
   141.55          9.65       9708.70         10.08
   141.56          9.65       9712.87         10.52
   141.57          9.65       9717.13         10.96
   141.58          9.65       9721.38         11.40
   141.59          9.65       9726.49         11.84
   141.60          9.65       9731.76         10.96
   141.61          9.65       9736.95         10.96
   141.62          9.65       9742.83         11.40
   141.63          9.66       9748.61         11.76
   141.64          9.66       9754.83         12.20
   141.65          9.66       9761.21         11.31
   141.66          9.65       9766.40         10.78
   141.67          9.65       9772.87         11.76
