#Written by Robertson Geologging WinLogger V1.5/410
~VERSION INFORMATION
#------------------------------------------------------------------------------
 VERS. 2.0 : CWLS LOG ASCII STANDARD - VERSION 2.0
 WRAP. NO  : ONE LINE PER DEPTH STEP
~WELL INFORMATION
#MNEM.UNIT         DATA                                DESCRIPTION OF MNEMONIC
#------------------------------------------------------------------------------
 STRT.M         -0.1900                            :   START DEPTH
 STOP.M        347.0100                            :   STOP DEPTH
 STEP.M          0.0100                            :   STEP VALUE
 NULL.        -999.2500                            :   NULL VALUE
 COMP.    geus                                     :   COMPANY NAME
 WELL.    dalbyover 1                              :   WELL NAME
 FLD.     bornholm                                 :   FIELD NAME
 LOC.     N/A                                      :   LOCATION
 PROV.    DK                                       :   PROVINCE
 SRVC.    N/A                                      :   SERVICE COMPANY NAME
 DATE.    16/12/13                                 :   DATE
 UWI.     N/A                                      :   UNIQUE WELL IDENTIFIER
~PARAMETER INFORMATION
#MNEMO.UNIT         VALUE                 DESCRIPTION OF MNEMONIC
#------------------------------------------------------------------------------
~OTHER INFORMATION SECTION
#------------------------------------------------------------------------------
~CURVE INFORMATION
#MNEMO.UNIT         API CODE              CURVE DESCRIPTION
#------------------------------------------------------------------------------
 DEPTH.M                                 :   0     Depth
 NGAM.API                                :   1     Natural Gamma
 COND.uScm                               :   2     Fluid Conductivity
 TEMP.DegC                               :   3     Fluid Temperature
#------------------------------------------------------------------------------
~A  DEPTH          NGAM          COND          TEMP
# ...
    24.45          9.81         10.86          8.77
    24.46         10.25         10.86          8.77
    24.47         10.78         10.86          8.76
    24.48         10.16         10.86          8.76
    24.49          9.72         10.86          8.76
    24.50          9.28         10.86          8.75
    24.51          7.69         10.86          8.75
    24.52          6.72         10.86          8.75
    24.53          6.63         10.86          8.75
    24.54          7.16         10.86          8.75
    24.55          7.16         10.86          8.75
    24.56          7.69         10.86          8.75
    24.57          8.13         10.86          8.75
    24.58          8.66         10.86          8.75
    24.59          9.63         10.86          8.75
    24.60          8.66         10.86          8.75
    24.61          7.69         10.86          8.75
    24.62          8.13         10.86          8.75
    24.63          8.13         10.86          8.75
    24.64          9.19         10.86          8.75
    24.65          9.19         10.86          8.75
    24.66         10.61         10.86          8.75
    24.67         10.61         10.86          8.75
    24.68         11.05         10.86          8.75
    24.69         11.67         10.86          8.75
    24.70         11.67         10.86          8.75
    24.71         11.67         10.86          8.74
    24.72         12.73         10.86          8.74
    24.73         11.76         10.86          8.74
    24.74         13.26         10.86          8.74
    24.75         12.73         10.86          8.74
    24.76         11.76         10.86          8.74
    24.77         12.82         10.86          8.74
    24.78         13.35         10.86          8.74
    24.79         13.44         10.86          8.74
    24.80         13.44         10.86          8.74
    24.81         14.76         10.86          8.74
    24.82         14.85         10.86          8.75
    24.83         13.44         10.86          8.75
    24.84         13.97         10.86          8.76
    24.85         13.97         10.86          8.76
    24.86         13.88         10.86          8.76
    24.87         12.90         10.86          8.77
    24.88         12.37         10.86          8.77
    24.89         12.90         10.86          8.77
    24.90         13.35         10.86          8.77
    24.91         11.84         10.86          8.77
    24.92         12.37         10.86          8.76
    24.93         12.82         10.86          8.76
    24.94         11.76         10.86          8.76
    24.95         10.78         10.86          8.76
    24.96         10.25         10.86          8.76
    24.97         10.25         10.86          8.76
    24.98          8.31         10.86          8.76
    24.99          7.78         10.86          8.76
    25.00          9.37         10.86          8.76
    25.01          8.84         10.86          8.76
    25.02          8.40         10.86          8.76
    25.03          7.87         10.86          8.77
    25.04          8.31         10.86          8.77
    25.05          7.87         10.86          8.76
    25.06          6.28         10.86          8.76
    25.07          5.83         10.86          8.76
    25.08          6.45         10.86          8.76
    25.09          7.87         10.86          8.76
    25.10          9.02         10.86          8.76
    25.11          9.46         10.86          8.76
    25.12          9.90         10.86          8.76
    25.13         10.43         10.86          8.76
    25.14         10.43         10.86          8.76
    25.15         10.87         10.86          8.76
    25.16         10.87         10.86          8.76
    25.17          9.72         10.86          8.76
    25.18          9.72         10.86          8.77
    25.19          9.72         10.86          8.77
    25.20         11.23         10.86          8.77
    25.21         11.84         10.86          8.77
    25.22         13.26         10.86          8.77
    25.23         13.79         10.86          8.77
    25.24         14.76         10.86          8.77
    25.25         14.14         10.86          8.76
    25.26         12.64         10.86          8.76
    25.27         11.58         10.86          8.76
    25.28         11.58         10.86          8.76
    25.29         11.14         10.86          8.76
    25.30         11.67         10.86          8.76
    25.31         11.23         10.86          8.75
    25.32         10.25         10.86          8.75
    25.33         10.25         10.86          8.75
    25.34         10.25         10.86          8.74
    25.35          9.72         10.86          8.74
    25.36          9.72         10.86          8.74
    25.37          7.78         10.86          8.74
    25.38          8.31         10.86          8.75
    25.39          7.34         10.86          8.75
    25.40          7.25         10.86          8.75
    25.41          6.28         10.86          8.75
    25.42          6.81         10.86          8.76
    25.43          6.36         10.86          8.76
    25.44          6.89         10.86          8.76
    25.45          6.89         10.86          8.76
    25.46          7.42         10.86          8.76
    25.47          6.36         10.86          8.76
    25.48          6.89         10.86          8.76
    25.49          6.45         10.86          8.75
    25.50          6.45         10.86          8.75
    25.51          6.45         10.86          8.75
    25.52          6.45         10.86          8.75
    25.53          6.89         10.86          8.74
    25.54          7.87         10.86          8.74
    25.55          6.81         10.86          8.74
    25.56          6.36         10.86          8.74
    25.57          6.36         10.86          8.74
    25.58          6.81         10.86          8.74
    25.59          6.36         10.86          8.75
    25.60          7.42         10.86          8.75
    25.61          6.81         10.86          8.75
    25.62          6.36         10.86          8.76
    25.63          6.36         10.86          8.76
    25.64          6.81         10.86          8.76
    25.65          6.28         10.86          8.77
    25.66          6.81         10.86          8.77
    25.67          6.81         10.86          8.77
    25.68          6.36         10.86          8.78
    25.69          6.89         10.86          8.77
    25.70          7.42         10.86          8.77
    25.71          7.51         10.86          8.77
    25.72          7.42         10.86          8.76
    25.73          9.02         10.86          8.76
    25.74          9.02         10.86          8.76
    25.75          8.57         10.86          8.76
    25.76          8.04         10.86          8.75
    25.77          7.51         10.86          8.75
    25.78          8.04         10.86          8.75
    25.79          8.49         10.86          8.75
    25.80          8.49         10.86          8.75
    25.81          9.02         10.86          8.75
    25.82          9.55         10.86          8.75
    25.83          9.99         10.86          8.74
    25.84         12.20         10.86          8.74
    25.85         13.17         10.86          8.74
    25.86         14.05         10.86          8.73
    25.87         13.61         10.86          8.74
    25.88         12.55         10.86          8.74
    25.89         12.55         10.86          8.74
    25.90         11.49         10.86          8.75
    25.91         12.02         10.86          8.75
    25.92         12.02         10.86          8.75
    25.93         12.46         10.86          8.76
    25.94         11.93         10.86          8.76
    25.95         10.96         10.86          8.76
    25.96         10.52         10.86          8.77
    25.97          9.99         10.86          8.77
    25.98          9.46         10.86          8.77
