#Written by Robertson Geologging WinLogger V1.5/410
~VERSION INFORMATION
#------------------------------------------------------------------------------
 VERS. 2.0 : CWLS LOG ASCII STANDARD - VERSION 2.0
 WRAP. NO  : ONE LINE PER DEPTH STEP
~WELL INFORMATION
#MNEM.UNIT         DATA                                DESCRIPTION OF MNEMONIC
#------------------------------------------------------------------------------
 STRT.M         -0.1900                            :   START DEPTH
 STOP.M        347.0100                            :   STOP DEPTH
 STEP.M          0.0100                            :   STEP VALUE
 NULL.        -999.2500                            :   NULL VALUE
 COMP.    geus                                     :   COMPANY NAME
 WELL.    dalbyover 1                              :   WELL NAME
 FLD.     bornholm                                 :   FIELD NAME
 LOC.     N/A                                      :   LOCATION
 PROV.    DK                                       :   PROVINCE
 SRVC.    N/A                                      :   SERVICE COMPANY NAME
 DATE.    16/12/13                                 :   DATE
 UWI.     N/A                                      :   UNIQUE WELL IDENTIFIER
~PARAMETER INFORMATION
#MNEMO.UNIT         VALUE                 DESCRIPTION OF MNEMONIC
#------------------------------------------------------------------------------
~OTHER INFORMATION SECTION
#------------------------------------------------------------------------------
~CURVE INFORMATION
#MNEMO.UNIT         API CODE              CURVE DESCRIPTION
#------------------------------------------------------------------------------
 DEPTH.M                                 :   0     Depth
 NGAM.API                                :   1     Natural Gamma
 COND.uScm                               :   2     Fluid Conductivity
 TEMP.DegC                               :   3     Fluid Temperature
#------------------------------------------------------------------------------
~A  DEPTH          NGAM          COND          TEMP
# ...
   321.67         19.89        432.84         13.00
   321.68         18.56        432.59         13.00
   321.69         18.03        432.59         13.00
   321.70         16.79        432.84         13.00
   321.71         16.35        432.59         12.99
   321.72         13.97        432.59         12.99
   321.73         14.85        432.59         12.99
   321.74         15.29        432.59         12.99
   321.75         15.91        432.84         12.99
   321.76         14.58        432.84         12.99
   321.77         14.50        433.00         12.98
   321.78         14.05        432.59         12.98
   321.79         13.52        432.84         12.98
   321.80         13.97        433.00         12.98
   321.81         13.52        432.59         12.98
   321.82         13.52        432.59         12.99
   321.83         14.41        432.59         12.99
   321.84         13.61        432.84         12.99
   321.85         13.61        432.59         12.99
   321.86         13.61        432.59         12.99
   321.87         12.64        432.35         12.99
   321.88         12.73        432.59         12.99
   321.89         14.05        432.59         12.99
   321.90         13.17        432.35         13.00
   321.91         12.73        432.59         13.00
   321.92         11.67        432.76         12.99
   321.93         12.11        432.59         12.99
   321.94         12.64        433.00         12.99
   321.95         13.08        432.76         12.99
   321.96         12.64        432.59         12.99
   321.97         13.08        432.76         12.99
   321.98         13.08        432.59         12.99
   321.99         13.52        432.35         12.99
   322.00         12.64        432.76         12.99
   322.01         12.55        432.76         12.99
   322.02         12.11        431.95         13.00
   322.03         12.55        431.95         13.00
   322.04         12.99        432.35         13.00
   322.05         11.58        432.11         13.00
   322.06         11.58        431.95         13.00
   322.07         11.58        432.11         13.00
   322.08         11.14        432.35         13.00
   322.09         11.23        432.35         13.00
   322.10          9.90        432.35         13.00
   322.11          8.49        432.35         13.00
   322.12          7.60        432.19         13.00
   322.13          8.93        432.76         13.00
   322.14          8.04        433.00         13.00
   322.15          8.49        432.59         13.00
   322.16          8.04        432.59         13.00
   322.17          8.04        433.00         13.00
   322.18          7.60        432.84         13.00
   322.19          8.04        432.59         12.99
   322.20          7.60        432.59         12.99
   322.21          7.60        432.84         12.99
   322.22          7.60        432.84         12.99
   322.23          6.28        432.59         13.00
   322.24          5.83        432.84         13.00
   322.25          6.72        432.43         13.00
   322.26          6.63        432.59         13.00
   322.27          7.60        432.84         13.00
   322.28          8.04        432.43         13.00
   322.29          8.04        432.59         13.00
   322.30          6.72        432.84         13.00
   322.31          7.16        433.00         13.00
   322.32          7.16        432.59         13.00
   322.33          6.72        432.35         13.00
   322.34          6.72        433.00         13.01
   322.35          6.72        432.59         13.01
   322.36          6.72        433.00         13.01
   322.37          6.28        433.00         13.01
   322.38          5.83        432.59         13.01
   322.39          5.83        432.76         13.01
   322.40          5.83        433.00         13.01
   322.41          5.83        432.59         13.01
   322.42          5.39        432.59         13.01
   322.43          5.39        433.00         13.01
   322.44          4.42        433.00         13.01
   322.45          4.42        432.59         13.01
   322.46          4.42        433.00         13.01
   322.47          5.30        432.76         13.00
   322.48          4.42        432.59         13.00
   322.49          4.42        433.00         13.00
   322.50          4.42        433.00         13.00
   322.51          4.86        432.59         13.00
   322.52          4.42        432.76         13.00
   322.53          3.98        433.00         13.00
   322.54          4.42        432.76         13.00
   322.55          5.39        432.59         13.00
   322.56          6.72        433.00         13.00
   322.57          7.69        432.76         13.00
   322.58          8.13        432.59         13.01
   322.59          7.69        432.76         13.01
   322.60          7.25        432.76         13.01
   322.61          7.69        432.59         13.01
   322.62          7.25        432.76         13.01
   322.63          7.69        433.00         13.01
   322.64          9.19        432.76         13.00
   322.65          9.19        432.59         13.00
   322.66          8.75        433.00         13.00
   322.67          9.63        432.76         13.00
   322.68          8.75        432.59         13.00
   322.69          8.75        433.00         13.00
   322.70          9.19        433.00         13.00
   322.71          9.72        432.59         13.00
   322.72          8.75        433.00         13.00
   322.73          8.40        433.00         13.00
   322.74          8.31        432.59         13.00
   322.75          8.75        432.84         13.00
   322.76          9.19        433.00         13.00
   322.77          8.75        432.59         13.00
   322.78          9.63        432.84         13.00
   322.79          9.63        432.84         13.00
   322.80          9.19        432.59         13.00
   322.81          6.81        432.84         13.00
   322.82          8.22        432.84         13.00
   322.83          8.66        432.84         13.00
   322.84          7.78        432.84         13.00
   322.85          8.66        432.84         13.00
   322.86          9.55        432.84         13.00
   322.87          9.99        432.84         13.00
   322.88          9.02        432.84         13.00
   322.89          9.90        432.84         13.00
   322.90          8.93        433.00         13.00
   322.91          8.04        432.84         13.00
   322.92          7.16        432.59         13.00
   322.93          6.72        433.00         13.00
   322.94          7.16        432.59         13.00
   322.95          6.72        432.84         13.00
   322.96          8.04        432.84         13.00
   322.97          8.04        432.59         13.00
   322.98          8.49        432.84         13.00
   322.99          7.51        433.00         13.00
   323.00          7.51        432.59         13.00
   323.01          7.96        432.59         13.00
   323.02          7.96        433.00         13.00
   323.03          7.07        433.00         13.00
   323.04          6.19        432.59         13.00
   323.05          7.60        433.00         13.00
   323.06          7.16        432.76         13.00
   323.07          8.49        432.76         13.00
   323.08          8.49        432.76         13.00
   323.09          8.93        432.76         13.00
   323.10          9.37        432.59         13.00
   323.11          9.37        432.76         13.00
   323.12         10.43        433.00         13.00
   323.13          9.99        433.00         13.00
   323.14          9.99        433.00         13.00
   323.15          9.55        433.00         12.99
   323.16          9.99        433.00         13.00
   323.17          9.99        433.00         12.99
   323.18          9.99        433.00         12.99
   323.19          9.10        433.00         12.99
   323.20          9.10        433.00         12.99
