#Written by Robertson Geologging WinLogger V1.5/410
~VERSION INFORMATION
#------------------------------------------------------------------------------
 VERS. 2.0 : CWLS LOG ASCII STANDARD - VERSION 2.0
 WRAP. NO  : ONE LINE PER DEPTH STEP
~WELL INFORMATION
#MNEM.UNIT         DATA                                DESCRIPTION OF MNEMONIC
#------------------------------------------------------------------------------
 STRT.M         -0.1900                            :   START DEPTH
 STOP.M        347.0100                            :   STOP DEPTH
 STEP.M          0.0100                            :   STEP VALUE
 NULL.        -999.2500                            :   NULL VALUE
 COMP.    geus                                     :   COMPANY NAME
 WELL.    dalbyover 1                              :   WELL NAME
 FLD.     bornholm                                 :   FIELD NAME
 LOC.     N/A                                      :   LOCATION
 PROV.    DK                                       :   PROVINCE
 SRVC.    N/A                                      :   SERVICE COMPANY NAME
 DATE.    16/12/13                                 :   DATE
 UWI.     N/A                                      :   UNIQUE WELL IDENTIFIER
~PARAMETER INFORMATION
#MNEMO.UNIT         VALUE                 DESCRIPTION OF MNEMONIC
#------------------------------------------------------------------------------
~OTHER INFORMATION SECTION
#------------------------------------------------------------------------------
~CURVE INFORMATION
#MNEMO.UNIT         API CODE              CURVE DESCRIPTION
#------------------------------------------------------------------------------
 DEPTH.M                                 :   0     Depth
 NGAM.API                                :   1     Natural Gamma
 COND.uScm                               :   2     Fluid Conductivity
 TEMP.DegC                               :   3     Fluid Temperature
#------------------------------------------------------------------------------
~A  DEPTH          NGAM          COND          TEMP
# ...
   138.41          4.15        389.39          9.66
   138.42          4.15        389.39          9.66
   138.43          4.68        389.07          9.65
   138.44          4.68        389.07          9.65
   138.45          5.13        389.55          9.65
   138.46          5.04        389.55          9.65
   138.47          4.51        389.55          9.65
   138.48          4.95        389.07          9.65
   138.49          5.39        389.07          9.65
   138.50          5.39        389.55          9.64
   138.51          5.92        389.55          9.64
   138.52          6.45        389.23          9.64
   138.53          6.98        389.23          9.64
   138.54          6.98        389.55          9.64
   138.55          7.96        389.55          9.64
   138.56          8.40        389.07          9.64
   138.57          8.40        389.07          9.65
   138.58          7.96        389.07          9.65
   138.59          7.96        389.55          9.65
   138.60          7.87        389.55          9.65
   138.61          8.40        389.07          9.66
   138.62          8.84        389.07          9.66
   138.63          8.40        389.07          9.66
   138.64          8.40        389.39          9.66
   138.65          8.40        389.07          9.66
   138.66          8.93        389.07          9.67
   138.67          9.90        389.07          9.67
   138.68          9.37        389.55          9.67
   138.69          8.40        389.55          9.67
   138.70          7.87        389.07          9.67
   138.71          7.87        389.07          9.67
   138.72          7.42        389.07          9.67
   138.73          7.42        389.55          9.67
   138.74          7.96        389.55          9.67
   138.75          8.93        389.23          9.67
   138.76          9.90        389.23          9.67
   138.77         10.87        389.23          9.67
   138.78         11.31        389.55          9.66
   138.79         11.40        389.07          9.66
   138.80         11.84        389.07          9.66
   138.81         11.40        389.55          9.66
   138.82         12.37        389.55          9.66
   138.83         12.37        389.55          9.66
   138.84         11.84        389.07          9.66
   138.85         12.37        389.07          9.66
   138.86         13.35        389.07          9.65
   138.87         13.35        389.55          9.65
   138.88         13.35        389.55          9.65
   138.89         12.37        389.23          9.65
   138.90         13.52        389.23          9.65
   138.91         12.99        389.23          9.65
   138.92         13.08        389.23          9.65
   138.93         12.11        389.07          9.65
   138.94         10.70        389.07          9.65
   138.95          9.72        389.55          9.65
   138.96          8.75        389.39          9.66
   138.97          9.28        389.63          9.66
   138.98         10.70        389.15          9.66
   138.99         10.70        389.15          9.67
   139.00         10.16        389.63          9.67
   139.01          9.72        389.63          9.66
   139.02          8.75        389.63          9.66
   139.03          9.19        389.15          9.66
   139.04          9.19        389.31          9.66
   139.05          9.19        389.31          9.66
   139.06          9.63        389.31          9.66
   139.07          8.49        389.47          9.65
   139.08          8.93        389.23          9.65
   139.09          7.87        389.55          9.65
   139.10          8.31        389.55          9.66
   139.11          9.28        389.07          9.66
   139.12         11.23        389.07          9.66
   139.13         11.67        389.55          9.66
   139.14         11.14        389.55          9.66
   139.15          9.72        389.55          9.66
   139.16          8.31        389.55          9.66
   139.17          9.28        389.07          9.66
   139.18          9.72        389.07          9.66
   139.19          9.72        389.55          9.66
   139.20          8.75        389.23          9.65
   139.21          9.28        389.23          9.65
   139.22          9.28        389.23          9.65
   139.23          9.81        389.23          9.65
   139.24         10.34        389.23          9.66
   139.25          9.90        389.07          9.66
   139.26          9.90        389.31          9.66
   139.27          9.90        389.63          9.66
   139.28         10.34        389.63          9.66
   139.29         10.34        389.63          9.66
   139.30         10.43        389.15          9.66
   139.31         10.43        389.63          9.66
   139.32         12.82        389.63          9.66
   139.33         13.79        389.63          9.66
   139.34         12.82        389.63          9.66
   139.35         12.82        389.15          9.66
   139.36         14.76        389.79          9.67
   139.37         15.29        389.39          9.67
   139.38         14.76        389.55          9.67
   139.39         15.73        389.55          9.67
   139.40         14.76        389.55          9.67
   139.41         13.79        389.55          9.66
   139.42         15.20        389.07          9.66
   139.43         16.62        389.55          9.66
   139.44         17.15        389.55          9.66
   139.45         15.73        389.55          9.66
   139.46         15.73        389.55          9.66
   139.47         16.18        389.55          9.66
   139.48         16.26        389.71          9.65
   139.49         14.32        389.23          9.65
   139.50         13.79        389.23          9.65
   139.51         15.29        389.23          9.66
   139.52         16.26        389.71          9.66
   139.53         14.76        389.71          9.67
   139.54         14.76        389.55          9.67
   139.55         16.09        389.55          9.67
   139.56         15.73        389.55          9.67
   139.57         16.62        389.55          9.67
   139.58         17.06        389.55          9.67
   139.59         15.65        389.55          9.67
   139.60         14.67        389.55          9.67
   139.61         14.67        389.55          9.67
   139.62         15.11        390.03          9.67
   139.63         14.14        389.55          9.67
   139.64         14.14        389.55          9.67
   139.65         15.03        389.55          9.67
   139.66         16.18        389.55          9.67
   139.67         17.15        389.55          9.67
   139.68         15.20        390.03          9.68
   139.69         14.76        389.55          9.68
   139.70         15.73        389.55          9.68
   139.71         15.20        390.03          9.68
   139.72         13.88        390.03          9.68
   139.73         12.82        389.55          9.68
   139.74         11.93        389.55          9.68
   139.75         11.93        389.87          9.68
   139.76         12.37        389.55          9.68
   139.77         12.46        390.03          9.67
   139.78         11.93        390.03          9.67
   139.79         11.49        389.55          9.67
   139.80         10.96        390.03          9.67
   139.81         10.43        390.03          9.67
   139.82          9.02        389.55          9.67
   139.83          7.87        389.87          9.67
   139.84          7.42        389.87          9.67
   139.85          7.87        389.87          9.67
   139.86          6.89        390.03          9.67
   139.87          5.48        390.03          9.68
   139.88          5.04        389.55          9.68
   139.89          4.60        390.03          9.68
   139.90          6.01        390.27          9.68
   139.91          6.45        389.63          9.68
   139.92          7.42        389.87          9.69
   139.93          8.93        390.11          9.69
   139.94          8.84        389.79          9.69
