#Written by Robertson Geologging WinLogger V1.5/410
~VERSION INFORMATION
#------------------------------------------------------------------------------
 VERS. 2.0 : CWLS LOG ASCII STANDARD - VERSION 2.0
 WRAP. NO  : ONE LINE PER DEPTH STEP
~WELL INFORMATION
#MNEM.UNIT         DATA                                DESCRIPTION OF MNEMONIC
#------------------------------------------------------------------------------
 STRT.M          0.0000                            :   START DEPTH
 STOP.M        347.5900                            :   STOP DEPTH
 STEP.M          0.0100                            :   STEP VALUE
 NULL.        -999.2500                            :   NULL VALUE
 COMP.    GEUSd.                                   :   COMPANY NAME
 WELL.    59.459                                   :   WELL NAME
 FLD.     Jylland                                  :   FIELD NAME
 LOC.     N/A                                      :   LOCATION
 PROV.    N/A                                      :   PROVINCE
 SRVC.    N/A                                      :   SERVICE COMPANY NAME
 DATE.    26 May 14                                :   DATE
 UWI.     N/A                                      :   UNIQUE WELL IDENTIFIER
~PARAMETER INFORMATION
#MNEMO.UNIT         VALUE                 DESCRIPTION OF MNEMONIC
#------------------------------------------------------------------------------
~OTHER INFORMATION SECTION
#------------------------------------------------------------------------------
~CURVE INFORMATION
#MNEMO.UNIT         API CODE              CURVE DESCRIPTION
#------------------------------------------------------------------------------
 DEPTH.M                                 :   0     Depth
 TEMP.DegC                               :   1     Fluid Temperature
 COND.uScm                               :   2     Fluid Conductivity
 NGAM.API                                :   3     Natural Gamma
#------------------------------------------------------------------------------
~A  DEPTH          TEMP          COND          NGAM
# ...
   163.24         10.08      13536.44         10.61
   163.25         10.08      13537.39         10.61
   163.26         10.08      13538.35         11.05
   163.27         10.08      13539.22         11.49
   163.28         10.08      13540.18         10.52
   163.29         10.08      13541.57         11.49
   163.30         10.08      13542.44         13.26
   163.31         10.07      13543.39         13.79
   163.32         10.08      13545.13         14.23
   163.33         10.08      13546.52         13.70
   163.34         10.08      13548.17         12.73
   163.35         10.09      13549.74         12.29
   163.36         10.09      13551.22         10.87
   163.37         10.09      13553.13         10.43
   163.38         10.09      13554.87         10.43
   163.39         10.09      13556.78         11.49
   163.40         10.09      13558.34         11.49
   163.41         10.09      13559.47         10.08
   163.42         10.10      13561.91         10.52
   163.43         10.10      13563.21         10.52
   163.44         10.10      13564.69         10.08
   163.45         10.10      13565.99         10.08
   163.46         10.09      13566.43          9.55
   163.47         10.09      13567.91          8.75
   163.48         10.09      13568.95          8.66
   163.49         10.09      13569.82          8.66
   163.50         10.09      13570.86          8.66
   163.51         10.08      13571.30          9.10
   163.52         10.08      13572.34          8.66
   163.53         10.08      13572.78          9.55
   163.54         10.08      13573.21          9.55
   163.55         10.08      13574.17          9.10
   163.56         10.09      13574.60          7.60
   163.57         10.09      13576.08          7.60
   163.58         10.09      13577.04          7.60
   163.59         10.09      13577.99          7.16
   163.60         10.09      13578.86          7.60
   163.61         10.09      13579.82          8.13
   163.62         10.09      13580.77          9.02
   163.63         10.09      13582.08          9.55
   163.64         10.08      13583.03          9.46
   163.65         10.08      13584.77          9.02
   163.66         10.08      13585.73          9.02
   163.67         10.08      13587.21          9.90
   163.68         10.08      13588.51         10.43
   163.69         10.08      13589.47         10.43
   163.70         10.09      13590.25         10.96
   163.71         10.09      13592.25         11.84
   163.72         10.09      13593.90         11.84
   163.73         10.10      13596.25         12.29
   163.74         10.10      13598.25         12.29
   163.75         10.10      13600.34         12.73
   163.76         10.11      13602.08         13.17
   163.77         10.11      13603.99         12.29
   163.78         10.11      13605.99         11.76
   163.79         10.10      13608.08         10.43
   163.80         10.10      13610.08         10.87
   163.81         10.10      13612.16          9.99
   163.82         10.10      13613.12          9.55
   163.83         10.10      13614.42          9.10
   163.84         10.10      13615.47          8.66
   163.85         10.10      13616.51          7.69
   163.86         10.10      13617.82          8.66
   163.87         10.10      13618.69          8.57
   163.88         10.10      13620.16          7.69
   163.89         10.10      13621.03          8.13
   163.90         10.10      13622.42          7.25
   163.91         10.10      13623.29          7.25
   163.92         10.10      13624.69          6.81
   163.93         10.10      13625.64          6.81
   163.94         10.10      13626.95          6.81
   163.95         10.10      13628.25          7.34
   163.96         10.10      13629.64          7.78
   163.97         10.10      13630.95          6.36
   163.98         10.10      13632.34          6.81
   163.99         10.10      13634.08          6.81
   164.00         10.10      13635.99          7.25
   164.01         10.10      13637.73          6.81
   164.02         10.10      13639.64          7.78
   164.03         10.11      13641.82          6.81
   164.04         10.11      13643.73          5.48
   164.05         10.11      13645.91          6.45
   164.06         10.10      13647.47          7.34
   164.07         10.10      13648.69          8.75
   164.08         10.10      13649.82          9.28
   164.09         10.10      13651.04         10.16
   164.10         10.10      13651.73         11.14
   164.11         10.10      13652.26         12.90
   164.12         10.10      13652.69         13.35
   164.13         10.10      13653.65         14.32
   164.14         10.10      13653.65         14.76
   164.15         10.10      13654.60         15.29
   164.16         10.10      13655.39         15.29
   164.17         10.10      13655.56         15.73
   164.18         10.10      13656.78         15.29
   164.19         10.10      13657.82         14.76
   164.20         10.09      13659.56         16.71
   164.21         10.09      13661.04         16.71
   164.22         10.09      13662.95         15.29
   164.23         10.09      13664.26         13.97
   164.24         10.09      13666.17         13.44
   164.25         10.09      13667.91         12.46
   164.26         10.09      13669.39         12.02
   164.27         10.09      13670.87         11.05
   164.28         10.09      13672.61          9.72
   164.29         10.09      13674.00          8.75
   164.30         10.09      13675.39          8.22
   164.31         10.09      13676.26          8.22
   164.32         10.08      13677.22          8.13
   164.33         10.08      13678.18          9.10
   164.34         10.08      13679.92          8.66
   164.35         10.08      13680.44          9.99
   164.36         10.08      13682.18          9.55
   164.37         10.08      13683.66          8.49
   164.38         10.08      13684.61          9.90
   164.39         10.08      13686.79         10.87
   164.40         10.08      13687.31         12.20
   164.41         10.08      13688.96         13.26
   164.42         10.09      13690.96         13.70
   164.43         10.09      13692.88         13.26
   164.44         10.10      13694.10         13.26
   164.45         10.10      13695.66         13.79
   164.46         10.10      13697.14         14.23
   164.47         10.10      13698.01         13.79
   164.48         10.10      13699.40         14.23
   164.49         10.11      13700.36         15.73
   164.50         10.11      13701.06         15.73
   164.51         10.11      13703.14         16.62
   164.52         10.11      13704.36         16.26
   164.53         10.11      13705.32         18.03
   164.54         10.11      13706.80         17.59
   164.55         10.11      13708.97         17.50
   164.56         10.11      13710.45         16.53
   164.57         10.11      13712.37         16.09
   164.58         10.10      13714.11         16.09
   164.59         10.10      13716.11         17.59
   164.60         10.10      13718.89         18.47
   164.61         10.10      13721.85         19.00
   164.62         10.10      13724.46         19.80
   164.63         10.10      13727.33         18.92
   164.64         10.10      13729.77         19.80
   164.65         10.10      13732.38         19.36
   164.66         10.09      13734.82         17.41
   164.67         10.10      13736.99         16.44
   164.68         10.10      13739.43         16.44
   164.69         10.10      13742.30         16.44
   164.70         10.11      13744.39         15.11
   164.71         10.11      13745.95         16.00
   164.72         10.11      13747.52         15.65
   164.73         10.11      13749.09         15.65
   164.74         10.11      13750.22         15.20
   164.75         10.10      13751.61         13.26
   164.76         10.10      13752.92         12.64
   164.77         10.10      13753.87         12.20
