#Written by Robertson Geologging WinLogger V1.5/410
~VERSION INFORMATION
#------------------------------------------------------------------------------
 VERS. 2.0 : CWLS LOG ASCII STANDARD - VERSION 2.0
 WRAP. NO  : ONE LINE PER DEPTH STEP
~WELL INFORMATION
#MNEM.UNIT         DATA                                DESCRIPTION OF MNEMONIC
#------------------------------------------------------------------------------
 STRT.M          0.0000                            :   START DEPTH
 STOP.M        347.5900                            :   STOP DEPTH
 STEP.M          0.0100                            :   STEP VALUE
 NULL.        -999.2500                            :   NULL VALUE
 COMP.    GEUSd.                                   :   COMPANY NAME
 WELL.    59.459                                   :   WELL NAME
 FLD.     Jylland                                  :   FIELD NAME
 LOC.     N/A                                      :   LOCATION
 PROV.    N/A                                      :   PROVINCE
 SRVC.    N/A                                      :   SERVICE COMPANY NAME
 DATE.    26 May 14                                :   DATE
 UWI.     N/A                                      :   UNIQUE WELL IDENTIFIER
~PARAMETER INFORMATION
#MNEMO.UNIT         VALUE                 DESCRIPTION OF MNEMONIC
#------------------------------------------------------------------------------
~OTHER INFORMATION SECTION
#------------------------------------------------------------------------------
~CURVE INFORMATION
#MNEMO.UNIT         API CODE              CURVE DESCRIPTION
#------------------------------------------------------------------------------
 DEPTH.M                                 :   0     Depth
 TEMP.DegC                               :   1     Fluid Temperature
 COND.uScm                               :   2     Fluid Conductivity
 NGAM.API                                :   3     Natural Gamma
#------------------------------------------------------------------------------
~A  DEPTH          TEMP          COND          NGAM
# ...
   323.40         12.97      38027.79         18.39
   323.41         12.96      38028.28         19.71
   323.42         12.97      38029.35         19.27
   323.43         12.97      38030.33         18.39
   323.44         12.97      38030.82         19.71
   323.45         12.97      38031.41         20.59
   323.46         12.97      38031.90         21.48
   323.47         12.97      38031.90         22.80
   323.48         12.97      38031.90         23.25
   323.49         12.97      38032.09         22.36
   323.50         12.97      38032.58         22.54
   323.51         12.97      38032.88         21.48
   323.52         12.97      38033.36         21.92
   323.53         12.97      38033.36         21.92
   323.54         12.97      38033.36         21.92
   323.55         12.97      38033.85         22.80
   323.56         12.97      38033.76         21.48
   323.57         12.97      38034.25         21.04
   323.58         12.97      38035.22         19.27
   323.59         12.96      38036.69         19.09
   323.60         12.96      38037.38         18.21
   323.61         12.97      38038.84         17.77
   323.62         12.97      38040.02         17.32
   323.63         12.97      38040.70         16.00
   323.64         12.97      38041.68         15.11
   323.65         12.97      38042.66         15.03
   323.66         12.97      38043.64         16.35
   323.67         12.97      38045.11         15.47
   323.68         12.97      38046.09         14.76
   323.69         12.96      38046.58         15.47
   323.70         12.96      38047.06         15.03
   323.71         12.96      38047.36         15.03
   323.72         12.96      38047.36         13.26
   323.73         12.96      38047.36         13.70
   323.74         12.96      38047.65         13.70
   323.75         12.96      38048.14         13.26
   323.76         12.96      38047.65         12.99
   323.77         12.96      38047.65         15.20
   323.78         12.97      38047.65         13.88
   323.79         12.97      38047.65         14.32
   323.80         12.97      38047.65         15.65
   323.81         12.97      38046.87         17.41
   323.82         12.97      38047.36         17.94
   323.83         12.97      38047.36         17.50
   323.84         12.97      38047.85         17.94
   323.85         12.97      38047.85         17.94
   323.86         12.97      38047.85         16.35
   323.87         12.97      38047.85         17.24
   323.88         12.97      38047.85         18.56
   323.89         12.97      38047.95         18.56
   323.90         12.97      38047.46         18.12
   323.91         12.97      38047.95         19.45
   323.92         12.98      38048.73         21.66
   323.93         12.98      38048.73         21.21
   323.94         12.98      38049.22         20.33
   323.95         12.98      38049.32         19.89
   323.96         12.98      38049.32         19.00
   323.97         12.98      38049.80         19.18
   323.98         12.98      38050.29         17.85
   323.99         12.98      38050.88         16.97
   324.00         12.98      38051.76         18.47
   324.01         12.98      38052.74         19.36
   324.02         12.98      38053.23         20.68
   324.03         12.98      38054.21         21.57
   324.04         12.98      38055.68         22.01
   324.05         12.98      38056.17         21.13
   324.06         12.97      38057.05         21.57
   324.07         12.97      38058.51         21.92
   324.08         12.97      38059.49         20.15
   324.09         12.97      38060.96         18.83
   324.10         12.97      38061.84         18.83
   324.11         12.97      38062.33         18.83
   324.12         12.97      38063.31         19.71
   324.13         12.97      38063.80         20.15
   324.14         12.97      38064.78         19.53
   324.15         12.98      38064.29         19.09
   324.16         12.98      38064.78         19.09
   324.17         12.98      38065.76         17.59
   324.18         12.99      38065.76         16.26
   324.19         12.99      38066.25         15.82
   324.20         12.99      38066.25         15.82
   324.21         12.99      38066.73         14.94
   324.22         12.99      38067.22         15.38
   324.23         12.99      38066.73         16.71
   324.24         12.99      38067.22         16.79
   324.25         12.99      38067.22         17.24
   324.26         12.99      38068.20         17.24
   324.27         12.98      38068.69         17.24
   324.28         12.98      38068.69         17.24
   324.29         12.98      38069.18         16.35
   324.30         12.98      38069.18         16.79
   324.31         12.98      38070.16         15.91
   324.32         12.98      38069.67         16.18
   324.33         12.98      38069.67         17.06
   324.34         12.98      38071.14         17.50
   324.35         12.98      38071.14         18.83
   324.36         12.98      38071.63         19.27
   324.37         12.98      38071.63         19.27
   324.38         12.97      38072.12         19.27
   324.39         12.97      38072.61         19.27
   324.40         12.97      38072.12         18.65
   324.41         12.98      38072.61         18.21
   324.42         12.98      38072.61         21.74
   324.43         12.98      38073.59         22.63
   324.44         12.98      38074.08         24.40
   324.45         12.97      38074.08         24.84
   324.46         12.97      38074.56         24.84
   324.47         12.97      38074.56         24.40
   324.48         12.97      38074.56         24.84
   324.49         12.97      38075.05         24.57
   324.50         12.98      38075.05         26.34
   324.51         12.98      38076.03         25.90
   324.52         12.98      38076.03         27.22
   324.53         12.98      38076.52         26.34
   324.54         12.99      38076.52         27.22
   324.55         12.99      38077.01         28.99
   324.56         13.00      38077.50         27.67
   324.57         13.00      38077.01         28.73
   324.58         13.00      38077.50         29.43
   324.59         13.00      38078.48         28.55
   324.60         13.00      38078.48         27.75
   324.61         13.00      38078.97         25.90
   324.62         13.00      38079.36         24.57
   324.63         13.00      38079.85         25.46
   324.64         13.00      38080.34         25.46
   324.65         13.00      38080.34         26.96
   324.66         12.99      38080.83         29.17
   324.67         12.99      38080.83         27.84
   324.68         12.99      38082.30         28.73
   324.69         12.99      38082.30         26.43
   324.70         12.99      38082.59         27.75
   324.71         12.99      38082.59         27.75
   324.72         12.99      38083.08         27.31
   324.73         12.99      38082.69         28.20
   324.74         12.99      38082.69         29.52
   324.75         12.99      38082.20         30.58
   324.76         12.99      38082.69         29.26
   324.77         12.99      38082.20         30.49
   324.78         12.99      38082.69         35.89
   324.79         12.99      38082.20         37.21
   324.80         12.99      38082.69         37.65
   324.81         12.99      38082.39         37.21
   324.82         13.00      38082.39         35.71
   324.83         13.00      38082.39         35.36
   324.84         13.00      38082.88         38.45
   324.85         13.00      38083.37         39.33
   324.86         13.00      38083.86         42.07
   324.87         13.01      38084.35         45.61
   324.88         13.01      38084.65         46.49
   324.89         13.01      38084.65         47.82
   324.90         13.00      38084.16         47.38
   324.91         13.00      38083.96         46.94
   324.92         13.00      38084.45         45.61
   324.93         12.99      38085.43         46.05
