#Written by Robertson Geologging WinLogger V1.5/410
~VERSION INFORMATION
#------------------------------------------------------------------------------
 VERS. 2.0 : CWLS LOG ASCII STANDARD - VERSION 2.0
 WRAP. NO  : ONE LINE PER DEPTH STEP
~WELL INFORMATION
#MNEM.UNIT         DATA                                DESCRIPTION OF MNEMONIC
#------------------------------------------------------------------------------
 STRT.M         -0.1900                            :   START DEPTH
 STOP.M        347.0100                            :   STOP DEPTH
 STEP.M          0.0100                            :   STEP VALUE
 NULL.        -999.2500                            :   NULL VALUE
 COMP.    geus                                     :   COMPANY NAME
 WELL.    dalbyover 1                              :   WELL NAME
 FLD.     bornholm                                 :   FIELD NAME
 LOC.     N/A                                      :   LOCATION
 PROV.    DK                                       :   PROVINCE
 SRVC.    N/A                                      :   SERVICE COMPANY NAME
 DATE.    16/12/13                                 :   DATE
 UWI.     N/A                                      :   UNIQUE WELL IDENTIFIER
~PARAMETER INFORMATION
#MNEMO.UNIT         VALUE                 DESCRIPTION OF MNEMONIC
#------------------------------------------------------------------------------
~OTHER INFORMATION SECTION
#------------------------------------------------------------------------------
~CURVE INFORMATION
#MNEMO.UNIT         API CODE              CURVE DESCRIPTION
#------------------------------------------------------------------------------
 DEPTH.M                                 :   0     Depth
 NGAM.API                                :   1     Natural Gamma
 COND.uScm                               :   2     Fluid Conductivity
 TEMP.DegC                               :   3     Fluid Temperature
#------------------------------------------------------------------------------
~A  DEPTH          NGAM          COND          TEMP
# ...
   207.71         13.35        407.65         11.02
   207.72         13.79        407.65         11.02
   207.73         12.82        407.65         11.02
   207.74         11.84        407.65         11.02
   207.75         11.40        408.13         11.02
   207.76         10.87        407.65         11.02
   207.77         10.34        407.65         11.02
   207.78          9.37        407.65         11.01
   207.79          8.84        407.65         11.01
   207.80          9.37        407.65         11.01
   207.81          9.37        408.13         11.01
   207.82         10.34        407.65         11.01
   207.83         11.31        407.65         11.01
   207.84         14.67        407.65         11.01
   207.85         14.23        407.65         11.01
   207.86         14.23        407.65         11.02
   207.87         14.23        408.13         11.02
   207.88         14.23        407.65         11.02
   207.89         14.76        407.65         11.02
   207.90         15.20        407.17         11.02
   207.91         15.65        407.17         11.02
   207.92         16.62        407.17         11.02
   207.93         18.12        407.65         11.02
   207.94         17.68        407.65         11.02
   207.95         18.65        407.17         11.02
   207.96         18.21        407.17         11.02
   207.97         18.65        407.17         11.01
   207.98         18.12        407.17         11.01
   207.99         20.06        407.65         11.01
   208.00         19.53        407.65         11.01
   208.01         17.15        407.65         11.01
   208.02         18.12        407.65         11.01
   208.03         17.68        407.65         11.01
   208.04         17.68        407.65         11.01
   208.05         17.15        407.65         11.01
   208.06         17.59        408.13         11.01
   208.07         17.59        408.13         11.01
   208.08         19.09        407.65         11.01
   208.09         19.09        407.65         11.01
   208.10         18.12        407.65         11.01
   208.11         19.09        407.65         11.02
   208.12         18.56        408.13         11.02
   208.13         19.53        408.13         11.01
   208.14         19.09        407.65         11.01
   208.15         19.09        407.65         11.01
   208.16         18.12        407.65         11.00
   208.17         17.68        407.65         11.00
   208.18         17.68        407.65         11.00
   208.19         16.71        408.13         11.00
   208.20         15.73        408.13         11.00
   208.21         15.73        407.65         10.99
   208.22         16.71        407.65         10.99
   208.23         15.73        407.65         10.99
   208.24         16.26        407.65         10.99
   208.25         14.32        408.13         10.99
   208.26         13.35        408.13         11.00
   208.27         12.82        407.65         11.00
   208.28         12.82        407.65         11.00
   208.29         12.82        407.65         11.00
   208.30         12.29        407.65         11.00
   208.31         12.20        407.65         11.01
   208.32         12.73        408.13         11.01
   208.33         11.23        408.13         11.01
   208.34         10.25        407.65         11.01
   208.35          9.72        407.65         11.02
   208.36          9.28        407.65         11.02
   208.37          9.28        407.65         11.02
   208.38          8.31        408.13         11.02
   208.39          6.89        408.13         11.02
   208.40          7.42        408.13         11.02
   208.41          6.89        407.65         11.03
   208.42          8.31        407.65         11.02
   208.43          8.75        407.65         11.03
   208.44          8.31        407.65         11.02
   208.45          8.75        408.13         11.02
   208.46          8.75        408.13         11.02
   208.47          8.75        408.13         11.02
   208.48          8.84        407.65         11.01
   208.49          8.31        407.65         11.01
   208.50          8.31        407.65         11.01
   208.51          8.31        407.65         11.01
   208.52          8.31        408.13         11.01
   208.53          8.75        408.13         11.01
   208.54          8.75        408.13         11.01
   208.55          8.31        408.13         11.01
   208.56          8.31        407.65         11.01
   208.57          7.34        407.65         11.02
   208.58          7.34        407.65         11.02
   208.59          6.36        408.13         11.02
   208.60          6.36        408.13         11.02
   208.61          6.81        408.13         11.02
   208.62          5.83        408.13         11.02
   208.63          5.39        407.65         11.02
   208.64          4.95        407.65         11.02
   208.65          4.42        407.65         11.02
   208.66          4.42        407.65         11.02
   208.67          4.95        408.13         11.02
   208.68          4.95        408.13         11.02
   208.69          4.51        408.13         11.03
   208.70          4.51        407.65         11.03
   208.71          5.48        407.65         11.03
   208.72          5.92        407.65         11.03
   208.73          6.36        407.65         11.03
   208.74          7.34        408.13         11.03
   208.75          6.89        408.13         11.03
   208.76          6.89        408.13         11.03
   208.77          7.42        408.13         11.03
   208.78          6.98        407.65         11.03
   208.79          6.98        407.65         11.03
   208.80          7.42        407.65         11.03
   208.81          7.87        408.13         11.03
   208.82          7.87        408.13         11.03
   208.83          7.87        408.13         11.03
   208.84          7.34        407.65         11.03
   208.85          7.34        407.65         11.03
   208.86          7.34        407.65         11.03
   208.87          7.87        407.65         11.03
   208.88          7.34        407.65         11.03
   208.89          7.34        408.13         11.03
   208.90          6.89        408.13         11.03
   208.91          6.36        407.65         11.03
   208.92          6.36        407.65         11.03
   208.93          6.36        407.65         11.03
   208.94          6.36        407.65         11.03
   208.95          8.31        408.13         11.03
   208.96          8.31        408.13         11.03
   208.97          7.87        408.13         11.03
   208.98          7.42        407.73         11.04
   208.99          7.42        407.73         11.04
   209.00          7.42        407.73         11.04
   209.01          7.42        407.73         11.04
   209.02          7.42        408.21         11.04
   209.03          7.87        408.21         11.04
   209.04          7.34        408.21         11.04
   209.05          7.87        407.73         11.04
   209.06          7.87        407.73         11.04
   209.07          8.31        407.73         11.05
   209.08          7.87        407.73         11.05
   209.09          7.87        408.13         11.04
   209.10          8.40        408.13         11.04
   209.11          7.42        407.73         11.04
   209.12          5.92        407.73         11.04
   209.13          5.92        407.73         11.04
   209.14          5.92        407.73         11.04
   209.15          6.36        407.73         11.04
   209.16          7.34        408.21         11.04
   209.17          8.31        408.21         11.04
   209.18          7.87        407.73         11.04
   209.19          9.28        407.73         11.04
   209.20          9.28        407.73         11.04
   209.21          8.84        407.73         11.04
   209.22          8.84        408.13         11.04
   209.23          8.40        408.13         11.04
   209.24          7.96        408.13         11.04
