#Written by Robertson Geologging WinLogger V1.5/410
~VERSION INFORMATION
#------------------------------------------------------------------------------
 VERS. 2.0 : CWLS LOG ASCII STANDARD - VERSION 2.0
 WRAP. NO  : ONE LINE PER DEPTH STEP
~WELL INFORMATION
#MNEM.UNIT         DATA                                DESCRIPTION OF MNEMONIC
#------------------------------------------------------------------------------
 STRT.M          0.0000                            :   START DEPTH
 STOP.M        347.5900                            :   STOP DEPTH
 STEP.M          0.0100                            :   STEP VALUE
 NULL.        -999.2500                            :   NULL VALUE
 COMP.    GEUSd.                                   :   COMPANY NAME
 WELL.    59.459                                   :   WELL NAME
 FLD.     Jylland                                  :   FIELD NAME
 LOC.     N/A                                      :   LOCATION
 PROV.    N/A                                      :   PROVINCE
 SRVC.    N/A                                      :   SERVICE COMPANY NAME
 DATE.    26 May 14                                :   DATE
 UWI.     N/A                                      :   UNIQUE WELL IDENTIFIER
~PARAMETER INFORMATION
#MNEMO.UNIT         VALUE                 DESCRIPTION OF MNEMONIC
#------------------------------------------------------------------------------
~OTHER INFORMATION SECTION
#------------------------------------------------------------------------------
~CURVE INFORMATION
#MNEMO.UNIT         API CODE              CURVE DESCRIPTION
#------------------------------------------------------------------------------
 DEPTH.M                                 :   0     Depth
 TEMP.DegC                               :   1     Fluid Temperature
 COND.uScm                               :   2     Fluid Conductivity
 NGAM.API                                :   3     Natural Gamma
#------------------------------------------------------------------------------
~A  DEPTH          TEMP          COND          NGAM
# ...
    24.64         13.87         10.86         10.43
    24.65         13.87         10.86         10.43
    24.66         13.87         10.86         10.87
    24.67         13.87         10.86         10.43
    24.68         13.87         10.86          9.02
    24.69         13.88         10.86         10.34
    24.70         13.88         10.86         10.34
    24.71         13.88         10.86         11.31
    24.72         13.89         10.86         11.05
    24.73         13.89         10.86         10.08
    24.74         13.89         10.86         10.52
    24.75         13.89         10.86         10.52
    24.76         13.89         10.86         11.05
    24.77         13.90         10.86         11.49
    24.78         13.90         10.86         11.49
    24.79         13.89         10.86          9.55
    24.80         13.89         10.86         10.43
    24.81         13.89         10.86          9.99
    24.82         13.88         10.86         10.52
    24.83         13.88         10.86         10.52
    24.84         13.88         10.86         12.46
    24.85         13.88         10.86         12.90
    24.86         13.87         10.86         12.99
    24.87         13.87         10.86         13.97
    24.88         13.87         10.86         13.44
    24.89         13.87         10.86         13.79
    24.90         13.87         10.86         16.71
    24.91         13.87         10.86         17.24
    24.92         13.87         10.86         17.24
    24.93         13.87         10.86         17.68
    24.94         13.87         10.86         18.21
    24.95         13.87         10.86         17.68
    24.96         13.87         10.86         19.09
    24.97         13.87         10.86         18.56
    24.98         13.87         10.86         19.53
    24.99         13.87         10.86         19.53
    25.00         13.87         10.86         19.53
    25.01         13.87         10.86         18.03
    25.02         13.87         10.86         19.00
    25.03         13.87         10.86         18.56
    25.04         13.87         10.86         19.36
    25.05         13.87         10.86         19.36
    25.06         13.87         10.86         18.83
    25.07         13.88         10.86         15.91
    25.08         13.88         10.86         16.53
    25.09         13.87         10.86         16.53
    25.10         13.87         10.86         16.97
    25.11         13.87         10.86         16.00
    25.12         13.86         10.86         15.56
    25.13         13.86         10.86         15.20
    25.14         13.86         10.86         14.23
    25.15         13.86         10.86         13.70
    25.16         13.86         10.86         14.14
    25.17         13.85         10.86         14.67
    25.18         13.85         10.86         15.20
    25.19         13.84         10.86         13.70
    25.20         13.84         10.86         13.17
    25.21         13.84         10.86         11.40
    25.22         13.84         10.86         12.02
    25.23         13.84         10.86         12.11
    25.24         13.84         10.86         12.11
    25.25         13.84         10.86         11.49
    25.26         13.84         10.86         11.05
    25.27         13.84         10.86         11.58
    25.28         13.84         10.86         12.55
    25.29         13.85         10.86         13.44
    25.30         13.85         10.86         13.35
    25.31         13.85         10.86         12.90
    25.32         13.86         10.86         12.90
    25.33         13.86         10.86         13.26
    25.34         13.86         10.86         12.73
    25.35         13.86         10.86         12.29
    25.36         13.86         10.86         12.82
    25.37         13.85         10.86         12.37
    25.38         13.85         10.86         12.37
    25.39         13.85         10.86         11.31
    25.40         13.85         10.86         11.40
    25.41         13.85         10.86         12.37
    25.42         13.84         10.86         12.73
    25.43         13.84         10.86         12.73
    25.44         13.84         10.86         13.70
    25.45         13.84         10.86         13.70
    25.46         13.84         10.86         13.79
    25.47         13.84         10.86         14.23
    25.48         13.84         10.86         15.65
    25.49         13.85         10.86         15.65
    25.50         13.85         10.86         15.29
    25.51         13.85         10.86         14.85
    25.52         13.85         10.86         15.29
    25.53         13.85         10.86         15.29
    25.54         13.85         10.86         17.50
    25.55         13.85         10.86         17.06
    25.56         13.85         10.86         17.50
    25.57         13.85         10.86         16.44
    25.58         13.85         10.86         15.91
    25.59         13.85         10.86         15.56
    25.60         13.85         10.86         15.56
    25.61         13.84         10.86         13.08
    25.62         13.84         10.86         12.55
    25.63         13.84         10.86         12.02
    25.64         13.83         10.86         11.05
    25.65         13.83         10.86         11.58
    25.66         13.83         10.86         13.08
    25.67         13.82         10.86         12.11
    25.68         13.82         10.86         12.55
    25.69         13.82         10.86         12.02
    25.70         13.82         10.86         11.05
    25.71         13.82         10.86          9.28
    25.72         13.82         10.86         10.70
    25.73         13.82         10.86         10.25
    25.74         13.82         10.86         12.20
    25.75         13.82         10.86         12.20
    25.76         13.82         10.86         12.64
    25.77         13.83         10.86         13.61
    25.78         13.83         10.86         14.14
    25.79         13.83         10.86         14.14
    25.80         13.83         10.86         14.14
    25.81         13.83         10.86         14.14
    25.82         13.84         10.86         12.64
    25.83         13.84         10.86         11.14
    25.84         13.84         10.86         12.64
    25.85         13.84         10.86         13.26
    25.86         13.84         10.86         12.82
    25.87         13.84         10.86         12.82
    25.88         13.84         10.86         13.35
    25.89         13.84         10.86         12.90
    25.90         13.84         10.86         12.90
    25.91         13.84         10.86         11.93
    25.92         13.84         10.86         12.82
    25.93         13.83         10.86         12.46
    25.94         13.83         10.86         12.46
    25.95         13.83         10.86         11.93
    25.96         13.83         10.86         11.93
    25.97         13.83         10.86         11.93
    25.98         13.83         10.86         11.93
    25.99         13.83         10.86         13.44
    26.00         13.83         10.86         13.97
    26.01         13.83         10.86         12.46
    26.02         13.83         10.86         12.82
    26.03         13.83         10.86         13.35
    26.04         13.83         10.86         15.29
    26.05         13.82         10.86         14.32
    26.06         13.82         10.86         14.32
    26.07         13.82         10.86         14.32
    26.08         13.81         10.86         13.79
    26.09         13.81         10.86         12.90
    26.10         13.81         10.86         12.29
    26.11         13.80         10.86         12.29
    26.12         13.80         10.86         12.37
    26.13         13.80         10.86         11.93
    26.14         13.81         10.86         12.90
    26.15         13.81         10.86         12.90
    26.16         13.81         10.86         11.93
    26.17         13.81         10.86         10.96
