#Written by Robertson Geologging WinLogger V1.5/410
~VERSION INFORMATION
#------------------------------------------------------------------------------
 VERS. 2.0 : CWLS LOG ASCII STANDARD - VERSION 2.0
 WRAP. NO  : ONE LINE PER DEPTH STEP
~WELL INFORMATION
#MNEM.UNIT         DATA                                DESCRIPTION OF MNEMONIC
#------------------------------------------------------------------------------
 STRT.M         -0.1900                            :   START DEPTH
 STOP.M        347.0100                            :   STOP DEPTH
 STEP.M          0.0100                            :   STEP VALUE
 NULL.        -999.2500                            :   NULL VALUE
 COMP.    geus                                     :   COMPANY NAME
 WELL.    dalbyover 1                              :   WELL NAME
 FLD.     bornholm                                 :   FIELD NAME
 LOC.     N/A                                      :   LOCATION
 PROV.    DK                                       :   PROVINCE
 SRVC.    N/A                                      :   SERVICE COMPANY NAME
 DATE.    16/12/13                                 :   DATE
 UWI.     N/A                                      :   UNIQUE WELL IDENTIFIER
~PARAMETER INFORMATION
#MNEMO.UNIT         VALUE                 DESCRIPTION OF MNEMONIC
#------------------------------------------------------------------------------
~OTHER INFORMATION SECTION
#------------------------------------------------------------------------------
~CURVE INFORMATION
#MNEMO.UNIT         API CODE              CURVE DESCRIPTION
#------------------------------------------------------------------------------
 DEPTH.M                                 :   0     Depth
 NGAM.API                                :   1     Natural Gamma
 COND.uScm                               :   2     Fluid Conductivity
 TEMP.DegC                               :   3     Fluid Temperature
#------------------------------------------------------------------------------
~A  DEPTH          NGAM          COND          TEMP
# ...
   275.47          7.69        422.54         12.25
   275.48          5.92        422.46         12.25
   275.49          6.36        422.54         12.25
   275.50          5.39        422.54         12.25
   275.51          5.39        422.54         12.25
   275.52          5.83        422.54         12.24
   275.53          6.81        422.54         12.24
   275.54          7.69        422.54         12.24
   275.55          7.25        422.46         12.24
   275.56          7.69        422.54         12.24
   275.57          7.69        422.54         12.24
   275.58          8.57        422.54         12.25
   275.59          7.69        422.54         12.25
   275.60          7.69        422.54         12.25
   275.61          7.69        422.54         12.25
   275.62          8.13        422.54         12.25
   275.63          7.60        422.54         12.25
   275.64          6.72        422.54         12.25
   275.65          6.72        422.54         12.25
   275.66          6.72        422.54         12.25
   275.67          6.72        422.54         12.25
   275.68          7.16        422.54         12.25
   275.69          7.16        422.54         12.25
   275.70          6.19        422.54         12.26
   275.71          5.30        422.54         12.26
   275.72          5.30        422.54         12.26
   275.73          4.86        422.86         12.26
   275.74          5.30        422.94         12.26
   275.75          5.39        422.54         12.26
   275.76          5.39        422.54         12.26
   275.77          5.39        422.94         12.26
   275.78          5.39        422.94         12.26
   275.79          4.95        422.86         12.26
   275.80          4.95        422.86         12.26
   275.81          5.92        422.94         12.26
   275.82          5.92        422.86         12.26
   275.83          5.48        422.86         12.26
   275.84          5.92        422.54         12.26
   275.85          6.98        422.46         12.25
   275.86          7.51        422.86         12.25
   275.87          7.96        422.86         12.26
   275.88          9.28        422.54         12.26
   275.89         10.70        422.46         12.26
   275.90         11.14        422.54         12.26
   275.91         10.70        422.54         12.26
   275.92         11.14        422.54         12.25
   275.93         12.02        422.54         12.25
   275.94         12.99        422.54         12.25
   275.95         12.55        422.54         12.25
   275.96         13.97        422.62         12.25
   275.97         13.52        422.62         12.25
   275.98         13.97        422.54         12.25
   275.99         13.97        422.54         12.25
   276.00         16.88        422.62         12.26
   276.01         17.32        422.62         12.26
   276.02         15.82        422.62         12.25
   276.03         15.82        422.54         12.25
   276.04         16.71        422.62         12.25
   276.05         16.79        422.62         12.25
   276.06         17.59        422.62         12.25
   276.07         18.56        422.54         12.26
   276.08         19.00        422.54         12.26
   276.09         19.36        422.62         12.25
   276.10         18.47        422.62         12.25
   276.11         18.03        422.54         12.25
   276.12         22.45        422.54         12.24
   276.13         21.92        422.54         12.25
   276.14         22.89        422.62         12.25
   276.15         22.45        422.94         12.25
   276.16         22.89        422.54         12.25
   276.17         22.63        422.54         12.26
   276.18         21.74        422.62         12.26
   276.19         24.22        422.94         12.26
   276.20         23.69        422.94         12.26
   276.21         22.36        422.94         12.26
   276.22         21.39        423.02         12.26
   276.23         19.18        422.94         12.26
   276.24         18.65        422.94         12.26
   276.25         19.62        422.94         12.26
   276.26         18.83        422.62         12.26
   276.27         19.27        423.02         12.26
   276.28         19.27        422.94         12.26
   276.29         14.85        422.94         12.25
   276.30         13.97        422.62         12.25
   276.31         12.55        422.62         12.25
   276.32         12.99        422.54         12.25
   276.33         13.44        422.54         12.26
   276.34         11.76        422.62         12.26
   276.35         12.73        422.62         12.26
   276.36          9.81        422.54         12.26
   276.37          9.81        422.54         12.27
   276.38         11.14        422.54         12.27
   276.39         10.70        422.54         12.27
   276.40         12.11        422.54         12.27
   276.41         11.23        422.86         12.27
   276.42         10.25        422.86         12.27
   276.43         10.70        422.94         12.27
   276.44         11.67        422.86         12.27
   276.45         11.67        422.86         12.27
   276.46         12.11        422.86         12.27
   276.47         12.55        422.94         12.27
   276.48         13.52        422.86         12.27
   276.49         13.08        422.86         12.27
   276.50         13.08        422.94         12.27
   276.51         12.11        422.94         12.27
   276.52         11.58        422.54         12.27
   276.53         11.58        422.54         12.26
   276.54         11.14        422.54         12.26
   276.55         10.25        422.54         12.26
   276.56         10.25        422.54         12.26
   276.57          8.84        422.54         12.26
   276.58          8.84        422.54         12.27
   276.59          8.84        422.94         12.27
   276.60          7.42        422.94         12.27
   276.61          6.89        422.94         12.27
   276.62          6.36        422.94         12.27
   276.63          6.36        423.02         12.27
   276.64          5.92        422.94         12.27
   276.65          4.95        422.94         12.28
   276.66          4.42        423.02         12.28
   276.67          3.54        423.02         12.28
   276.68          3.54        422.94         12.28
   276.69          3.09        422.94         12.27
   276.70          3.09        422.62         12.27
   276.71          4.07        422.62         12.28
   276.72          4.07        422.62         12.28
   276.73          4.07        422.54         12.28
   276.74          4.07        422.54         12.29
   276.75          4.51        422.62         12.29
   276.76          4.07        422.62         12.29
   276.77          4.07        422.54         12.29
   276.78          3.62        422.54         12.29
   276.79          3.18        422.62         12.29
   276.80          3.18        422.62         12.29
   276.81          3.18        422.94         12.29
   276.82          3.18        422.94         12.29
   276.83          2.74        422.94         12.29
   276.84          3.18        423.02         12.29
   276.85          3.18        422.94         12.28
   276.86          3.18        422.94         12.28
   276.87          3.62        422.94         12.28
   276.88          3.09        423.02         12.28
   276.89          2.65        422.94         12.28
   276.90          2.65        422.94         12.28
   276.91          2.65        422.94         12.28
   276.92          3.18        422.62         12.27
   276.93          3.62        422.94         12.27
   276.94          4.07        422.94         12.26
   276.95          4.51        422.94         12.26
   276.96          4.51        422.94         12.26
   276.97          4.07        422.94         12.27
   276.98          4.51        422.94         12.27
   276.99          5.48        422.94         12.26
   277.00          5.92        422.94         12.27
