#Written by Robertson Geologging WinLogger V1.5/410
~VERSION INFORMATION
#------------------------------------------------------------------------------
 VERS. 2.0 : CWLS LOG ASCII STANDARD - VERSION 2.0
 WRAP. NO  : ONE LINE PER DEPTH STEP
~WELL INFORMATION
#MNEM.UNIT         DATA                                DESCRIPTION OF MNEMONIC
#------------------------------------------------------------------------------
 STRT.M         -0.1900                            :   START DEPTH
 STOP.M        347.0100                            :   STOP DEPTH
 STEP.M          0.0100                            :   STEP VALUE
 NULL.        -999.2500                            :   NULL VALUE
 COMP.    geus                                     :   COMPANY NAME
 WELL.    dalbyover 1                              :   WELL NAME
 FLD.     bornholm                                 :   FIELD NAME
 LOC.     N/A                                      :   LOCATION
 PROV.    DK                                       :   PROVINCE
 SRVC.    N/A                                      :   SERVICE COMPANY NAME
 DATE.    16/12/13                                 :   DATE
 UWI.     N/A                                      :   UNIQUE WELL IDENTIFIER
~PARAMETER INFORMATION
#MNEMO.UNIT         VALUE                 DESCRIPTION OF MNEMONIC
#------------------------------------------------------------------------------
~OTHER INFORMATION SECTION
#------------------------------------------------------------------------------
~CURVE INFORMATION
#MNEMO.UNIT         API CODE              CURVE DESCRIPTION
#------------------------------------------------------------------------------
 DEPTH.M                                 :   0     Depth
 NGAM.API                                :   1     Natural Gamma
 COND.uScm                               :   2     Fluid Conductivity
 TEMP.DegC                               :   3     Fluid Temperature
#------------------------------------------------------------------------------
~A  DEPTH          NGAM          COND          TEMP
# ...
   253.91          2.83        417.07         11.91
   253.92          2.83        417.07         11.91
   253.93          3.27        417.07         11.91
   253.94          3.27        417.55         11.90
   253.95          3.27        417.47         11.90
   253.96          3.27        417.07         11.91
   253.97          3.27        416.98         11.91
   253.98          3.27        417.07         11.91
   253.99          2.30        417.07         11.92
   254.00          1.33        417.47         11.92
   254.01          1.33        417.55         11.92
   254.02          1.77        417.07         11.92
   254.03          2.65        416.98         11.92
   254.04          3.09        417.07         11.93
   254.05          3.54        417.07         11.93
   254.06          3.54        417.07         11.93
   254.07          5.48        417.55         11.93
   254.08          5.92        417.15         11.93
   254.09          6.89        417.07         11.93
   254.10          7.42        417.07         11.92
   254.11          6.98        417.07         11.92
   254.12          6.98        417.07         11.92
   254.13          6.98        417.47         11.92
   254.14          7.87        417.55         11.92
   254.15          7.87        417.55         11.92
   254.16          7.87        417.47         11.92
   254.17          8.31        417.07         11.92
   254.18          8.31        417.07         11.92
   254.19          8.31        417.47         11.92
   254.20          9.37        417.55         11.92
   254.21          8.93        417.47         11.92
   254.22          8.93        417.55         11.92
   254.23          8.93        417.47         11.92
   254.24          6.98        417.55         11.92
   254.25          6.98        417.47         11.92
   254.26          6.01        417.47         11.92
   254.27          6.01        417.55         11.91
   254.28          6.98        417.95         11.91
   254.29          7.42        417.95         11.92
   254.30          7.42        417.95         11.92
   254.31          6.98        417.95         11.92
   254.32          6.98        417.55         11.92
   254.33          6.98        417.47         11.92
   254.34          6.54        417.55         11.92
   254.35          6.54        417.55         11.92
   254.36          6.10        417.55         11.92
   254.37          5.57        417.55         11.92
   254.38          6.45        417.47         11.92
   254.39          6.01        417.55         11.92
   254.40          6.45        417.55         11.92
   254.41          6.45        417.55         11.93
   254.42          6.01        417.55         11.92
   254.43          6.01        417.95         11.92
   254.44          6.36        418.03         11.92
   254.45          5.39        418.03         11.92
   254.46          5.39        417.95         11.92
   254.47          5.39        418.03         11.92
   254.48          4.95        417.55         11.93
   254.49          5.39        417.95         11.93
   254.50          5.39        417.47         11.93
   254.51          5.39        417.79         11.93
   254.52          6.28        417.39         11.93
   254.53          6.28        417.39         11.93
   254.54          5.75        417.39         11.93
   254.55          5.30        417.39         11.93
   254.56          5.75        417.31         11.93
   254.57          5.75        417.39         11.93
   254.58          5.75        417.31         11.93
   254.59          6.19        417.79         11.93
   254.60          6.19        417.47         11.93
   254.61          4.86        417.87         11.93
   254.62          5.75        417.55         11.93
   254.63          6.28        418.03         11.93
   254.64          6.81        417.95         11.93
   254.65          7.25        418.03         11.93
   254.66          6.81        418.03         11.92
   254.67          7.25        418.03         11.92
   254.68          8.13        417.55         11.92
   254.69          7.69        417.63         11.92
   254.70          8.13        417.55         11.92
   254.71          7.69        417.55         11.92
   254.72          7.69        417.63         11.92
   254.73          7.25        417.55         11.92
   254.74          6.81        417.55         11.92
   254.75          6.81        417.63         11.92
   254.76          6.36        417.55         11.92
   254.77          6.36        417.55         11.93
   254.78          6.36        417.63         11.93
   254.79          6.45        418.03         11.94
   254.80          5.48        418.03         11.93
   254.81          4.51        418.11         11.93
   254.82          4.07        418.03         11.93
   254.83          4.07        418.03         11.93
   254.84          3.62        418.03         11.93
   254.85          3.18        418.03         11.93
   254.86          3.62        417.55         11.93
   254.87          3.62        417.55         11.94
   254.88          4.15        417.55         11.93
   254.89          4.15        417.47         11.93
   254.90          5.13        417.55         11.93
   254.91          6.10        417.55         11.93
   254.92          6.98        417.47         11.93
   254.93          6.98        417.55         11.94
   254.94          7.42        417.47         11.94
   254.95          9.19        417.55         11.94
   254.96          8.22        417.55         11.94
   254.97          8.66        417.95         11.94
   254.98          9.10        418.03         11.94
   254.99          9.55        418.03         11.94
   255.00          9.99        418.03         11.94
   255.01         10.43        418.03         11.94
   255.02          9.99        418.03         11.94
   255.03          9.10        418.03         11.94
   255.04         10.08        418.03         11.94
   255.05          9.10        417.63         11.94
   255.06          8.66        417.55         11.94
   255.07          7.69        417.55         11.94
   255.08          7.69        417.63         11.94
   255.09          7.25        417.55         11.94
   255.10          7.69        417.55         11.94
   255.11          8.13        417.55         11.94
   255.12          6.36        417.55         11.94
   255.13          7.78        417.47         11.95
   255.14          7.34        417.55         11.95
   255.15          7.87        417.55         11.95
   255.16          8.84        417.95         11.95
   255.17          8.84        418.03         11.95
   255.18          8.40        417.95         11.95
   255.19          8.40        417.95         11.95
   255.20          8.40        418.03         11.95
   255.21          7.42        417.95         11.94
   255.22          7.87        418.03         11.94
   255.23          7.87        418.03         11.94
   255.24          8.31        418.03         11.94
   255.25          7.78        417.55         11.94
   255.26          8.22        417.55         11.93
   255.27          8.22        417.55         11.93
   255.28          7.34        417.55         11.93
   255.29          7.78        417.63         11.93
   255.30          6.81        417.55         11.93
   255.31          6.81        417.07         11.93
   255.32          6.81        417.15         11.93
   255.33          5.39        417.07         11.94
   255.34          4.95        417.07         11.94
   255.35          5.39        417.07         11.94
   255.36          6.28        417.55         11.94
   255.37          7.25        417.55         11.94
   255.38          6.81        417.55         11.94
   255.39          7.25        417.55         11.94
   255.40          7.25        417.47         11.94
   255.41          6.81        417.55         11.94
   255.42          6.36        417.95         11.95
   255.43          5.48        417.95         11.95
   255.44          5.48        417.95         11.94
