#Written by Robertson Geologging WinLogger V1.5/410
~VERSION INFORMATION
#------------------------------------------------------------------------------
 VERS. 2.0 : CWLS LOG ASCII STANDARD - VERSION 2.0
 WRAP. NO  : ONE LINE PER DEPTH STEP
~WELL INFORMATION
#MNEM.UNIT         DATA                                DESCRIPTION OF MNEMONIC
#------------------------------------------------------------------------------
 STRT.M         -0.1900                            :   START DEPTH
 STOP.M        347.0100                            :   STOP DEPTH
 STEP.M          0.0100                            :   STEP VALUE
 NULL.        -999.2500                            :   NULL VALUE
 COMP.    geus                                     :   COMPANY NAME
 WELL.    dalbyover 1                              :   WELL NAME
 FLD.     bornholm                                 :   FIELD NAME
 LOC.     N/A                                      :   LOCATION
 PROV.    DK                                       :   PROVINCE
 SRVC.    N/A                                      :   SERVICE COMPANY NAME
 DATE.    16/12/13                                 :   DATE
 UWI.     N/A                                      :   UNIQUE WELL IDENTIFIER
~PARAMETER INFORMATION
#MNEMO.UNIT         VALUE                 DESCRIPTION OF MNEMONIC
#------------------------------------------------------------------------------
~OTHER INFORMATION SECTION
#------------------------------------------------------------------------------
~CURVE INFORMATION
#MNEMO.UNIT         API CODE              CURVE DESCRIPTION
#------------------------------------------------------------------------------
 DEPTH.M                                 :   0     Depth
 NGAM.API                                :   1     Natural Gamma
 COND.uScm                               :   2     Fluid Conductivity
 TEMP.DegC                               :   3     Fluid Temperature
#------------------------------------------------------------------------------
~A  DEPTH          NGAM          COND          TEMP
# ...
   298.57          4.51        428.49         12.62
   298.58          4.51        428.49         12.62
   298.59          4.95        428.09         12.62
   298.60          4.95        428.49         12.62
   298.61          4.95        428.49         12.61
   298.62          4.51        428.49         12.61
   298.63          4.51        428.09         12.61
   298.64          4.51        428.49         12.61
   298.65          4.95        428.65         12.61
   298.66          4.51        428.49         12.61
   298.67          4.95        428.25         12.61
   298.68          4.95        428.49         12.61
   298.69          4.95        428.49         12.61
   298.70          4.95        428.49         12.61
   298.71          4.51        428.09         12.62
   298.72          4.95        428.25         12.62
   298.73          4.95        428.49         12.62
   298.74          3.98        428.65         12.62
   298.75          3.98        428.09         12.62
   298.76          3.54        428.09         12.62
   298.77          3.98        428.25         12.61
   298.78          3.98        428.49         12.62
   298.79          3.54        428.25         12.62
   298.80          3.54        428.09         12.62
   298.81          3.09        428.25         12.62
   298.82          3.09        428.49         12.62
   298.83          4.42        428.49         12.62
   298.84          3.54        428.09         12.62
   298.85          3.54        428.09         12.62
   298.86          3.54        428.49         12.62
   298.87          3.98        428.49         12.62
   298.88          4.42        428.73         12.61
   298.89          4.86        428.49         12.61
   298.90          4.86        428.49         12.61
   298.91          4.86        428.49         12.61
   298.92          4.86        428.49         12.62
   298.93          5.30        428.49         12.62
   298.94          5.30        428.49         12.62
   298.95          6.28        428.65         12.62
   298.96          7.60        428.49         12.62
   298.97          8.04        428.25         12.62
   298.98          9.02        428.49         12.62
   298.99          8.57        428.25         12.63
   299.00          7.69        428.09         12.63
   299.01          8.66        428.09         12.63
   299.02          8.66        428.49         12.63
   299.03          9.55        428.49         12.62
   299.04          9.55        428.25         12.62
   299.05          9.99        428.49         12.62
   299.06         10.08        428.49         12.62
   299.07         10.52        428.49         12.62
   299.08         10.08        428.49         12.62
   299.09         10.96        428.25         12.63
   299.10         11.49        428.49         12.63
   299.11         12.37        428.65         12.63
   299.12         11.84        428.49         12.63
   299.13         10.96        428.65         12.63
   299.14         12.29        428.65         12.63
   299.15         12.29        428.65         12.63
   299.16         12.29        428.25         12.63
   299.17         13.17        428.25         12.63
   299.18         12.20        428.65         12.63
   299.19         12.64        428.65         12.63
   299.20         11.76        428.65         12.63
   299.21         11.31        428.41         12.63
   299.22         11.40        428.65         12.63
   299.23         10.43        428.81         12.63
   299.24          9.99        428.65         12.63
   299.25         11.76        428.65         12.63
   299.26         10.87        428.65         12.63
   299.27         10.34        428.81         12.64
   299.28          9.46        428.65         12.64
   299.29          9.02        428.81         12.64
   299.30          8.57        428.81         12.64
   299.31          7.69        428.65         12.64
   299.32          6.72        428.65         12.64
   299.33          6.72        428.41         12.63
   299.34          5.83        428.65         12.63
   299.35          6.28        428.41         12.64
   299.36          7.34        428.41         12.64
   299.37          8.31        428.41         12.63
   299.38          8.31        428.65         12.63
   299.39          7.78        428.81         12.63
   299.40          7.78        428.65         12.63
   299.41          8.22        428.65         12.63
   299.42          6.45        428.65         12.64
   299.43          6.45        428.65         12.64
   299.44          6.45        428.89         12.64
   299.45          6.01        428.65         12.64
   299.46          6.45        428.89         12.64
   299.47          7.78        428.89         12.64
   299.48          6.89        428.89         12.64
   299.49          7.87        428.49         12.64
   299.50          8.31        428.49         12.64
   299.51          8.31        428.65         12.64
   299.52          7.87        428.49         12.64
   299.53          5.92        428.65         12.64
   299.54          5.39        428.89         12.63
   299.55          6.36        428.65         12.63
   299.56          6.36        428.49         12.63
   299.57          6.36        428.65         12.63
   299.58          8.31        428.49         12.63
   299.59          8.75        428.49         12.63
   299.60          9.72        428.89         12.63
   299.61          9.28        428.89         12.63
   299.62          9.28        428.33         12.63
   299.63          9.28        428.89         12.63
   299.64          7.96        428.73         12.64
   299.65          8.40        428.49         12.64
   299.66          8.40        428.73         12.64
   299.67          7.96        428.89         12.64
   299.68          7.96        428.33         12.64
   299.69          7.96        428.89         12.64
   299.70          8.40        428.73         12.63
   299.71          7.96        428.49         12.63
   299.72          7.96        428.49         12.63
   299.73          8.49        428.89         12.63
   299.74          8.49        428.49         12.63
   299.75          6.10        428.65         12.63
   299.76          5.66        428.89         12.63
   299.77          6.10        428.65         12.62
   299.78          6.10        428.49         12.62
   299.79          6.98        428.65         12.62
   299.80          6.98        428.49         12.62
   299.81          8.75        428.65         12.62
   299.82          8.75        428.89         12.62
   299.83          7.78        428.89         12.62
   299.84          8.66        428.65         12.62
   299.85          9.19        428.49         12.62
   299.86         10.96        428.89         12.62
   299.87         12.46        428.49         12.62
   299.88         13.88        428.49         12.63
   299.89         13.35        428.89         12.63
   299.90         14.32        428.89         12.63
   299.91         15.20        428.65         12.64
   299.92         16.62        428.89         12.64
   299.93         17.06        428.65         12.64
   299.94         17.06        428.49         12.64
   299.95         18.39        428.49         12.64
   299.96         17.94        428.89         12.64
   299.97         17.94        428.49         12.64
   299.98         16.62        428.89         12.64
   299.99         17.59        428.89         12.64
   300.00         17.59        428.49         12.64
   300.01         17.15        428.89         12.64
   300.02         18.12        428.73         12.63
   300.03         18.12        428.49         12.63
   300.04         17.15        428.73         12.63
   300.05         16.18        428.89         12.63
   300.06         15.73        428.73         12.63
   300.07         13.79        428.89         12.63
   300.08         13.35        428.89         12.63
   300.09         12.82        428.49         12.63
   300.10         13.79        428.49         12.63
