#Written by Robertson Geologging WinLogger V1.5/410
~VERSION INFORMATION
#------------------------------------------------------------------------------
 VERS. 2.0 : CWLS LOG ASCII STANDARD - VERSION 2.0
 WRAP. NO  : ONE LINE PER DEPTH STEP
~WELL INFORMATION
#MNEM.UNIT         DATA                                DESCRIPTION OF MNEMONIC
#------------------------------------------------------------------------------
 STRT.M          0.0000                            :   START DEPTH
 STOP.M        347.5900                            :   STOP DEPTH
 STEP.M          0.0100                            :   STEP VALUE
 NULL.        -999.2500                            :   NULL VALUE
 COMP.    GEUSd.                                   :   COMPANY NAME
 WELL.    59.459                                   :   WELL NAME
 FLD.     Jylland                                  :   FIELD NAME
 LOC.     N/A                                      :   LOCATION
 PROV.    N/A                                      :   PROVINCE
 SRVC.    N/A                                      :   SERVICE COMPANY NAME
 DATE.    26 May 14                                :   DATE
 UWI.     N/A                                      :   UNIQUE WELL IDENTIFIER
~PARAMETER INFORMATION
#MNEMO.UNIT         VALUE                 DESCRIPTION OF MNEMONIC
#------------------------------------------------------------------------------
~OTHER INFORMATION SECTION
#------------------------------------------------------------------------------
~CURVE INFORMATION
#MNEMO.UNIT         API CODE              CURVE DESCRIPTION
#------------------------------------------------------------------------------
 DEPTH.M                                 :   0     Depth
 TEMP.DegC                               :   1     Fluid Temperature
 COND.uScm                               :   2     Fluid Conductivity
 NGAM.API                                :   3     Natural Gamma
#------------------------------------------------------------------------------
~A  DEPTH          TEMP          COND          NGAM
# ...
   231.00         11.47      31723.61          6.28
   231.01         11.47      31724.94          7.69
   231.02         11.47      31726.08          8.49
   231.03         11.47      31727.51          8.04
   231.04         11.47      31729.03          8.04
   231.05         11.46      31730.65          7.60
   231.06         11.46      31732.17          8.04
   231.07         11.46      31734.07          7.60
   231.08         11.46      31735.41          7.60
   231.09         11.46      31737.69          7.16
   231.10         11.47      31739.59          7.16
   231.11         11.47      31741.31          7.16
   231.12         11.47      31742.73          6.72
   231.13         11.47      31744.92          6.72
   231.14         11.47      31745.87          7.60
   231.15         11.47      31747.02          7.60
   231.16         11.47      31748.92          8.57
   231.17         11.47      31750.54          8.57
   231.18         11.48      31751.96          7.16
   231.19         11.48      31752.54          5.83
   231.20         11.48      31753.96          5.83
   231.21         11.47      31755.01          6.28
   231.22         11.47      31755.96          5.83
   231.23         11.47      31757.39          4.95
   231.24         11.47      31758.44          5.83
   231.25         11.47      31759.86          6.28
   231.26         11.47      31760.91          7.60
   231.27         11.47      31761.39          7.16
   231.28         11.47      31761.96          7.16
   231.29         11.47      31762.43          7.60
   231.30         11.47      31762.91          9.37
   231.31         11.47      31763.48          8.49
   231.32         11.47      31763.86          8.49
   231.33         11.47      31764.91          7.51
   231.34         11.47      31765.38          6.63
   231.35         11.47      31765.86          6.63
   231.36         11.47      31766.34          6.63
   231.37         11.48      31767.38          7.07
   231.38         11.48      31768.33          6.63
   231.39         11.48      31768.81          7.51
   231.40         11.48      31769.29          7.51
   231.41         11.48      31770.90          7.07
   231.42         11.48      31771.76          7.07
   231.43         11.48      31772.43          5.75
   231.44         11.48      31772.81          5.75
   231.45         11.48      31773.47          5.75
   231.46         11.48      31774.52          6.19
   231.47         11.48      31775.95          4.86
   231.48         11.48      31775.95          5.30
   231.49         11.48      31776.42          6.19
   231.50         11.48      31777.00          6.19
   231.51         11.48      31777.95          6.63
   231.52         11.48      31777.95          7.07
   231.53         11.48      31778.42          7.07
   231.54         11.48      31778.71          6.63
   231.55         11.48      31779.37          6.63
   231.56         11.48      31780.14          5.75
   231.57         11.48      31781.18          5.75
   231.58         11.47      31782.61          5.30
   231.59         11.47      31785.28          5.30
   231.60         11.47      31786.23          5.30
   231.61         11.47      31786.70          5.30
   231.62         11.47      31787.66          4.86
   231.63         11.47      31788.70          4.42
   231.64         11.47      31789.65          4.33
   231.65         11.48      31790.42          4.86
   231.66         11.48      31791.18          3.98
   231.67         11.48      31791.65          4.42
   231.68         11.48      31791.18          4.95
   231.69         11.48      31790.23          5.39
   231.70         11.48      31788.32          5.39
   231.71         11.48      31788.13          4.95
   231.72         11.48      31789.37          5.39
   231.73         11.48      31789.37          6.72
   231.74         11.48      31789.84          7.69
   231.75         11.48      31790.80          7.69
   231.76         11.49      31791.46          8.22
   231.77         11.49      31791.94          8.22
   231.78         11.49      31792.80          8.66
   231.79         11.49      31793.46          8.66
   231.80         11.49      31794.41          8.22
   231.81         11.49      31795.37          7.87
   231.82         11.49      31796.41          7.34
   231.83         11.49      31796.89          7.78
   231.84         11.49      31798.32          7.34
   231.85         11.48      31799.46          6.81
   231.86         11.48      31799.93          5.92
   231.87         11.48      31801.36          6.81
   231.88         11.49      31802.31          6.81
   231.89         11.49      31803.36          6.36
   231.90         11.49      31804.31          5.48
   231.91         11.49      31805.27          5.39
   231.92         11.49      31805.65          5.83
   231.93         11.50      31806.22          5.30
   231.94         11.50      31806.69          5.75
   231.95         11.50      31807.17          6.28
   231.96         11.50      31807.17          6.28
   231.97         11.49      31807.17          7.25
   231.98         11.49      31807.17          7.69
   231.99         11.49      31807.65          7.25
   232.00         11.48      31807.65          7.25
   232.01         11.48      31807.65          7.69
   232.02         11.48      31807.65          7.69
   232.03         11.48      31808.69          7.69
   232.04         11.48      31809.74          6.81
   232.05         11.49      31811.17          7.25
   232.06         11.49      31811.74          7.69
   232.07         11.49      31812.69          7.25
   232.08         11.49      31814.21          6.81
   232.09         11.49      31815.17          6.81
   232.10         11.49      31816.12          6.81
   232.11         11.49      31816.69          7.25
   232.12         11.49      31817.64          6.72
   232.13         11.49      31818.69          6.72
   232.14         11.49      31819.64          5.75
   232.15         11.48      31820.12          5.75
   232.16         11.48      31820.12          6.63
   232.17         11.48      31820.97          6.19
   232.18         11.48      31822.12          6.19
   232.19         11.48      31822.02          6.63
   232.20         11.48      31822.69          7.07
   232.21         11.48      31823.16          7.07
   232.22         11.48      31823.64          7.60
   232.23         11.48      31824.11          7.16
   232.24         11.48      31824.50          8.13
   232.25         11.47      31824.59          8.13
   232.26         11.47      31824.97          8.13
   232.27         11.47      31825.64         10.61
   232.28         11.47      31825.64         10.16
   232.29         11.47      31825.64         10.16
   232.30         11.48      31826.11         10.61
   232.31         11.48      31826.59         11.05
   232.32         11.49      31827.07         11.05
   232.33         11.49      31827.07         10.16
   232.34         11.49      31828.49         10.61
   232.35         11.49      31829.16         10.16
   232.36         11.49      31830.49          9.72
   232.37         11.49      31831.44         11.49
   232.38         11.49      31832.49         11.49
   232.39         11.49      31833.44         10.52
   232.40         11.49      31834.49         10.96
   232.41         11.49      31835.44         10.43
   232.42         11.49      31836.21         10.87
   232.43         11.49      31836.97         10.87
   232.44         11.49      31837.82          7.96
   232.45         11.49      31838.59          7.96
   232.46         11.49      31838.87          7.51
   232.47         11.49      31839.63          7.51
   232.48         11.49      31839.92          7.07
   232.49         11.49      31840.11          7.51
   232.50         11.50      31840.87          8.40
   232.51         11.50      31841.06          8.40
   232.52         11.50      31841.82          9.72
   232.53         11.49      31841.82          9.72
