#Written by Robertson Geologging WinLogger V1.5/410
~VERSION INFORMATION
#------------------------------------------------------------------------------
 VERS. 2.0 : CWLS LOG ASCII STANDARD - VERSION 2.0
 WRAP. NO  : ONE LINE PER DEPTH STEP
~WELL INFORMATION
#MNEM.UNIT         DATA                                DESCRIPTION OF MNEMONIC
#------------------------------------------------------------------------------
 STRT.M         -0.1900                            :   START DEPTH
 STOP.M        347.0100                            :   STOP DEPTH
 STEP.M          0.0100                            :   STEP VALUE
 NULL.        -999.2500                            :   NULL VALUE
 COMP.    geus                                     :   COMPANY NAME
 WELL.    dalbyover 1                              :   WELL NAME
 FLD.     bornholm                                 :   FIELD NAME
 LOC.     N/A                                      :   LOCATION
 PROV.    DK                                       :   PROVINCE
 SRVC.    N/A                                      :   SERVICE COMPANY NAME
 DATE.    16/12/13                                 :   DATE
 UWI.     N/A                                      :   UNIQUE WELL IDENTIFIER
~PARAMETER INFORMATION
#MNEMO.UNIT         VALUE                 DESCRIPTION OF MNEMONIC
#------------------------------------------------------------------------------
~OTHER INFORMATION SECTION
#------------------------------------------------------------------------------
~CURVE INFORMATION
#MNEMO.UNIT         API CODE              CURVE DESCRIPTION
#------------------------------------------------------------------------------
 DEPTH.M                                 :   0     Depth
 NGAM.API                                :   1     Natural Gamma
 COND.uScm                               :   2     Fluid Conductivity
 TEMP.DegC                               :   3     Fluid Temperature
#------------------------------------------------------------------------------
~A  DEPTH          NGAM          COND          TEMP
# ...
     1.35         65.41       -907.42       -542.45
     1.36         65.14       -815.59       -450.83
     1.37         64.61       -723.76       -359.21
     1.38         64.35       -631.94       -267.59
     1.39         63.02       -540.11       -175.97
     1.40         63.02       -448.28        -84.35
     1.41         60.37       -356.45          7.27
     1.42         59.66       -264.62          8.13
     1.43         59.22       -172.79          8.56
     1.44         59.57        -80.96          8.57
     1.45         60.72         10.86          8.58
     1.46         61.17         10.86          8.58
     1.47         62.14         10.86          8.58
     1.48         60.99         10.86          8.58
     1.49         60.02         10.86          8.58
     1.50         57.98         10.86          8.57
     1.51         59.04         10.86          8.57
     1.52         59.13         10.86          8.57
     1.53         58.78         10.86          8.57
     1.54         59.04         10.86          8.57
     1.55         58.96         10.86          8.57
     1.56         57.90         10.86          8.57
     1.57         56.75         10.86          8.57
     1.58         55.95         10.86          8.57
     1.59         56.04         10.86          8.56
     1.60         55.16         10.86          8.56
     1.61         55.60         10.86          8.56
     1.62         54.18         10.86          8.56
     1.63         52.68         10.86          8.56
     1.64         52.68         10.86          8.56
     1.65         52.42         10.86          8.56
     1.66         52.06         10.86          8.56
     1.67         51.09         10.86          8.56
     1.68         49.50         10.86          8.56
     1.69         46.67         10.86          8.56
     1.70         45.08         10.86          8.55
     1.71         45.79         10.86          8.55
     1.72         45.61         10.86          8.55
     1.73         44.81         10.86          8.55
     1.74         44.11         10.86          8.55
     1.75         44.11         10.86          8.56
     1.76         45.79         10.86          8.56
     1.77         45.87         10.86          8.55
     1.78         45.52         10.86          8.55
     1.79         46.14         10.86          8.55
     1.80         47.20         10.86          8.55
     1.81         46.85         10.86          8.55
     1.82         47.20         10.86          8.55
     1.83         48.00         10.86          8.55
     1.84         49.76         10.86          8.55
     1.85         49.41         10.86          8.55
     1.86         50.12         10.86          8.55
     1.87         50.74         10.86          8.55
     1.88         50.29         10.86          8.55
     1.89         50.29         10.86          8.56
     1.90         51.53         10.86          8.56
     1.91         51.27         10.86          8.56
     1.92         53.30         10.86          8.55
     1.93         51.00         10.86          8.55
     1.94         49.41         10.86          8.55
     1.95         48.44         10.86          8.55
     1.96         48.70         10.86          8.55
     1.97         50.29         10.86          8.55
     1.98         50.56         10.86          8.55
     1.99         50.29         10.86          8.55
     2.00         50.38         10.86          8.55
     2.01         49.23         10.86          8.55
     2.02         50.12         10.86          8.55
     2.03         51.35         10.86          8.55
     2.04         49.23         10.86          8.55
     2.05         48.88         10.86          8.56
     2.06         48.08         10.86          8.56
     2.07         45.79         10.86          8.56
     2.08         44.55         10.86          8.56
     2.09         43.05         10.86          8.56
     2.10         42.69         10.86          8.56
     2.11         43.84         10.86          8.56
     2.12         42.96         10.86          8.56
     2.13         42.34         10.86          8.56
     2.14         39.69         10.86          8.56
     2.15         39.16         10.86          8.56
     2.16         40.48         10.86          8.56
     2.17         39.42         10.86          8.56
     2.18         38.71         10.86          8.56
     2.19         38.18         10.86          8.56
     2.20         36.95         10.86          8.56
     2.21         39.25         10.86          8.56
     2.22         38.01         10.86          8.55
     2.23         36.51         10.86          8.55
     2.24         37.83         10.86          8.55
     2.25         39.60         10.86          8.55
     2.26         38.89         10.86          8.54
     2.27         39.95         10.86          8.54
     2.28         38.71         10.86          8.54
     2.29         38.71         10.86          8.54
     2.30         36.95         10.86          8.54
     2.31         35.89         10.86          8.55
     2.32         36.24         10.86          8.56
     2.33         33.15         10.86          8.56
     2.34         33.32         10.86          8.57
     2.35         32.79         10.86          8.57
     2.36         31.56         10.86          8.57
     2.37         31.56         10.86          8.57
     2.38         30.05         10.86          8.57
     2.39         30.05         10.86          8.57
     2.40         30.14         10.86          8.57
     2.41         28.82         10.86          8.57
     2.42         28.55         10.86          8.56
     2.43         29.79         10.86          8.56
     2.44         27.40         10.86          8.55
     2.45         27.22         10.86          8.55
     2.46         26.52         10.86          8.54
     2.47         27.14         10.86          8.55
     2.48         26.34         10.86          8.55
     2.49         24.75         10.86          8.55
     2.50         25.01         10.86          8.55
     2.51         25.01         10.86          8.55
     2.52         25.28         10.86          8.55
     2.53         25.19         10.86          8.56
     2.54         24.48         10.86          8.56
     2.55         23.42         10.86          8.56
     2.56         25.19         10.86          8.56
     2.57         25.28         10.86          8.56
     2.58         25.90         10.86          8.55
     2.59         24.57         10.86          8.55
     2.60         23.25         10.86          8.55
     2.61         24.13         10.86          8.55
     2.62         24.31         10.86          8.55
     2.63         25.54         10.86          8.54
     2.64         25.81         10.86          8.54
     2.65         27.14         10.86          8.54
     2.66         26.69         10.86          8.54
     2.67         26.43         10.86          8.54
     2.68         25.63         10.86          8.54
     2.69         25.19         10.86          8.55
     2.70         25.46         10.86          8.55
     2.71         25.90         10.86          8.55
     2.72         27.05         10.86          8.55
     2.73         27.31         10.86          8.55
     2.74         28.11         10.86          8.55
     2.75         28.11         10.86          8.56
     2.76         28.37         10.86          8.56
     2.77         27.05         10.86          8.56
     2.78         27.49         10.86          8.56
     2.79         27.05         10.86          8.57
     2.80         25.01         10.86          8.57
     2.81         24.66         10.86          8.57
     2.82         24.22         10.86          8.57
     2.83         25.01         10.86          8.58
     2.84         24.93         10.86          8.58
     2.85         24.22         10.86          8.58
     2.86         23.95         10.86          8.58
     2.87         24.22         10.86          8.57
     2.88         25.28         10.86          8.57
