#Written by Robertson Geologging WinLogger V1.5/410
~VERSION INFORMATION
#------------------------------------------------------------------------------
 VERS. 2.0 : CWLS LOG ASCII STANDARD - VERSION 2.0
 WRAP. NO  : ONE LINE PER DEPTH STEP
~WELL INFORMATION
#MNEM.UNIT         DATA                                DESCRIPTION OF MNEMONIC
#------------------------------------------------------------------------------
 STRT.M          0.0000                            :   START DEPTH
 STOP.M        347.5900                            :   STOP DEPTH
 STEP.M          0.0100                            :   STEP VALUE
 NULL.        -999.2500                            :   NULL VALUE
 COMP.    GEUSd.                                   :   COMPANY NAME
 WELL.    59.459                                   :   WELL NAME
 FLD.     Jylland                                  :   FIELD NAME
 LOC.     N/A                                      :   LOCATION
 PROV.    N/A                                      :   PROVINCE
 SRVC.    N/A                                      :   SERVICE COMPANY NAME
 DATE.    26 May 14                                :   DATE
 UWI.     N/A                                      :   UNIQUE WELL IDENTIFIER
~PARAMETER INFORMATION
#MNEMO.UNIT         VALUE                 DESCRIPTION OF MNEMONIC
#------------------------------------------------------------------------------
~OTHER INFORMATION SECTION
#------------------------------------------------------------------------------
~CURVE INFORMATION
#MNEMO.UNIT         API CODE              CURVE DESCRIPTION
#------------------------------------------------------------------------------
 DEPTH.M                                 :   0     Depth
 TEMP.DegC                               :   1     Fluid Temperature
 COND.uScm                               :   2     Fluid Conductivity
 NGAM.API                                :   3     Natural Gamma
#------------------------------------------------------------------------------
~A  DEPTH          TEMP          COND          NGAM
# ...
    93.94          8.82        329.07         16.00
    93.95          8.83        329.07         16.00
    93.96          8.83        328.99         15.56
    93.97          8.83        329.07         14.67
    93.98          8.83        329.47         15.03
    93.99          8.83        328.99         14.05
    94.00          8.83        328.99         13.61
    94.01          8.84        328.99         14.58
    94.02          8.84        328.99         15.11
    94.03          8.84        328.91         14.05
    94.04          8.84        328.99         13.61
    94.05          8.83        329.07         15.03
    94.06          8.83        328.99         14.05
    94.07          8.84        329.07         12.55
    94.08          8.84        329.07         13.44
    94.09          8.84        328.66         12.46
    94.10          8.84        329.47         12.46
    94.11          8.84        328.99         13.44
    94.12          8.84        329.07         13.44
    94.13          8.84        329.07         12.90
    94.14          8.83        329.07         13.88
    94.15          8.84        329.07         13.97
    94.16          8.84        329.07         14.50
    94.17          8.84        329.07         15.47
    94.18          8.83        329.07         15.91
    94.19          8.83        329.07         16.71
    94.20          8.83        329.55         15.82
    94.21          8.83        329.15         15.82
    94.22          8.83        329.63         15.38
    94.23          8.83        329.63         15.82
    94.24          8.83        329.55         15.38
    94.25          8.83        329.63         14.50
    94.26          8.83        329.63         14.94
    94.27          8.84        329.63         14.50
    94.28          8.84        329.63         14.41
    94.29          8.84        329.63         15.38
    94.30          8.84        329.15         14.94
    94.31          8.84        329.15         14.41
    94.32          8.84        329.23         13.44
    94.33          8.84        329.15         13.88
    94.34          8.84        329.15         13.88
    94.35          8.84        329.23         13.88
    94.36          8.84        329.23         12.99
    94.37          8.83        329.23         13.97
    94.38          8.83        329.15         15.47
    94.39          8.83        329.23         15.47
    94.40          8.83        328.74         15.47
    94.41          8.83        329.23         15.91
    94.42          8.83        329.23         17.41
    94.43          8.83        329.15         16.97
    94.44          8.83        329.23         16.00
    94.45          8.83        329.23         15.56
    94.46          8.83        329.23         15.03
    94.47          8.83        329.23         15.47
    94.48          8.83        328.74         15.47
    94.49          8.83        328.74         15.03
    94.50          8.83        328.74         14.05
    94.51          8.83        329.23         13.08
    94.52          8.84        329.23         12.55
    94.53          8.84        329.15         13.08
    94.54          8.84        329.23         12.11
    94.55          8.84        329.23         10.61
    94.56          8.84        329.23          9.63
    94.57          8.84        328.74         10.16
    94.58          8.84        328.66         10.16
    94.59          8.84        329.15          8.66
    94.60          8.84        329.23          9.10
    94.61          8.84        329.23          9.55
    94.62          8.84        329.15          9.55
    94.63          8.84        329.15          9.10
    94.64          8.84        329.23          9.10
    94.65          8.84        328.74          9.10
    94.66          8.83        328.66          9.55
    94.67          8.83        328.66          9.55
    94.68          8.83        329.15         10.52
    94.69          8.84        329.23         10.08
    94.70          8.84        329.15          8.66
    94.71          8.84        329.15          9.63
    94.72          8.84        329.15          9.19
    94.73          8.84        329.15          9.19
    94.74          8.84        328.66          9.10
    94.75          8.83        328.58          8.66
    94.76          8.83        329.07          8.66
    94.77          8.83        329.15          8.22
    94.78          8.83        329.07          8.22
    94.79          8.83        329.07          8.31
    94.80          8.83        329.07          7.78
    94.81          8.83        329.15          9.55
    94.82          8.83        329.07         10.08
    94.83          8.83        328.58          9.63
    94.84          8.83        328.66          9.19
    94.85          8.83        329.15          9.55
    94.86          8.83        329.15          9.55
    94.87          8.84        329.15         10.96
    94.88          8.84        329.15          9.99
    94.89          8.84        329.15         11.93
    94.90          8.84        329.15         12.90
    94.91          8.84        328.66         12.02
    94.92          8.84        328.58         12.46
    94.93          8.84        328.66         13.44
    94.94          8.84        329.07         13.44
    94.95          8.84        329.07         13.44
    94.96          8.84        328.99         12.90
    94.97          8.84        329.07         12.90
    94.98          8.84        329.07         11.14
    94.99          8.84        329.07         10.16
    95.00          8.84        329.07         11.14
    95.01          8.84        329.07         11.14
    95.02          8.84        329.55          9.81
    95.03          8.84        329.15          9.81
    95.04          8.83        329.07          9.81
    95.05          8.83        329.15          9.81
    95.06          8.83        329.15          8.31
    95.07          8.83        329.15          8.31
    95.08          8.83        329.15          8.31
    95.09          8.83        329.15          8.75
    95.10          8.83        329.15          7.34
    95.11          8.83        329.15          7.34
    95.12          8.83        329.15          7.34
    95.13          8.83        328.66          7.34
    95.14          8.84        329.15          6.89
    95.15          8.84        329.15          6.89
    95.16          8.84        329.15          6.89
    95.17          8.85        329.15          5.92
    95.18          8.85        329.15          6.36
    95.19          8.85        329.15          6.36
    95.20          8.85        329.15          6.89
    95.21          8.85        329.15          5.48
    95.22          8.85        329.15          6.01
    95.23          8.85        328.66          6.01
    95.24          8.85        329.15          5.04
    95.25          8.85        329.07          5.04
    95.26          8.85        329.15          4.60
    95.27          8.84        329.15          5.48
    95.28          8.84        328.66          6.45
    95.29          8.84        328.74          6.98
    95.30          8.84        328.74          7.51
    95.31          8.84        328.66          8.40
    95.32          8.84        328.66          8.40
    95.33          8.84        328.74          9.81
    95.34          8.84        329.23         10.25
    95.35          8.84        329.15         10.25
    95.36          8.84        329.23         10.25
    95.37          8.84        329.23          9.28
    95.38          8.85        328.74          9.28
    95.39          8.85        329.15          9.19
    95.40          8.85        329.15          8.75
    95.41          8.84        329.15          8.75
    95.42          8.84        329.15          8.75
    95.43          8.85        329.15          8.75
    95.44          8.85        329.15          8.31
    95.45          8.85        329.15          8.31
    95.46          8.84        329.23          7.78
    95.47          8.84        328.74          7.25
