#Written by Robertson Geologging WinLogger V1.5/410
~VERSION INFORMATION
#------------------------------------------------------------------------------
 VERS. 2.0 : CWLS LOG ASCII STANDARD - VERSION 2.0
 WRAP. NO  : ONE LINE PER DEPTH STEP
~WELL INFORMATION
#MNEM.UNIT         DATA                                DESCRIPTION OF MNEMONIC
#------------------------------------------------------------------------------
 STRT.M        119.9900                            :   START DEPTH
 STOP.M          2.9000                            :   STOP DEPTH
 STEP.M         -0.0100                            :   STEP VALUE
 NULL.        -999.2500                            :   NULL VALUE
 COMP.    GEUSd.                                   :   COMPANY NAME
 WELL.    59.459                                   :   WELL NAME
 FLD.     Jylland                                  :   FIELD NAME
 LOC.     N/A                                      :   LOCATION
 PROV.    N/A                                      :   PROVINCE
 SRVC.    N/A                                      :   SERVICE COMPANY NAME
 DATE.    02 Jun 14                                :   DATE
 UWI.     N/A                                      :   UNIQUE WELL IDENTIFIER
~PARAMETER INFORMATION
#MNEMO.UNIT         VALUE                 DESCRIPTION OF MNEMONIC
#------------------------------------------------------------------------------
~OTHER INFORMATION SECTION
#------------------------------------------------------------------------------
~CURVE INFORMATION
#MNEMO.UNIT         API CODE              CURVE DESCRIPTION
#------------------------------------------------------------------------------
 DEPTH.M                                 :   0     Depth
 TIME.SEC                                :   1     Time
 TXRX1.µs                                :   2     TXRX1
 TXRX2.µs                                :   3     TXRX2
 TXRX3.µs                                :   4     TXRX3
 R1R2.KM/S                               :   5     R1R2
 R2R3.KM/S                               :   6     R2R3
 R1R3.KM/S                               :   7     R1R3
 OUT6.API                                :   8     Natural Gamma
#------------------------------------------------------------------------------
~A  DEPTH     TIME         TXRX1         TXRX2         TXRX3          R1R2          R2R3          R1R3          OUT6
# ...
    88.94  3152.05         79.29        103.00        126.14          8.43          8.64          8.54          8.32
    88.93  3152.82         79.57        103.71        125.86          8.28          9.03          8.64          8.38
    88.92  3153.99         79.71        104.29        125.57          8.14          9.40          8.72          8.24
    88.91  3155.30         80.00        104.86        125.29          8.05          9.79          8.83          8.11
    88.90  3156.43         80.43        105.29        125.00          8.05         10.14          8.97          7.92
    88.89  3157.50         80.57        105.86        124.86          7.91         10.53          9.03          7.72
    88.88  3158.56         80.71        105.57        124.57          8.05         10.53          9.12          7.93
    88.87  3159.59         80.86        105.29        124.43          8.19         10.45          9.18          7.81
    88.86  3160.61         81.00        105.29        124.57          8.24         10.37          9.18          7.84
    88.85  3161.64         81.14        104.43        124.57          8.59          9.93          9.21          7.90
    88.84  3162.69         81.14        103.71        124.57          8.86          9.59          9.21          8.22
    88.83  3163.74         81.00        103.14        124.57          9.03          9.33          9.18          8.80
    88.82  3164.79         81.00        102.57        124.57          9.27          9.09          9.18          8.79
    88.81  3165.84         81.00        102.00        123.71          9.52          9.21          9.36          8.83
    88.80  3166.89         81.00        101.43        124.00          9.79          8.86          9.30          9.14
    88.79  3167.94         80.86        100.86        124.14         10.00          8.59          9.24          8.97
    88.78  3168.99         80.71        101.14        124.43          9.79          8.59          9.15          8.88
    88.77  3170.04         80.57        101.29        123.86          9.66          8.86          9.24          8.74
    88.76  3171.09         80.57        101.29        123.57          9.66          8.97          9.30          8.71
    88.75  3172.05         80.71        101.14        123.86          9.79          8.81          9.27          8.84
    88.74  3173.10         80.86        101.00        125.14          9.93          8.28          9.03          8.83
    88.73  3174.16         80.86        101.00        125.29          9.93          8.24          9.00          8.83
    88.72  3175.31         80.86        100.86        125.43         10.00          8.14          8.97          8.90
    88.71  3176.37         80.71        100.86        125.43          9.93          8.14          8.95          8.63
    88.70  3177.51         80.43        100.86        126.57          9.79          7.78          8.67          8.39
    88.69  3178.57         80.00        101.00        127.29          9.52          7.61          8.46          8.50
    88.68  3179.42         79.29        101.14        127.43          9.15          7.61          8.31          8.44
    88.67  3180.48         78.57        101.57        127.43          8.70          7.73          8.19          8.65
    88.66  3181.31         78.00        101.71        127.71          8.43          7.69          8.05          8.46
    88.65  3182.26         77.57        101.86        127.71          8.24          7.73          7.98          8.71
    88.64  3183.42         77.29        102.14        127.86          8.05          7.78          7.91          8.65
    88.63  3184.37         77.14        102.43        128.00          7.91          7.82          7.87          8.35
    88.62  3185.33         77.00        102.43        128.29          7.87          7.73          7.80          8.51
    88.61  3186.53         77.00        102.57        128.57          7.82          7.69          7.76          8.26
    88.60  3187.58         77.14        102.57        129.00          7.87          7.57          7.71          8.26
    88.59  3188.61         77.14        102.57        129.00          7.87          7.57          7.71          8.10
    88.58  3189.66         77.14        102.86        129.29          7.78          7.57          7.67          8.22
    88.57  3190.71         77.29        102.86        129.43          7.82          7.53          7.67          8.54
    88.56  3191.75         77.29        102.86        129.57          7.82          7.49          7.65          8.14
    88.55  3192.82         77.43        103.00        129.71          7.82          7.49          7.65          8.33
    88.54  3193.87         77.57        103.14        129.71          7.82          7.53          7.67          8.20
    88.53  3194.91         77.57        103.29        129.71          7.78          7.57          7.67          8.38
    88.52  3195.95         77.57        103.71        129.86          7.65          7.65          7.65          8.25
    88.51  3197.01         77.71        103.86        129.86          7.65          7.69          7.67          8.10
    88.50  3198.06         77.43        104.14        130.00          7.49          7.73          7.61          7.76
    88.49  3199.11         77.29        104.29        130.00          7.41          7.78          7.59          7.87
    88.48  3200.12         77.00        104.43        130.00          7.29          7.82          7.55          7.73
    88.47  3201.18         76.86        104.43        130.00          7.25          7.82          7.53          7.83
    88.46  3202.21         76.71        104.43        130.00          7.22          7.82          7.51          7.81
    88.45  3203.26         76.71        104.29        130.00          7.25          7.78          7.51          8.00
    88.44  3204.31         76.57        104.14        129.86          7.25          7.78          7.51          8.07
    88.43  3205.35         76.57        104.00        129.71          7.29          7.78          7.53          8.27
    88.42  3206.38         76.43        104.00        129.71          7.25          7.78          7.51          8.46
    88.41  3207.43         76.29        104.00        129.57          7.22          7.82          7.51          8.78
    88.40  3208.47         76.14        104.00        129.43          7.18          7.87          7.51          8.71
    88.39  3209.51         76.00        104.00        129.29          7.14          7.91          7.51          9.09
    88.38  3210.55         75.71        104.00        129.14          7.07          7.95          7.49          8.94
    88.37  3211.61         75.29        103.86        129.14          7.00          7.91          7.43          8.87
    88.36  3212.65         74.86        103.71        129.14          6.93          7.87          7.37          8.62
    88.35  3213.72         74.86        103.57        129.00          6.97          7.87          7.39          8.56
    88.34  3214.76         74.86        103.14        129.00          7.07          7.73          7.39          8.58
    88.33  3215.69         74.86        103.00        129.00          7.11          7.69          7.39          8.40
    88.32  3216.74         74.71        102.71        129.00          7.14          7.61          7.37          8.36
    88.31  3217.80         74.71        102.29        129.00          7.25          7.49          7.37          8.12
    88.30  3218.83         74.86        102.00        129.00          7.37          7.41          7.39          8.09
    88.29  3219.88         75.14        101.71        129.00          7.53          7.33          7.43          8.18
    88.28  3220.92         75.14        101.43        129.00          7.61          7.25          7.43          7.92
    88.27  3221.99         75.00        101.43        129.00          7.57          7.25          7.41          7.86
    88.26  3223.07         75.29        101.00        129.00          7.78          7.14          7.45          7.81
