#Written by Robertson Geologging WinLogger V1.5/410
~VERSION INFORMATION
#------------------------------------------------------------------------------
 VERS. 2.0 : CWLS LOG ASCII STANDARD - VERSION 2.0
 WRAP. NO  : ONE LINE PER DEPTH STEP
~WELL INFORMATION
#MNEM.UNIT         DATA                                DESCRIPTION OF MNEMONIC
#------------------------------------------------------------------------------
 STRT.M        119.9900                            :   START DEPTH
 STOP.M          2.9000                            :   STOP DEPTH
 STEP.M         -0.0100                            :   STEP VALUE
 NULL.        -999.2500                            :   NULL VALUE
 COMP.    GEUSd.                                   :   COMPANY NAME
 WELL.    59.459                                   :   WELL NAME
 FLD.     Jylland                                  :   FIELD NAME
 LOC.     N/A                                      :   LOCATION
 PROV.    N/A                                      :   PROVINCE
 SRVC.    N/A                                      :   SERVICE COMPANY NAME
 DATE.    02 Jun 14                                :   DATE
 UWI.     N/A                                      :   UNIQUE WELL IDENTIFIER
~PARAMETER INFORMATION
#MNEMO.UNIT         VALUE                 DESCRIPTION OF MNEMONIC
#------------------------------------------------------------------------------
~OTHER INFORMATION SECTION
#------------------------------------------------------------------------------
~CURVE INFORMATION
#MNEMO.UNIT         API CODE              CURVE DESCRIPTION
#------------------------------------------------------------------------------
 DEPTH.M                                 :   0     Depth
 TIME.SEC                                :   1     Time
 TXRX1.µs                                :   2     TXRX1
 TXRX2.µs                                :   3     TXRX2
 TXRX3.µs                                :   4     TXRX3
 R1R2.KM/S                               :   5     R1R2
 R2R3.KM/S                               :   6     R2R3
 R1R3.KM/S                               :   7     R1R3
 OUT6.API                                :   8     Natural Gamma
#------------------------------------------------------------------------------
~A  DEPTH     TIME         TXRX1         TXRX2         TXRX3          R1R2          R2R3          R1R3          OUT6
# ...
    10.97 10051.72        118.00        162.29        309.29          4.52          1.36          2.09          6.13
    10.96 10052.38        118.14        163.57        305.00          4.40          1.41          2.14          6.02
    10.95 10053.04        121.14        210.57        338.00          2.24          1.57          1.84          6.36
    10.94 10053.70        121.29        208.71        319.71          2.29          1.80          2.02          6.80
    10.93 10054.36        121.14        206.29        320.71          2.35          1.75          2.00          6.80
    10.92 10055.02        121.14        193.71        333.00          2.76          1.44          1.89          7.13
    10.91 10055.67        125.29        187.57        323.00          3.21          1.48          2.02          7.00
    10.90 10056.31        123.43        194.86        300.57          2.80          1.89          2.26          7.00
    10.89 10056.96        123.43        193.86        309.57          2.84          1.73          2.15          6.66
    10.88 10057.61        123.43        135.00        290.00         17.28          1.29          2.40          6.43
    10.87 10058.27        123.43        137.43        318.57         14.29          1.10          2.05          7.00
    10.86 10058.92        123.43        139.71        325.43         12.28          1.08          1.98          7.57
    10.85 10059.58        121.14        150.71        297.00          6.76          1.37          2.27          8.25
    10.84 10060.23        120.29        158.71        323.00          5.20          1.22          1.97          7.67
    10.83 10060.89        122.43        152.71        323.00          6.60          1.17          1.99          7.90
    10.82 10061.54        122.71        136.29        287.43         14.74          1.32          2.43          7.89
    10.81 10062.20        122.71        149.00        291.71          7.61          1.40          2.37          7.55
    10.80 10062.85        122.71        127.00        291.57         46.67          1.22          2.37          8.33
    10.79 10063.49        122.86        128.71        279.43         34.15          1.33          2.55          8.08
    10.78 10064.15        125.14        124.57        251.71       -350.00          1.57          3.16          7.78
    10.77 10064.80        125.86        121.86        209.29        -50.00          2.29          4.79          7.52
    10.76 10065.45        125.86        126.00        180.29       1400.00          3.68          7.35          7.08
    10.75 10066.10        125.71        123.29        225.71        -82.35          1.95          4.00          6.97
    10.74 10066.69        125.86        122.43        226.43        -58.33          1.92          3.98          7.08
    10.73 10067.36        125.86        139.43        210.86         14.74          2.80          4.71          7.43
    10.72 10068.01        125.71        139.00        209.86         15.05          2.82          4.75          7.66
    10.71 10068.69        125.71        143.43        208.57         11.29          3.07          4.83          8.00
    10.70 10069.83        125.71        145.57        228.86         10.07          2.40          3.88          7.43
    10.69 10070.49        125.57        146.00        251.86          9.79          1.89          3.17          7.09
    10.68 10071.06        125.43        161.71        261.57          5.51          2.00          2.94          6.98
    10.67 10071.71        125.29        160.43        266.00          5.69          1.89          2.84          7.20
    10.66 10072.37        125.29        156.71        249.71          6.36          2.15          3.21          6.98
    10.65 10073.02        125.57        156.71        236.43          6.42          2.51          3.61          6.98
    10.64 10073.67        125.57        158.29        282.86          6.11          1.61          2.54          6.99
    10.63 10074.32        125.43        156.86        303.57          6.36          1.36          2.25          6.32
    10.62 10074.97        125.71        156.86        319.43          6.42          1.23          2.06          6.45
    10.61 10075.63        125.71        160.14        273.29          5.81          1.77          2.71          6.30
    10.60 10076.29        125.86        154.43        279.00          7.00          1.61          2.61          6.34
    10.59 10076.94        126.00        161.29        290.57          5.67          1.55          2.43          6.23
    10.58 10077.59        125.71        156.43        289.14          6.51          1.51          2.45          6.35
    10.57 10078.25        125.71        154.71        285.43          6.90          1.53          2.50          6.25
    10.56 10078.92        125.86        155.86        249.43          6.67          2.14          3.24          6.02
    10.55 10079.58        125.86        155.86        203.29          6.67          4.22          5.17          6.13
    10.54 10080.23        126.00        157.00        235.14          6.45          2.56          3.66          5.45
    10.53 10080.89        126.00        164.14        197.43          5.24          6.01          5.60          5.67
    10.52 10081.54        125.57        164.00        198.86          5.20          5.74          5.46          5.44
    10.51 10082.20        125.43        168.71        209.43          4.62          4.91          4.76          5.45
    10.50 10082.85        125.29        168.86        167.86          4.59       -200.00          9.40          5.33
    10.49 10083.51        125.43        168.86        185.14          4.61         12.28          6.70          5.33
    10.48 10084.17        125.43        168.86        235.29          4.61          3.01          3.64          5.33
    10.47 10084.82        125.43        167.57        197.00          4.75          6.80          5.59          5.22
    10.46 10085.47        125.57        165.14        219.86          5.05          3.66          4.24          5.99
    10.45 10086.13        125.86        165.14        218.29          5.09          3.76          4.33          6.55
    10.44 10086.78        126.14        165.14        224.00          5.13          3.40          4.09          6.67
    10.43 10087.45        126.29        163.86        265.14          5.32          1.97          2.88          6.55
    10.42 10088.11        126.14        162.29        274.29          5.53          1.79          2.70          7.01
    10.41 10088.76        126.14        163.43        228.29          5.36          3.08          3.92          6.66
    10.40 10089.41        126.14        160.00        285.43          5.91          1.59          2.51          6.55
    10.39 10090.06        126.00        162.29        285.71          5.51          1.62          2.50          6.77
    10.38 10090.71        126.00        162.71        291.29          5.45          1.56          2.42          6.77
    10.37 10091.38        126.00        162.86        294.29          5.43          1.52          2.38          7.44
    10.36 10092.04        126.00        164.29        280.43          5.22          1.72          2.59          8.13
    10.35 10092.70        126.00        164.57        275.14          5.19          1.81          2.68          8.24
    10.34 10093.36        125.86        163.43        291.14          5.32          1.57          2.42          8.47
    10.33 10094.02        125.86        168.29        243.86          4.71          2.65          3.39          8.70
    10.32 10094.67        125.86        166.86        219.14          4.88          3.83          4.29          9.15
    10.31 10095.32        125.71        167.86        218.71          4.75          3.93          4.30          9.38
    10.30 10095.98        125.43        167.71        205.71          4.73          5.26          4.98          9.60
    10.29 10096.64        125.43        167.57        201.71          4.75          5.86          5.24          9.06
