#Written by Robertson Geologging WinLogger V1.5/410
~VERSION INFORMATION
#------------------------------------------------------------------------------
 VERS. 2.0 : CWLS LOG ASCII STANDARD - VERSION 2.0
 WRAP. NO  : ONE LINE PER DEPTH STEP
~WELL INFORMATION
#MNEM.UNIT         DATA                                DESCRIPTION OF MNEMONIC
#------------------------------------------------------------------------------
 STRT.M        119.9900                            :   START DEPTH
 STOP.M          2.9000                            :   STOP DEPTH
 STEP.M         -0.0100                            :   STEP VALUE
 NULL.        -999.2500                            :   NULL VALUE
 COMP.    GEUSd.                                   :   COMPANY NAME
 WELL.    59.459                                   :   WELL NAME
 FLD.     Jylland                                  :   FIELD NAME
 LOC.     N/A                                      :   LOCATION
 PROV.    N/A                                      :   PROVINCE
 SRVC.    N/A                                      :   SERVICE COMPANY NAME
 DATE.    02 Jun 14                                :   DATE
 UWI.     N/A                                      :   UNIQUE WELL IDENTIFIER
~PARAMETER INFORMATION
#MNEMO.UNIT         VALUE                 DESCRIPTION OF MNEMONIC
#------------------------------------------------------------------------------
~OTHER INFORMATION SECTION
#------------------------------------------------------------------------------
~CURVE INFORMATION
#MNEMO.UNIT         API CODE              CURVE DESCRIPTION
#------------------------------------------------------------------------------
 DEPTH.M                                 :   0     Depth
 TIME.SEC                                :   1     Time
 TXRX1.µs                                :   2     TXRX1
 TXRX2.µs                                :   3     TXRX2
 TXRX3.µs                                :   4     TXRX3
 R1R2.KM/S                               :   5     R1R2
 R2R3.KM/S                               :   6     R2R3
 R1R3.KM/S                               :   7     R1R3
 OUT6.API                                :   8     Natural Gamma
#------------------------------------------------------------------------------
~A  DEPTH     TIME         TXRX1         TXRX2         TXRX3          R1R2          R2R3          R1R3          OUT6
# ...
    26.84  9005.95        125.57        166.14        299.14          4.93          1.50          2.30          8.17
    26.83  9006.60        125.71        166.14        299.43          4.95          1.50          2.30          8.18
    26.82  9007.25        125.86        166.14        302.14          4.96          1.47          2.27          7.96
    26.81  9007.89        125.86        164.86        300.71          5.13          1.47          2.29          7.73
    26.80  9008.55        125.86        165.14        268.14          5.09          1.94          2.81          7.62
    26.79  9009.21        125.71        166.29        241.14          4.93          2.67          3.47          7.49
    26.78  9009.87        125.71        167.14        262.57          4.83          2.10          2.92          7.83
    26.77  9010.53        125.86        165.86        230.57          5.00          3.09          3.82          7.72
    26.76  9011.19        125.86        167.00        225.71          4.86          3.41          4.01          7.38
    26.75  9011.84        125.86        165.57        221.43          5.04          3.58          4.19          7.55
    26.74  9012.50        126.14        165.29        232.14          5.11          2.99          3.77          7.77
    26.73  9013.15        126.14        165.71        267.00          5.05          1.97          2.84          8.10
    26.72  9013.81        126.00        167.14        283.00          4.86          1.73          2.55          8.89
    26.71  9014.47        126.00        166.86        283.57          4.90          1.71          2.54          9.00
    26.70  9015.13        125.86        166.71        342.29          4.90          1.14          1.85          9.10
    26.69  9015.78        126.00        165.14        306.29          5.11          1.42          2.22          8.89
    26.68  9016.44        125.86        166.57        291.14          4.91          1.61          2.42          9.56
    26.67  9017.10        125.71        168.00        295.29          4.73          1.57          2.36          9.56
    26.66  9017.77        125.57        168.86        255.71          4.62          2.30          3.07          9.42
    26.65  9018.43        125.57        168.86        293.29          4.62          1.61          2.39          9.42
    26.64  9019.08        125.71        169.86        266.14          4.53          2.08          2.85          9.76
    26.63  9019.73        125.57        171.14        249.57          4.39          2.55          3.23          9.87
    26.62  9020.40        125.29        171.29        318.00          4.35          1.36          2.08          9.86
    26.61  9021.06        125.29        170.00        319.29          4.47          1.34          2.06          9.63
    26.60  9021.71        125.43        169.86        309.43          4.50          1.43          2.17          9.99
    26.59  9022.31        125.43        169.86        319.86          4.50          1.33          2.06         10.67
    26.58  9023.17        125.57        170.00        289.00          4.50          1.68          2.45         10.45
    26.57  9023.83        125.43        169.00        334.71          4.59          1.21          1.91         10.22
    26.56  9024.48        125.86        168.14        310.86          4.73          1.40          2.16          9.88
    26.55  9025.13        126.14        168.29        282.86          4.75          1.75          2.55          9.79
    26.54  9025.79        126.29        168.43        264.57          4.75          2.08          2.89          9.56
    26.53  9026.45        126.14        167.29        263.57          4.86          2.08          2.91          9.46
    26.52  9027.10        126.29        166.14        262.71          5.02          2.07          2.93          9.67
    26.51  9027.75        126.14        164.43        281.14          5.22          1.71          2.58          9.81
    26.50  9028.41        126.29        165.43        294.00          5.11          1.56          2.39         10.03
    26.49  9029.07        126.00        165.43        302.43          5.07          1.46          2.27         10.24
    26.48  9029.74        125.71        165.57        306.14          5.02          1.42          2.22         10.76
    26.47  9030.39        125.71        166.86        303.14          4.86          1.47          2.25         10.40
    26.46  9031.04        125.57        168.00        314.14          4.71          1.37          2.12         10.30
    26.45  9031.70        125.57        168.14        333.57          4.70          1.21          1.92          9.86
    26.44  9032.36        125.57        169.57        343.43          4.55          1.15          1.84         10.08
    26.43  9033.01        125.57        169.71        337.71          4.53          1.19          1.89         10.08
    26.42  9033.67        125.86        169.43        319.71          4.59          1.33          2.06          9.74
    26.41  9034.33        126.14        169.14        276.86          4.65          1.86          2.65          9.97
    26.40  9034.98        126.00        168.86        297.71          4.67          1.55          2.33         10.20
    26.39  9035.63        126.00        169.14        306.57          4.64          1.46          2.22         10.75
    26.38  9036.30        125.71        170.14        282.00          4.50          1.79          2.56         10.29
    26.37  9036.93        125.86        168.71        230.14          4.67          3.26          3.84          9.96
    26.36  9037.58        125.71        168.71        228.71          4.65          3.33          3.88         10.30
    26.35  9038.24        125.71        168.57        232.71          4.67          3.12          3.74         10.30
    26.34  9038.89        125.43        168.43        283.57          4.65          1.74          2.53          9.73
    26.33  9039.54        125.43        167.71        293.29          4.73          1.59          2.38          9.75
    26.32  9040.18        125.57        166.14        270.57          4.93          1.92          2.76          9.21
    26.31  9040.84        125.71        164.86        266.00          5.11          1.98          2.85          9.03
    26.30  9041.49        125.57        166.57        282.86          4.88          1.72          2.54          9.16
    26.29  9042.16        125.43        166.71        258.86          4.84          2.17          3.00          9.15
    26.28  9042.82        125.29        166.86        252.57          4.81          2.33          3.14          9.38
    26.27  9043.50        125.29        168.57        235.71          4.62          2.98          3.62          9.61
    26.26  9044.19        125.29        168.14        210.71          4.67          4.70          4.68          9.61
    26.25  9044.84        125.29        168.29        219.29          4.65          3.92          4.26         10.38
    26.24  9045.49        125.57        169.57        233.86          4.55          3.11          3.69         10.16
    26.23  9046.13        125.43        169.43        245.14          4.55          2.64          3.34         10.29
    26.22  9046.77        125.57        169.14        234.43          4.59          3.06          3.67          9.96
    26.21  9047.42        125.43        169.29        267.71          4.56          2.03          2.81          9.73
    26.20  9048.07        125.57        169.14        263.57          4.59          2.12          2.90          9.84
    26.19  9048.72        125.71        170.43        313.57          4.47          1.40          2.13         10.25
    26.18  9049.37        125.57        171.71        278.14          4.33          1.88          2.62         10.37
    26.17  9050.03        125.29        170.29        278.00          4.44          1.86          2.62         10.48
    26.16  9050.70        125.71        169.14        240.43          4.61          2.81          3.49         10.14
