#Written by Robertson Geologging WinLogger V1.5/410
~VERSION INFORMATION
#------------------------------------------------------------------------------
 VERS. 2.0 : CWLS LOG ASCII STANDARD - VERSION 2.0
 WRAP. NO  : ONE LINE PER DEPTH STEP
~WELL INFORMATION
#MNEM.UNIT         DATA                                DESCRIPTION OF MNEMONIC
#------------------------------------------------------------------------------
 STRT.M        119.9900                            :   START DEPTH
 STOP.M          2.9000                            :   STOP DEPTH
 STEP.M         -0.0100                            :   STEP VALUE
 NULL.        -999.2500                            :   NULL VALUE
 COMP.    GEUSd.                                   :   COMPANY NAME
 WELL.    59.459                                   :   WELL NAME
 FLD.     Jylland                                  :   FIELD NAME
 LOC.     N/A                                      :   LOCATION
 PROV.    N/A                                      :   PROVINCE
 SRVC.    N/A                                      :   SERVICE COMPANY NAME
 DATE.    02 Jun 14                                :   DATE
 UWI.     N/A                                      :   UNIQUE WELL IDENTIFIER
~PARAMETER INFORMATION
#MNEMO.UNIT         VALUE                 DESCRIPTION OF MNEMONIC
#------------------------------------------------------------------------------
~OTHER INFORMATION SECTION
#------------------------------------------------------------------------------
~CURVE INFORMATION
#MNEMO.UNIT         API CODE              CURVE DESCRIPTION
#------------------------------------------------------------------------------
 DEPTH.M                                 :   0     Depth
 TIME.SEC                                :   1     Time
 TXRX1.µs                                :   2     TXRX1
 TXRX2.µs                                :   3     TXRX2
 TXRX3.µs                                :   4     TXRX3
 R1R2.KM/S                               :   5     R1R2
 R2R3.KM/S                               :   6     R2R3
 R1R3.KM/S                               :   7     R1R3
 OUT6.API                                :   8     Natural Gamma
#------------------------------------------------------------------------------
~A  DEPTH     TIME         TXRX1         TXRX2         TXRX3          R1R2          R2R3          R1R3          OUT6
# ...
   104.12  1429.96         76.43         99.86        122.00          8.54          9.03          8.78          7.62
   104.11  1431.15         76.57         99.86        121.71          8.59          9.15          8.86          7.61
   104.10  1432.35         76.71        100.00        121.43          8.59          9.33          8.95          7.92
   104.09  1433.56         76.86        100.00        121.29          8.64          9.40          9.00          7.88
   104.08  1434.68         76.71        100.00        121.14          8.59          9.46          9.00          8.50
   104.07  1435.73         76.57        100.00        121.00          8.54          9.52          9.00          8.54
   104.06  1436.95         76.57        100.00        121.14          8.54          9.46          8.97          8.70
   104.05  1438.28         76.57         99.86        121.29          8.59          9.33          8.95          8.59
   104.04  1439.42         76.43         99.57        121.43          8.64          9.15          8.89          8.29
   104.03  1440.55         76.43         99.00        121.57          8.86          8.86          8.86          7.77
   104.02  1441.67         76.43         98.43        121.71          9.09          8.59          8.83          7.51
   104.01  1442.81         76.57         97.71        121.86          9.46          8.28          8.83          7.19
   104.00  1444.05         76.71         96.86        122.00          9.93          7.95          8.83          7.37
   103.99  1445.30         76.86         96.29        122.00         10.29          7.78          8.86          7.06
   103.98  1446.45         76.86         95.43        122.00         10.77          7.53          8.86          7.31
   103.97  1447.60         77.00         95.43        122.00         10.85          7.53          8.89          7.36
   103.96  1448.74         77.00         95.86        122.00         10.61          7.65          8.89          7.49
   103.95  1449.90         76.86         96.29        122.00         10.29          7.78          8.86          7.36
   103.94  1451.06         76.43         96.71        122.00          9.86          7.91          8.78          7.17
   103.93  1452.51         75.86         97.43        121.86          9.27          8.19          8.70          6.98
   103.92  1453.55         75.14         97.86        121.71          8.81          8.38          8.59          6.99
   103.91  1454.79         74.43         98.71        121.57          8.24          8.75          8.48          6.57
   103.90  1456.04         73.86         99.00        121.43          7.95          8.92          8.41          6.46
   103.89  1457.19         73.29         99.14        121.29          7.73          9.03          8.33          6.65
   103.88  1458.37         73.00         99.14        121.14          7.65          9.09          8.31          6.71
   103.87  1459.51         72.86         99.43        121.00          7.53          9.27          8.31          6.84
   103.86  1460.64         73.00         99.43        121.00          7.57          9.27          8.33          7.22
   103.85  1461.78         73.29         99.43        121.00          7.65          9.27          8.38          6.97
   103.84  1462.91         73.57         99.43        120.86          7.73          9.33          8.46          7.10
   103.83  1464.05         73.86         99.29        120.86          7.87          9.27          8.51          6.88
   103.82  1465.21         74.14         99.00        120.86          8.05          9.15          8.56          6.95
   103.81  1466.39         74.14         98.86        120.71          8.09          9.15          8.59          7.15
   103.80  1467.52         74.43         98.57        120.57          8.28          9.09          8.67          7.59
   103.79  1468.65         74.57         98.43        120.43          8.38          9.09          8.72          7.83
   103.78  1469.80         74.86         98.14        120.29          8.59          9.03          8.81          7.70
   103.77  1470.94         75.14         97.86        120.14          8.81          8.97          8.89          7.64
   103.76  1472.10         75.29         97.57        120.00          8.97          8.92          8.95          7.58
   103.75  1473.24         75.29         97.43        119.86          9.03          8.92          8.97          7.37
   103.74  1474.38         75.43         97.29        119.71          9.15          8.92          9.03          7.19
   103.73  1475.52         75.43         97.14        119.57          9.21          8.92          9.06          7.69
   103.72  1476.67         75.43         97.14        119.57          9.21          8.92          9.06          7.65
   103.71  1477.82         75.29         97.14        119.57          9.15          8.92          9.03          7.89
   103.70  1478.75         75.14         97.14        119.43          9.09          8.97          9.03          8.00
   103.69  1480.21         75.00         97.29        119.29          8.97          9.09          9.03          7.87
   103.68  1481.23         75.00         97.43        119.14          8.92          9.21          9.06          8.05
   103.67  1481.80         75.00         97.43        119.14          8.92          9.21          9.06          8.18
   103.66  1483.06         75.00         97.43        119.14          8.92          9.21          9.06          8.27
   103.65  1484.33         75.00         97.29        119.00          8.97          9.21          9.09          8.20
   103.64  1485.37         75.00         97.43        118.86          8.92          9.33          9.12          7.94
   103.63  1486.74         75.00         97.43        119.00          8.92          9.27          9.09          7.37
   103.62  1487.91         75.00         97.43        119.00          8.92          9.27          9.09          7.18
   103.61  1488.83         75.00         97.43        119.00          8.92          9.27          9.09          7.18
   103.60  1489.79         75.00         97.57        119.14          8.86          9.27          9.06          7.24
   103.59  1490.95         75.00         97.71        119.29          8.81          9.27          9.03          7.30
   103.58  1492.15         75.00         97.86        119.43          8.75          9.27          9.00          7.59
   103.57  1493.32         75.14         97.86        119.57          8.81          9.21          9.00          7.61
   103.56  1494.50         75.29         98.00        119.71          8.81          9.21          9.00          7.05
   103.55  1495.68         75.43         98.00        119.86          8.86          9.15          9.00          6.89
   103.54  1496.85         75.57         98.00        120.00          8.92          9.09          9.00          6.91
   103.53  1498.06         75.71         98.00        120.00          8.97          9.09          9.03          6.81
   103.52  1499.24         75.86         98.00        120.00          9.03          9.09          9.06          6.77
   103.51  1500.42         76.00         98.00        120.00          9.09          9.09          9.09          6.60
   103.50  1501.62         76.14         98.00        119.86          9.15          9.15          9.15          6.79
   103.49  1502.81         76.29         98.14        119.86          9.15          9.21          9.18          6.68
   103.48  1504.01         76.43         98.29        119.86          9.15          9.27          9.21          6.82
   103.47  1505.21         76.57         98.43        119.86          9.15          9.33          9.24          6.70
   103.46  1506.40         76.71         98.57        119.86          9.15          9.40          9.27          6.72
   103.45  1507.61         76.86         98.57        119.86          9.21          9.40          9.30          6.88
   103.44  1508.87         77.00         98.57        120.00          9.27          9.33          9.30          6.91
