#Written by Robertson Geologging WinLogger V1.5/410
~VERSION INFORMATION
#------------------------------------------------------------------------------
 VERS. 2.0 : CWLS LOG ASCII STANDARD - VERSION 2.0
 WRAP. NO  : ONE LINE PER DEPTH STEP
~WELL INFORMATION
#MNEM.UNIT         DATA                                DESCRIPTION OF MNEMONIC
#------------------------------------------------------------------------------
 STRT.M        119.9900                            :   START DEPTH
 STOP.M          2.9000                            :   STOP DEPTH
 STEP.M         -0.0100                            :   STEP VALUE
 NULL.        -999.2500                            :   NULL VALUE
 COMP.    GEUSd.                                   :   COMPANY NAME
 WELL.    59.459                                   :   WELL NAME
 FLD.     Jylland                                  :   FIELD NAME
 LOC.     N/A                                      :   LOCATION
 PROV.    N/A                                      :   PROVINCE
 SRVC.    N/A                                      :   SERVICE COMPANY NAME
 DATE.    02 Jun 14                                :   DATE
 UWI.     N/A                                      :   UNIQUE WELL IDENTIFIER
~PARAMETER INFORMATION
#MNEMO.UNIT         VALUE                 DESCRIPTION OF MNEMONIC
#------------------------------------------------------------------------------
~OTHER INFORMATION SECTION
#------------------------------------------------------------------------------
~CURVE INFORMATION
#MNEMO.UNIT         API CODE              CURVE DESCRIPTION
#------------------------------------------------------------------------------
 DEPTH.M                                 :   0     Depth
 TIME.SEC                                :   1     Time
 TXRX1.µs                                :   2     TXRX1
 TXRX2.µs                                :   3     TXRX2
 TXRX3.µs                                :   4     TXRX3
 R1R2.KM/S                               :   5     R1R2
 R2R3.KM/S                               :   6     R2R3
 R1R3.KM/S                               :   7     R1R3
 OUT6.API                                :   8     Natural Gamma
#------------------------------------------------------------------------------
~A  DEPTH     TIME         TXRX1         TXRX2         TXRX3          R1R2          R2R3          R1R3          OUT6
# ...
    96.53  2304.26         78.14        101.86        125.29          8.43          8.54          8.48          8.96
    96.52  2305.39         78.14        101.86        125.14          8.43          8.59          8.51          8.96
    96.51  2306.52         78.00        101.86        125.00          8.38          8.64          8.51          9.15
    96.50  2307.66         78.00        101.86        125.00          8.38          8.64          8.51          8.78
    96.49  2308.76         78.00        102.00        125.00          8.33          8.70          8.51          8.51
    96.48  2309.90         77.86        102.00        125.00          8.28          8.70          8.48          8.49
    96.47  2311.01         77.86        102.00        125.14          8.28          8.64          8.46          8.41
    96.46  2312.15         77.86        102.00        125.14          8.28          8.64          8.46          8.47
    96.45  2313.26         77.86        102.00        125.14          8.28          8.64          8.46          8.02
    96.44  2314.38         77.86        102.00        125.14          8.28          8.64          8.46          8.34
    96.43  2315.83         77.71        102.00        125.14          8.24          8.64          8.43          8.19
    96.42  2317.07         77.71        102.00        125.29          8.24          8.59          8.41          8.22
    96.41  2318.18         77.71        101.86        125.29          8.28          8.54          8.41          8.42
    96.40  2319.30         77.57        101.71        125.14          8.28          8.54          8.41          8.96
    96.39  2320.43         77.57        101.71        125.14          8.28          8.54          8.41          8.83
    96.38  2321.57         77.57        101.71        125.29          8.28          8.48          8.38          8.86
    96.37  2322.70         77.57        101.71        125.29          8.28          8.48          8.38          8.78
    96.36  2323.84         77.71        101.71        125.29          8.33          8.48          8.41          8.33
    96.35  2324.97         77.71        101.71        125.29          8.33          8.48          8.41          8.00
    96.34  2326.11         77.86        101.86        125.43          8.33          8.48          8.41          7.86
    96.33  2327.25         78.00        102.00        125.43          8.33          8.54          8.43          8.17
    96.32  2328.36         78.14        102.00        125.57          8.38          8.48          8.43          8.36
    96.31  2329.48         78.14        102.00        125.57          8.38          8.48          8.43          8.56
    96.30  2330.61         78.29        102.00        125.71          8.43          8.43          8.43          8.42
    96.29  2331.75         78.43        102.00        125.71          8.48          8.43          8.46          8.21
    96.28  2332.92         78.57        102.00        125.71          8.54          8.43          8.48          8.29
    96.27  2334.03         78.71        102.00        125.57          8.59          8.48          8.54          8.22
    96.26  2335.18         79.00        102.00        125.57          8.70          8.48          8.59          8.67
    96.25  2336.32         79.00        102.00        125.43          8.70          8.54          8.62          8.52
    96.24  2337.47         79.14        102.00        125.29          8.75          8.59          8.67          7.99
    96.23  2338.60         79.14        102.00        125.14          8.75          8.64          8.70          7.49
    96.22  2339.77         79.14        102.14        125.14          8.70          8.70          8.70          7.49
    96.21  2340.93         79.00        102.29        125.00          8.59          8.81          8.70          7.33
    96.20  2342.12         78.86        102.43        125.14          8.48          8.81          8.64          7.32
    96.19  2343.33         78.57        102.43        125.29          8.38          8.75          8.56          7.01
    96.18  2344.49         78.43        102.57        125.43          8.28          8.75          8.51          6.94
    96.17  2345.64         78.14        102.71        125.57          8.14          8.75          8.43          7.07
    96.16  2346.75         77.86        102.86        125.57          8.00          8.81          8.38          6.88
    96.15  2347.87         77.71        102.86        125.71          7.95          8.75          8.33          6.90
    96.14  2348.97         77.57        102.86        125.86          7.91          8.70          8.28          6.86
    96.13  2350.11         77.43        102.86        125.86          7.87          8.70          8.26          6.98
    96.12  2351.24         77.43        102.86        125.86          7.87          8.70          8.26          7.11
    96.11  2352.37         77.43        102.71        125.71          7.91          8.70          8.28          7.08
    96.10  2353.48         77.57        102.71        125.71          7.95          8.70          8.31          6.70
    96.09  2354.62         77.71        102.71        125.86          8.00          8.64          8.31          6.38
    96.08  2355.73         77.71        102.71        125.86          8.00          8.64          8.31          6.97
    96.07  2356.86         77.86        102.57        126.00          8.09          8.54          8.31          6.96
    96.06  2357.97         78.00        102.57        126.14          8.14          8.48          8.31          7.20
    96.05  2359.10         78.00        102.57        126.29          8.14          8.43          8.28          7.14
    96.04  2360.23         78.00        102.57        126.57          8.14          8.33          8.24          7.19
    96.03  2361.34         78.00        102.43        126.71          8.19          8.24          8.21          7.19
    96.02  2362.48         78.00        102.29        126.86          8.24          8.14          8.19          7.45
    96.01  2363.61         78.00        102.14        127.14          8.28          8.00          8.14          7.32
    96.00  2364.74         78.00        102.14        127.14          8.28          8.00          8.14          7.39
    95.99  2365.87         78.00        102.00        127.29          8.33          7.91          8.12          7.26
    95.98  2367.00         78.00        102.00        127.43          8.33          7.87          8.09          7.13
    95.97  2368.15         78.00        102.14        127.43          8.28          7.91          8.09          6.76
    95.96  2369.31         78.00        102.29        127.43          8.24          7.95          8.09          6.87
    95.95  2370.54         78.00        102.43        127.43          8.19          8.00          8.09          7.02
    95.94  2371.67         78.00        102.57        127.29          8.14          8.09          8.12          6.98
    95.93  2372.82         78.00        102.86        127.29          8.05          8.19          8.12          7.17
    95.92  2373.95         78.00        103.14        127.00          7.95          8.38          8.16          7.45
    95.91  2375.12         78.00        103.43        126.71          7.87          8.59          8.21          7.19
    95.90  2376.29         77.86        103.57        126.71          7.78          8.64          8.19          7.79
    95.89  2377.43         77.86        103.71        126.57          7.73          8.75          8.21          7.67
    95.88  2378.54         77.86        103.86        126.43          7.69          8.86          8.24          7.81
    95.87  2379.69         77.86        104.00        126.43          7.65          8.92          8.24          7.54
    95.86  2380.82         78.00        104.00        126.43          7.69          8.92          8.26          7.69
    95.85  2381.97         78.14        103.86        126.43          7.78          8.86          8.28          8.08
