#Written by Robertson Geologging WinLogger V1.5/410
~VERSION INFORMATION
#------------------------------------------------------------------------------
 VERS. 2.0 : CWLS LOG ASCII STANDARD - VERSION 2.0
 WRAP. NO  : ONE LINE PER DEPTH STEP
~WELL INFORMATION
#MNEM.UNIT         DATA                                DESCRIPTION OF MNEMONIC
#------------------------------------------------------------------------------
 STRT.M        119.9900                            :   START DEPTH
 STOP.M          2.9000                            :   STOP DEPTH
 STEP.M         -0.0100                            :   STEP VALUE
 NULL.        -999.2500                            :   NULL VALUE
 COMP.    GEUSd.                                   :   COMPANY NAME
 WELL.    59.459                                   :   WELL NAME
 FLD.     Jylland                                  :   FIELD NAME
 LOC.     N/A                                      :   LOCATION
 PROV.    N/A                                      :   PROVINCE
 SRVC.    N/A                                      :   SERVICE COMPANY NAME
 DATE.    02 Jun 14                                :   DATE
 UWI.     N/A                                      :   UNIQUE WELL IDENTIFIER
~PARAMETER INFORMATION
#MNEMO.UNIT         VALUE                 DESCRIPTION OF MNEMONIC
#------------------------------------------------------------------------------
~OTHER INFORMATION SECTION
#------------------------------------------------------------------------------
~CURVE INFORMATION
#MNEMO.UNIT         API CODE              CURVE DESCRIPTION
#------------------------------------------------------------------------------
 DEPTH.M                                 :   0     Depth
 TIME.SEC                                :   1     Time
 TXRX1.µs                                :   2     TXRX1
 TXRX2.µs                                :   3     TXRX2
 TXRX3.µs                                :   4     TXRX3
 R1R2.KM/S                               :   5     R1R2
 R2R3.KM/S                               :   6     R2R3
 R1R3.KM/S                               :   7     R1R3
 OUT6.API                                :   8     Natural Gamma
#------------------------------------------------------------------------------
~A  DEPTH     TIME         TXRX1         TXRX2         TXRX3          R1R2          R2R3          R1R3          OUT6
# ...
    73.07  4792.99         75.14         99.57        129.71          8.19          6.64          7.33         10.08
    73.06  4794.01         74.86         99.43        129.57          8.14          6.64          7.31          9.93
    73.05  4795.05         74.71         99.29        129.43          8.14          6.64          7.31          9.59
    73.04  4796.11         75.00         99.00        129.29          8.33          6.60          7.37          9.30
    73.03  4797.19         74.86         99.00        129.14          8.28          6.64          7.37          9.52
    73.02  4798.27         74.86         98.71        129.00          8.38          6.60          7.39          9.43
    73.01  4799.37         74.86         98.71        129.00          8.38          6.60          7.39          9.08
    73.00  4800.40         74.71         98.29        129.00          8.48          6.51          7.37          8.95
    72.99  4801.45         74.86         99.71        129.00          8.05          6.83          7.39          8.89
    72.98  4802.46         75.00        101.14        128.71          7.65          7.25          7.45          9.09
    72.97  4803.48         74.86        101.29        128.57          7.57          7.33          7.45          9.19
    72.96  4804.52         74.86        102.43        128.43          7.25          7.69          7.47          9.49
    72.95  4805.56         74.57        102.57        128.14          7.14          7.82          7.47          9.46
    72.94  4806.58         74.14        102.29        127.71          7.11          7.87          7.47          9.49
    72.93  4807.52         74.14        102.29        126.71          7.11          8.19          7.61          9.50
    72.92  4808.57         74.00        100.71        126.43          7.49          7.78          7.63          9.42
    72.91  4809.63         73.57         98.86        125.00          7.91          7.65          7.78          9.64
    72.90  4810.66         73.43         98.86        124.86          7.87          7.69          7.78          9.05
    72.89  4811.58         73.29         97.43        124.71          8.28          7.33          7.78          8.84
    72.88  4812.70         73.43         97.43        123.86          8.33          7.57          7.93          8.91
    72.87  4813.75         73.86         97.43        123.00          8.48          7.82          8.14          8.77
    72.86  4814.78         73.86         97.57        124.00          8.43          7.57          7.98          9.06
    72.85  4815.83         73.86         97.29        124.00          8.54          7.49          7.98          8.78
    72.84  4816.87         74.14         97.29        124.57          8.64          7.33          7.93          9.35
    72.83  4817.88         74.14         97.29        124.71          8.64          7.29          7.91          9.26
    72.82  4818.90         74.14         97.14        123.71          8.70          7.53          8.07          9.91
    72.81  4819.93         74.29         97.00        124.86          8.81          7.18          7.91          9.87
    72.80  4820.97         74.14         97.00        126.29          8.75          6.83          7.67          9.79
    72.79  4822.01         74.14         96.57        126.43          8.92          6.70          7.65          9.36
    72.78  4823.04         74.14         96.71        126.86          8.86          6.64          7.59          9.22
    72.77  4824.07         74.14         97.00        128.29          8.75          6.39          7.39          9.00
    72.76  4825.11         74.14         96.71        127.14          8.86          6.57          7.55          8.79
    72.75  4826.14         74.14         96.57        127.29          8.92          6.51          7.53          9.00
    72.74  4827.19         74.00         96.57        126.29          8.86          6.73          7.65          8.48
    72.73  4828.23         74.00         96.57        124.86          8.86          7.07          7.87          8.84
    72.72  4829.27         74.00         96.86        123.57          8.75          7.49          8.07          8.97
    72.71  4830.27         74.00         96.86        123.86          8.75          7.41          8.02          8.82
    72.70  4831.29         74.00         96.71        124.00          8.81          7.33          8.00          9.23
    72.69  4832.33         74.00         96.71        124.00          8.81          7.33          8.00          8.87
    72.68  4833.37         74.00         97.00        125.57          8.70          7.00          7.76          8.87
    72.67  4834.41         74.14         97.29        127.00          8.64          6.73          7.57          8.23
    72.66  4835.44         74.29         97.43        128.71          8.64          6.39          7.35          8.09
    72.65  4836.58         74.43         97.71        130.29          8.59          6.14          7.16          7.79
    72.64  4837.73         74.57         98.00        130.00          8.54          6.25          7.22          8.09
    72.63  4838.67         74.71         98.14        129.00          8.54          6.48          7.37          8.30
    72.62  4839.71         74.86         98.14        129.57          8.59          6.36          7.31          8.66
    72.61  4840.75         74.86         97.86        128.43          8.70          6.54          7.47          8.38
    72.60  4841.79         74.86         97.14        127.43          8.97          6.60          7.61          9.24
    72.59  4842.83         74.86         97.00        127.00          9.03          6.67          7.67          9.45
    72.58  4843.88         74.71         96.71        126.57          9.09          6.70          7.71          9.24
    72.57  4844.91         74.57         96.57        126.29          9.09          6.73          7.73          9.82
    72.56  4845.95         74.57         98.14        126.71          8.48          7.00          7.67          9.96
    72.55  4846.98         74.57        100.14        127.29          7.82          7.37          7.59          9.76
    72.54  4848.03         74.71        102.00        127.71          7.33          7.78          7.55         10.12
    72.53  4849.07         74.57        103.29        127.86          6.97          8.14          7.51          9.71
    72.52  4850.11         74.29        104.00        127.43          6.73          8.54          7.53         10.08
    72.51  4851.14         74.14        104.71        126.86          6.54          9.03          7.59          9.79
    72.50  4852.18         73.86        105.43        126.29          6.33          9.59          7.63         10.15
    72.49  4853.22         73.57        104.43        125.57          6.48          9.46          7.69         11.26
    72.48  4854.25         73.14        104.00        124.86          6.48          9.59          7.73         10.75
    72.47  4855.28         73.00        103.71        124.43          6.51          9.66          7.78         10.42
    72.46  4856.30         72.86        104.29        124.14          6.36         10.07          7.80         10.89
    72.45  4857.35         73.00        105.00        123.86          6.25         10.61          7.87         11.02
    72.44  4858.37         74.71        105.57        123.43          6.48         11.20          8.21         11.51
    72.43  4859.40         76.71        106.00        123.29          6.83         11.57          8.59         11.30
    72.42  4860.42         77.57        106.43        123.29          6.93         11.86          8.75         11.66
    72.41  4861.46         78.43        106.00        123.29          7.25         11.57          8.92         12.17
    72.40  4862.47         79.29        105.29        123.00          7.69         11.29          9.15         12.54
    72.39  4863.53         79.43        104.71        122.71          7.91         11.11          9.24         13.07
