#Written by Robertson Geologging WinLogger V1.5/410
~VERSION INFORMATION
#------------------------------------------------------------------------------
 VERS. 2.0 : CWLS LOG ASCII STANDARD - VERSION 2.0
 WRAP. NO  : ONE LINE PER DEPTH STEP
~WELL INFORMATION
#MNEM.UNIT         DATA                                DESCRIPTION OF MNEMONIC
#------------------------------------------------------------------------------
 STRT.M        119.9900                            :   START DEPTH
 STOP.M          2.9000                            :   STOP DEPTH
 STEP.M         -0.0100                            :   STEP VALUE
 NULL.        -999.2500                            :   NULL VALUE
 COMP.    GEUSd.                                   :   COMPANY NAME
 WELL.    59.459                                   :   WELL NAME
 FLD.     Jylland                                  :   FIELD NAME
 LOC.     N/A                                      :   LOCATION
 PROV.    N/A                                      :   PROVINCE
 SRVC.    N/A                                      :   SERVICE COMPANY NAME
 DATE.    02 Jun 14                                :   DATE
 UWI.     N/A                                      :   UNIQUE WELL IDENTIFIER
~PARAMETER INFORMATION
#MNEMO.UNIT         VALUE                 DESCRIPTION OF MNEMONIC
#------------------------------------------------------------------------------
~OTHER INFORMATION SECTION
#------------------------------------------------------------------------------
~CURVE INFORMATION
#MNEMO.UNIT         API CODE              CURVE DESCRIPTION
#------------------------------------------------------------------------------
 DEPTH.M                                 :   0     Depth
 TIME.SEC                                :   1     Time
 TXRX1.µs                                :   2     TXRX1
 TXRX2.µs                                :   3     TXRX2
 TXRX3.µs                                :   4     TXRX3
 R1R2.KM/S                               :   5     R1R2
 R2R3.KM/S                               :   6     R2R3
 R1R3.KM/S                               :   7     R1R3
 OUT6.API                                :   8     Natural Gamma
#------------------------------------------------------------------------------
~A  DEPTH     TIME         TXRX1         TXRX2         TXRX3          R1R2          R2R3          R1R3          OUT6
# ...
    50.30  7069.99         72.00         93.71        117.43          9.21          8.43          8.81         11.46
    50.29  7070.97         72.43         93.57        118.00          9.46          8.19          8.78         11.23
    50.28  7071.96         72.86         94.29        119.00          9.33          8.09          8.67         11.01
    50.27  7072.95         73.43         94.71        120.14          9.40          7.87          8.56         11.30
    50.26  7073.94         74.29         95.29        119.29          9.52          8.33          8.89         11.15
    50.25  7074.91         75.29         95.86        118.14          9.72          8.97          9.33         11.16
    50.24  7075.88         76.14         96.14        117.29         10.00          9.46          9.72         11.02
    50.23  7076.88         76.43         96.57        116.86          9.93          9.86          9.89         11.00
    50.22  7077.87         76.43         97.29        115.71          9.59         10.85         10.18         11.13
    50.21  7078.85         76.43         96.71        114.43          9.86         11.29         10.53         10.89
    50.20  7079.84         76.43         97.43        114.00          9.52         12.07         10.65         10.59
    50.19  7080.83         76.14         98.43        114.00          8.97         12.84         10.57         10.74
    50.18  7081.82         75.71         99.43        114.71          8.43         13.08         10.26         10.91
    50.17  7082.82         75.57        100.00        115.00          8.19         13.33         10.14         10.86
    50.16  7083.81         75.71        100.71        115.00          8.00         14.00         10.18         10.64
    50.15  7084.82         75.86        100.86        115.43          8.00         13.73         10.11         10.50
    50.14  7085.80         76.00        102.14        116.14          7.65         14.29          9.96         10.71
    50.13  7086.77         76.71        101.86        116.43          7.95         13.73         10.07         10.81
    50.12  7087.75         76.86        101.14        117.43          8.24         12.28          9.86         10.81
    50.11  7088.75         76.71        100.14        117.57          8.54         11.48          9.79         10.95
    50.10  7089.76         76.57         99.86        118.71          8.59         10.61          9.49         10.67
    50.09  7090.74         76.43         99.29        119.14          8.75         10.07          9.36         11.03
    50.08  7091.82         76.71         98.29        119.86          9.27          9.27          9.27         10.96
    50.07  7092.81         76.71         97.86        121.57          9.46          8.43          8.92         10.66
    50.06  7093.79         76.29         97.86        123.43          9.27          7.82          8.48         10.53
    50.05  7094.78         75.86         97.57        124.29          9.21          7.49          8.26         10.47
    50.04  7095.77         76.00         97.71        126.29          9.21          7.00          7.95         10.56
    50.03  7096.77         75.71         97.29        125.86          9.27          7.00          7.98         10.95
    50.02  7097.78         75.14         97.14        127.00          9.09          6.70          7.71         11.07
    50.01  7098.82         74.86         97.71        126.71          8.75          6.90          7.71         10.86
    50.00  7099.86         74.71         97.57        125.57          8.75          7.14          7.87         10.61
    49.99  7100.84         74.29         97.14        124.57          8.75          7.29          7.95         10.84
    49.98  7101.83         74.14         96.43        123.71          8.97          7.33          8.07         10.82
    49.97  7102.81         73.57         96.14        122.00          8.86          7.73          8.26         10.38
    49.96  7103.78         73.57         95.86        121.86          8.97          7.69          8.28         10.52
    49.95  7104.77         73.86         96.14        120.57          8.97          8.19          8.56         10.98
    49.94  7105.74         74.00         96.14        120.14          9.03          8.33          8.67         10.68
    49.93  7106.74         73.43         96.14        120.00          8.81          8.38          8.59         10.51
    49.92  7107.73         72.86         96.57        119.86          8.43          8.59          8.51         10.21
    49.91  7108.76         72.86         97.43        121.14          8.14          8.43          8.28         10.35
    49.90  7109.77         72.71         97.71        121.29          8.00          8.48          8.24         10.41
    49.89  7110.76         72.57         97.57        121.43          8.00          8.38          8.19         10.35
    49.88  7111.54         72.43         97.43        121.71          8.00          8.24          8.12         10.59
    49.87  7112.28         72.00         97.57        122.43          7.82          8.05          7.93         10.89
    49.86  7112.98         72.29         97.86        122.57          7.82          8.09          7.95         10.89
    49.85  7113.99         73.00         97.86        122.71          8.05          8.05          8.05         11.15
    49.84  7114.87         73.29         97.86        121.29          8.14          8.54          8.33         11.08
    49.83  7115.85         73.43         97.86        121.29          8.19          8.54          8.36         11.32
    49.82  7116.84         73.29         98.71        121.14          7.87          8.92          8.36         11.45
    49.81  7117.82         73.57         99.14        121.00          7.82          9.15          8.43         12.00
    49.80  7118.82         73.86         99.29        119.86          7.87          9.72          8.70         12.52
    49.79  7119.79         74.57         99.43        119.86          8.05          9.79          8.83         12.38
    49.78  7120.77         74.86         99.57        119.86          8.09          9.86          8.89         12.07
    49.77  7121.76         74.71         99.86        119.86          7.95         10.00          8.86         12.46
    49.76  7122.74         75.29         99.71        120.00          8.19          9.86          8.95         12.38
    49.75  7123.70         75.57         99.86        120.29          8.24          9.79          8.95         11.94
    49.74  7124.68         74.71         99.71        120.57          8.00          9.59          8.72         11.80
    49.73  7125.67         75.29         99.57        122.00          8.24          8.92          8.56         11.95
    49.72  7126.66         75.86         99.57        122.57          8.43          8.70          8.56         12.31
    49.71  7127.65         76.29         98.86        122.57          8.86          8.43          8.64         12.29
    49.70  7128.65         77.43         98.71        122.71          9.40          8.33          8.83         11.99
    49.69  7129.64         78.14         99.14        122.71          9.52          8.48          8.97         12.00
    49.68  7130.61         79.00         99.29        122.71          9.86          8.54          9.15         11.60
    49.67  7131.58         80.57         99.57        123.86         10.53          8.24          9.24         11.41
    49.66  7132.67         81.71        100.14        123.29         10.85          8.64          9.62         11.47
    49.65  7133.56         81.71        100.57        123.71         10.61          8.64          9.52         11.49
    49.64  7134.65         82.57        105.71        123.14          8.64         11.48          9.86         11.21
    49.63  7135.63         83.29        109.71        122.71          7.57         15.38         10.14         11.20
    49.62  7136.62         82.86        115.71        122.71          6.09         28.57         10.04         10.75
