#Written by Robertson Geologging WinLogger V1.5/410
~VERSION INFORMATION
#------------------------------------------------------------------------------
 VERS. 2.0 : CWLS LOG ASCII STANDARD - VERSION 2.0
 WRAP. NO  : ONE LINE PER DEPTH STEP
~WELL INFORMATION
#MNEM.UNIT         DATA                                DESCRIPTION OF MNEMONIC
#------------------------------------------------------------------------------
 STRT.M        119.9900                            :   START DEPTH
 STOP.M          2.9000                            :   STOP DEPTH
 STEP.M         -0.0100                            :   STEP VALUE
 NULL.        -999.2500                            :   NULL VALUE
 COMP.    GEUSd.                                   :   COMPANY NAME
 WELL.    59.459                                   :   WELL NAME
 FLD.     Jylland                                  :   FIELD NAME
 LOC.     N/A                                      :   LOCATION
 PROV.    N/A                                      :   PROVINCE
 SRVC.    N/A                                      :   SERVICE COMPANY NAME
 DATE.    02 Jun 14                                :   DATE
 UWI.     N/A                                      :   UNIQUE WELL IDENTIFIER
~PARAMETER INFORMATION
#MNEMO.UNIT         VALUE                 DESCRIPTION OF MNEMONIC
#------------------------------------------------------------------------------
~OTHER INFORMATION SECTION
#------------------------------------------------------------------------------
~CURVE INFORMATION
#MNEMO.UNIT         API CODE              CURVE DESCRIPTION
#------------------------------------------------------------------------------
 DEPTH.M                                 :   0     Depth
 TIME.SEC                                :   1     Time
 TXRX1.µs                                :   2     TXRX1
 TXRX2.µs                                :   3     TXRX2
 TXRX3.µs                                :   4     TXRX3
 R1R2.KM/S                               :   5     R1R2
 R2R3.KM/S                               :   6     R2R3
 R1R3.KM/S                               :   7     R1R3
 OUT6.API                                :   8     Natural Gamma
#------------------------------------------------------------------------------
~A  DEPTH     TIME         TXRX1         TXRX2         TXRX3          R1R2          R2R3          R1R3          OUT6
# ...
     3.38 10525.38        123.43        115.29        195.57        -24.56          2.49          5.54         25.33
     3.37 10525.38        123.43        115.00        202.57        -23.73          2.28          5.05         26.18
     3.36 10525.38        123.43        125.43        232.14        100.00          1.87          3.68         26.51
     3.35 10525.38        123.57        116.43        255.00        -28.00          1.44          3.04         26.53
     3.34 10525.38        123.43        135.00        289.86         17.28          1.29          2.40         26.74
     3.33 10525.38        123.43        145.57        294.57          9.03          1.34          2.34         27.02
     3.32 10525.38        123.43        148.71        314.29          7.91          1.21          2.10         27.16
     3.31 10525.38        125.57        154.86        309.86          6.83          1.29          2.17         28.46
     3.30 10525.38        122.71        154.29        284.86          6.33          1.53          2.47         28.26
     3.29 10525.38        122.86        153.29        285.00          6.57          1.52          2.47         27.96
     3.28 10525.38        122.86        157.00        251.86          5.86          2.11          3.10         27.84
     3.27 10525.38        123.00        158.29        268.14          5.67          1.82          2.76         28.61
     3.26 10525.38        123.14        158.43        273.86          5.67          1.73          2.65         28.37
     3.25 10525.38        123.43        158.71        259.57          5.67          1.98          2.94         28.23
     3.24 10525.38        123.71        158.29        244.57          5.79          2.32          3.31         29.49
     3.23 10525.38        126.29        159.14        249.29          6.09          2.22          3.25         29.71
     3.22 10525.38        126.14        161.00        249.14          5.74          2.27          3.25         29.11
     3.21 10525.38        126.14        153.71        223.86          7.25          2.85          4.09         29.43
     3.20 10525.38        126.14        144.00        190.57         11.20          4.29          6.21         28.98
     3.19 10525.38        126.00        135.43        171.29         21.21          5.58          8.83         29.22
     3.18 10525.38        125.71        135.14        185.71         21.21          3.95          6.67         30.03
     3.17 10525.38        125.71        136.57        208.43         18.42          2.78          4.84         30.23
     3.16 10525.38        125.86        135.86        241.86         20.00          1.89          3.45         30.44
     3.15 10525.38        125.86        118.86        251.29        -28.57          1.51          3.19         30.64
     3.14 10525.38        125.86        135.71        277.29         20.29          1.41          2.64         29.80
     3.13 10525.38        125.71        136.86        296.71         17.95          1.25          2.34         30.02
     3.12 10525.38        125.86        146.00        275.71          9.93          1.54          2.67         30.88
     3.11 10525.38        125.86        145.71        282.86         10.07          1.46          2.55         30.96
     3.10 10525.38        125.86        139.86        301.86         14.29          1.23          2.27         30.58
     3.09 10525.38        125.86        140.00        268.86         14.14          1.55          2.80         31.03
     3.08 10525.38        125.86        154.14        254.57          7.07          1.99          3.11         31.73
     3.07 10525.38        125.71        154.57        259.14          6.93          1.91          3.00         31.49
     3.06 10525.38        125.71        161.71        250.29          5.56          2.26          3.21         31.50
     3.05 10525.38        125.57        161.14        290.71          5.62          1.54          2.42         32.11
     3.04 10525.38        125.57        161.71        283.14          5.53          1.65          2.54         31.43
     3.03 10525.38        125.57        167.71        278.86          4.75          1.80          2.61         31.16
     3.02 10525.38        125.57        167.43        253.14          4.78          2.33          3.14         31.37
     3.01 10525.38        125.43        168.29        233.57          4.67          3.06          3.70         30.71
     3.00 10525.38        125.57        169.43        223.71          4.56          3.68          4.08         30.50
     2.99 10525.38        125.71        170.86        217.71          4.43          4.27          4.35         30.63
     2.98 10525.38        125.86        171.00        224.86          4.43          3.71          4.04         29.95
     2.97 10525.38        126.00        172.29        237.14          4.32          3.08          3.60         30.68
     2.96 10525.38        126.00        171.00        265.71          4.44          2.11          2.86         31.61
     2.95 10525.38        126.14        169.57        328.57          4.61          1.26          1.98         31.58
     2.94 10525.38        126.14        169.71        353.86          4.59          1.09          1.76         31.11
     2.93 10525.38        126.14        168.29        368.00          4.75          1.00          1.65         31.24
     2.92 10525.38        126.14        166.71        369.86          4.93          0.98          1.64         30.99
     2.91 10525.38        126.00        167.86        335.71          4.78          1.19          1.91         29.97
     2.90 10525.38        125.71        166.57        312.00          4.90          1.38          2.15         29.51
