#Written by Robertson Geologging WinLogger V1.5/410
~VERSION INFORMATION
#------------------------------------------------------------------------------
 VERS. 2.0 : CWLS LOG ASCII STANDARD - VERSION 2.0
 WRAP. NO  : ONE LINE PER DEPTH STEP
~WELL INFORMATION
#MNEM.UNIT         DATA                                DESCRIPTION OF MNEMONIC
#------------------------------------------------------------------------------
 STRT.M        119.9900                            :   START DEPTH
 STOP.M          2.9000                            :   STOP DEPTH
 STEP.M         -0.0100                            :   STEP VALUE
 NULL.        -999.2500                            :   NULL VALUE
 COMP.    GEUSd.                                   :   COMPANY NAME
 WELL.    59.459                                   :   WELL NAME
 FLD.     Jylland                                  :   FIELD NAME
 LOC.     N/A                                      :   LOCATION
 PROV.    N/A                                      :   PROVINCE
 SRVC.    N/A                                      :   SERVICE COMPANY NAME
 DATE.    02 Jun 14                                :   DATE
 UWI.     N/A                                      :   UNIQUE WELL IDENTIFIER
~PARAMETER INFORMATION
#MNEMO.UNIT         VALUE                 DESCRIPTION OF MNEMONIC
#------------------------------------------------------------------------------
~OTHER INFORMATION SECTION
#------------------------------------------------------------------------------
~CURVE INFORMATION
#MNEMO.UNIT         API CODE              CURVE DESCRIPTION
#------------------------------------------------------------------------------
 DEPTH.M                                 :   0     Depth
 TIME.SEC                                :   1     Time
 TXRX1.µs                                :   2     TXRX1
 TXRX2.µs                                :   3     TXRX2
 TXRX3.µs                                :   4     TXRX3
 R1R2.KM/S                               :   5     R1R2
 R2R3.KM/S                               :   6     R2R3
 R1R3.KM/S                               :   7     R1R3
 OUT6.API                                :   8     Natural Gamma
#------------------------------------------------------------------------------
~A  DEPTH     TIME         TXRX1         TXRX2         TXRX3          R1R2          R2R3          R1R3          OUT6
# ...
    65.48  5563.15         67.43         91.43        114.57          8.33          8.64          8.48          8.52
    65.47  5564.15         67.57         91.29        114.43          8.43          8.64          8.54          8.68
    65.46  5565.13         67.43         91.14        114.29          8.43          8.64          8.54          8.38
    65.45  5566.14         67.29         91.14        114.00          8.38          8.75          8.56          8.53
    65.44  5567.14         67.29         91.14        113.71          8.38          8.86          8.62          8.85
    65.43  5568.13         67.14         91.00        113.57          8.38          8.86          8.62          9.08
    65.42  5569.13         67.14         90.71        113.43          8.48          8.81          8.64          9.30
    65.41  5570.14         67.14         90.57        113.29          8.54          8.81          8.67          9.30
    65.40  5571.14         66.86         90.43        113.14          8.48          8.81          8.64          9.17
    65.39  5572.13         66.86         90.14        113.00          8.59          8.75          8.67          9.52
    65.38  5573.12         66.86         89.86        112.86          8.70          8.70          8.70          9.45
    65.37  5574.12         66.86         89.57        112.57          8.81          8.70          8.75          9.59
    65.36  5575.12         66.86         89.43        112.43          8.86          8.70          8.78          9.37
    65.35  5576.23         66.86         89.29        112.14          8.92          8.75          8.83          9.07
    65.34  5577.23         66.86         89.14        111.86          8.97          8.81          8.89          9.07
    65.33  5578.22         66.86         89.14        111.71          8.97          8.86          8.92          8.85
    65.32  5579.21         66.86         89.14        111.57          8.97          8.92          8.95          9.07
    65.31  5580.21         66.71         89.14        111.71          8.92          8.86          8.89          9.08
    65.30  5581.21         66.57         89.14        112.00          8.86          8.75          8.81          9.14
    65.29  5582.22         66.57         89.14        112.14          8.86          8.70          8.78          9.74
    65.28  5583.23         66.71         89.14        112.29          8.92          8.64          8.78          9.73
    65.27  5584.22         67.43         89.14        112.57          9.21          8.54          8.86          9.71
    65.26  5585.22         68.29         89.00        113.43          9.66          8.19          8.86          9.49
    65.25  5586.22         68.86         89.14        114.29          9.86          7.95          8.81          9.72
    65.24  5587.23         69.43         89.14        115.14         10.14          7.69          8.75          9.87
    65.23  5588.24         70.00         89.43        115.86         10.29          7.57          8.72          9.89
    65.22  5589.23         70.43         89.43        116.43         10.53          7.41          8.70          9.32
    65.21  5590.23         70.71         89.71        117.14         10.53          7.29          8.62          9.38
    65.20  5591.23         70.57         91.57        116.43          9.52          8.05          8.72          9.08
    65.19  5592.23         70.29         92.29        114.71          9.09          8.92          9.00          8.95
    65.18  5593.24         70.14         93.00        112.86          8.75         10.07          9.36          9.01
    65.17  5594.25         70.29         93.57        110.71          8.59         11.67          9.89          8.70
    65.16  5595.26         70.43         93.71        109.00          8.59         13.08         10.37          8.56
    65.15  5596.27         70.57         94.14        107.43          8.48         15.05         10.85          8.51
    65.14  5597.28         70.86         94.00        106.00          8.64         16.67         11.38          8.22
    65.13  5598.29         71.00         92.29        107.00          9.40         13.59         11.11          8.24
    65.12  5599.30         71.29         91.71        106.29          9.79         13.73         11.43          7.79
    65.11  5600.31         71.71         91.00        107.29         10.37         12.28         11.24          7.73
    65.10  5601.31         72.00         90.29        108.29         10.94         11.11         11.02          7.96
    65.09  5602.31         72.29         89.71        109.00         11.48         10.37         10.89          7.81
    65.08  5603.32         72.57         89.14        109.71         12.07          9.72         10.77          7.44
    65.07  5604.33         72.57         88.71        110.14         12.39          9.33         10.65          7.25
    65.06  5605.34         72.71         88.29        109.43         12.84          9.46         10.89          7.24
    65.05  5606.33         72.71         88.00        110.57         13.08          8.86         10.57          7.39
    65.04  5607.34         72.43         87.71        110.14         13.08          8.92         10.61          7.40
    65.03  5608.33         72.14         87.71        109.86         12.84          9.03         10.61          7.78
    65.02  5609.33         71.86         87.71        109.57         12.61          9.15         10.61          7.90
    65.01  5610.33         71.43         87.71        109.29         12.28          9.27         10.57          7.69
    65.00  5611.34         71.14         87.86        109.14         11.97          9.40         10.53          8.00
    64.99  5612.37         70.43         88.14        109.14         11.29          9.52         10.33          8.23
    64.98  5613.40         69.86         88.29        108.86         10.85          9.72         10.26          8.28
    64.97  5614.45         69.43         88.43        108.57         10.53          9.93         10.22          8.38
    64.96  5615.53         69.00         88.57        108.43         10.22         10.07         10.14          8.45
    64.95  5616.51         68.57         88.71        108.14          9.93         10.29         10.11          8.66
    64.94  5617.52         68.43         89.00        107.71          9.72         10.69         10.18          8.36
    64.93  5618.51         68.29         89.29        107.14          9.52         11.20         10.29          7.91
    64.92  5619.48         68.43         89.29        106.71          9.59         11.48         10.45          8.06
    64.91  5620.47         68.57         89.43        106.43          9.59         11.76         10.57          8.28
    64.90  5621.48         68.71         89.71        106.29          9.52         12.07         10.65          8.47
    64.89  5622.50         68.71         90.00        106.00          9.40         12.50         10.73          8.75
    64.88  5623.52         68.71         90.29        105.86          9.27         12.84         10.77          8.81
    64.87  5624.51         68.57         90.14        105.86          9.27         12.73         10.73          8.89
    64.86  5625.09         68.43         89.86        106.14          9.33         12.28         10.61          8.68
    64.85  5626.71         68.29         89.43        106.29          9.46         11.86         10.53          8.61
    64.84  5627.70         68.14         88.71        106.86          9.72         11.02         10.33          8.75
    64.83  5628.71         68.00         88.00        107.43         10.00         10.29         10.14          8.90
    64.82  5629.71         68.00         87.29        108.43         10.37          9.46          9.89          8.82
    64.81  5630.72         68.00         86.71        108.29         10.69          9.27          9.93          8.24
    64.80  5631.70         68.14         86.29        108.43         11.02          9.03          9.93          8.41
