#Written by Robertson Geologging WinLogger V1.5/410
~VERSION INFORMATION
#------------------------------------------------------------------------------
 VERS. 2.0 : CWLS LOG ASCII STANDARD - VERSION 2.0
 WRAP. NO  : ONE LINE PER DEPTH STEP
~WELL INFORMATION
#MNEM.UNIT         DATA                                DESCRIPTION OF MNEMONIC
#------------------------------------------------------------------------------
 STRT.M        119.9900                            :   START DEPTH
 STOP.M          2.9000                            :   STOP DEPTH
 STEP.M         -0.0100                            :   STEP VALUE
 NULL.        -999.2500                            :   NULL VALUE
 COMP.    GEUSd.                                   :   COMPANY NAME
 WELL.    59.459                                   :   WELL NAME
 FLD.     Jylland                                  :   FIELD NAME
 LOC.     N/A                                      :   LOCATION
 PROV.    N/A                                      :   PROVINCE
 SRVC.    N/A                                      :   SERVICE COMPANY NAME
 DATE.    02 Jun 14                                :   DATE
 UWI.     N/A                                      :   UNIQUE WELL IDENTIFIER
~PARAMETER INFORMATION
#MNEMO.UNIT         VALUE                 DESCRIPTION OF MNEMONIC
#------------------------------------------------------------------------------
~OTHER INFORMATION SECTION
#------------------------------------------------------------------------------
~CURVE INFORMATION
#MNEMO.UNIT         API CODE              CURVE DESCRIPTION
#------------------------------------------------------------------------------
 DEPTH.M                                 :   0     Depth
 TIME.SEC                                :   1     Time
 TXRX1.µs                                :   2     TXRX1
 TXRX2.µs                                :   3     TXRX2
 TXRX3.µs                                :   4     TXRX3
 R1R2.KM/S                               :   5     R1R2
 R2R3.KM/S                               :   6     R2R3
 R1R3.KM/S                               :   7     R1R3
 OUT6.API                                :   8     Natural Gamma
#------------------------------------------------------------------------------
~A  DEPTH     TIME         TXRX1         TXRX2         TXRX3          R1R2          R2R3          R1R3          OUT6
# ...
    81.35  3937.77         75.71         99.71        124.14          8.33          8.19          8.26         25.54
    81.34  3938.78         75.71         99.71        124.00          8.33          8.24          8.28         25.75
    81.33  3939.83         75.57         99.86        124.00          8.24          8.28          8.26         25.85
    81.32  3940.88         75.43        100.14        124.00          8.09          8.38          8.24         25.41
    81.31  3941.90         75.29        100.29        124.00          8.00          8.43          8.21         25.85
    81.30  3942.89         75.29        100.43        124.00          7.95          8.48          8.21         25.11
    81.29  3943.91         75.14        100.57        124.00          7.87          8.54          8.19         24.73
    81.28  3944.93         75.00        100.57        123.86          7.82          8.59          8.19         25.25
    81.27  3945.96         74.86        100.57        123.86          7.78          8.59          8.16         25.41
    81.26  3946.99         74.86        100.43        123.71          7.82          8.59          8.19         24.53
    81.25  3948.01         74.86        100.29        123.57          7.87          8.59          8.21         23.89
    81.24  3949.05         74.86        100.14        123.43          7.91          8.59          8.24         23.26
    81.23  3950.07         75.00        100.00        123.29          8.00          8.59          8.28         23.25
    81.22  3951.11         75.00        100.00        123.14          8.00          8.64          8.31         22.60
    81.21  3952.13         75.14        100.00        123.00          8.05          8.70          8.36         23.05
    81.20  3953.16         75.29        100.00        122.71          8.09          8.81          8.43         22.84
    81.19  3954.16         75.43        100.00        122.57          8.14          8.86          8.48         21.90
    81.18  3955.18         75.57        100.00        122.57          8.19          8.86          8.51         21.21
    81.17  3956.20         75.57        100.00        122.43          8.19          8.92          8.54         20.72
    81.16  3957.23         75.43        100.00        122.43          8.14          8.92          8.51         20.27
    81.15  3958.26         75.29         99.86        122.43          8.14          8.86          8.48         19.83
    81.14  3959.28         75.14         99.71        122.43          8.14          8.81          8.46         19.31
    81.13  3960.31         75.29         99.57        122.43          8.24          8.75          8.48         18.94
    81.12  3961.35         75.29         99.43        122.57          8.28          8.64          8.46         18.66
    81.11  3962.38         75.29         99.29        122.43          8.33          8.64          8.48         17.66
    81.10  3963.40         75.57         99.14        122.43          8.48          8.59          8.54         16.94
    81.09  3964.43         75.86         98.86        122.29          8.70          8.54          8.62         16.78
    81.08  3965.47         76.14         98.86        122.14          8.81          8.59          8.70         16.87
    81.07  3966.47         76.14         98.71        122.14          8.86          8.54          8.70         16.74
    81.06  3967.51         76.14         98.57        122.14          8.92          8.48          8.70         16.17
    81.05  3968.53         76.00         98.43        121.86          8.92          8.54          8.72         16.02
    81.04  3969.58         76.00         98.29        121.71          8.97          8.54          8.75         14.77
    81.03  3970.59         75.86         98.29        121.71          8.92          8.54          8.72         14.11
    81.02  3971.62         75.57         98.29        121.57          8.81          8.59          8.70         13.88
    81.01  3972.63         75.57         98.29        121.43          8.81          8.64          8.72         13.47
    81.00  3973.67         75.43         98.29        121.29          8.75          8.70          8.72         13.25
    80.99  3974.69         75.29         98.29        121.00          8.70          8.81          8.75         13.22
    80.98  3975.74         75.29         98.29        120.86          8.70          8.86          8.78         13.35
    80.97  3976.79         75.14         98.43        120.71          8.59          8.97          8.78         12.92
    80.96  3977.85         75.00         98.29        120.43          8.59          9.03          8.81         12.92
    80.95  3978.95         75.00         98.43        120.14          8.54          9.21          8.86         12.63
    80.94  3980.05         74.71         98.29        120.00          8.48          9.21          8.83         12.48
    80.93  3981.09         74.86         98.29        119.71          8.54          9.33          8.92         12.42
    80.92  3982.39         74.71         98.29        119.57          8.48          9.40          8.92         12.73
    80.91  3983.19         74.71         98.29        119.57          8.48          9.40          8.92         12.07
    80.90  3984.01         74.71         98.14        119.43          8.54          9.40          8.95         11.97
    80.89  3985.04         74.57         98.00        119.29          8.54          9.40          8.95         11.47
    80.88  3986.07         74.57         97.71        119.29          8.64          9.27          8.95         11.60
    80.87  3987.09         74.71         97.57        119.14          8.75          9.27          9.00         12.17
    80.86  3988.13         74.71         97.29        119.14          8.86          9.15          9.00         12.74
    80.85  3989.15         74.71         97.14        119.29          8.92          9.03          8.97         13.10
    80.84  3990.17         74.86         96.71        119.14          9.15          8.92          9.03         13.30
    80.83  3991.07         74.86         96.43        119.29          9.27          8.75          9.00         13.80
    80.82  3992.09         75.00         96.29        119.29          9.40          8.70          9.03         13.92
    80.81  3993.10         75.00         96.14        119.29          9.46          8.64          9.03         13.78
    80.80  3994.12         75.00         96.14        119.29          9.46          8.64          9.03         13.63
    80.79  3995.14         74.86         96.14        119.29          9.40          8.64          9.00         13.63
    80.78  3996.16         74.71         96.00        119.14          9.40          8.64          9.00         13.82
    80.77  3997.17         74.43         96.14        119.14          9.21          8.70          8.95         14.31
    80.76  3998.18         74.14         96.14        119.00          9.09          8.75          8.92         14.31
    80.75  3999.21         73.86         96.29        119.00          8.92          8.81          8.86         14.30
    80.74  4000.23         73.43         96.29        118.86          8.75          8.86          8.81         14.77
    80.73  4001.25         73.00         96.14        118.71          8.64          8.86          8.75         14.35
    80.72  4002.29         72.71         96.14        118.57          8.54          8.92          8.72         14.63
    80.71  4003.32         72.57         96.14        118.43          8.48          8.97          8.72         14.14
    80.70  4004.33         72.29         96.14        118.29          8.38          9.03          8.70         13.68
    80.69  4005.36         72.14         96.14        118.29          8.33          9.03          8.67         12.95
    80.68  4006.39         71.86         96.00        118.29          8.28          8.97          8.62         12.88
    80.67  4007.40         71.86         96.00        118.43          8.28          8.92          8.59         12.67
