#Written by Robertson Geologging WinLogger V1.5/410
~VERSION INFORMATION
#------------------------------------------------------------------------------
 VERS. 2.0 : CWLS LOG ASCII STANDARD - VERSION 2.0
 WRAP. NO  : ONE LINE PER DEPTH STEP
~WELL INFORMATION
#MNEM.UNIT         DATA                                DESCRIPTION OF MNEMONIC
#------------------------------------------------------------------------------
 STRT.M        119.9900                            :   START DEPTH
 STOP.M          2.9000                            :   STOP DEPTH
 STEP.M         -0.0100                            :   STEP VALUE
 NULL.        -999.2500                            :   NULL VALUE
 COMP.    GEUSd.                                   :   COMPANY NAME
 WELL.    59.459                                   :   WELL NAME
 FLD.     Jylland                                  :   FIELD NAME
 LOC.     N/A                                      :   LOCATION
 PROV.    N/A                                      :   PROVINCE
 SRVC.    N/A                                      :   SERVICE COMPANY NAME
 DATE.    02 Jun 14                                :   DATE
 UWI.     N/A                                      :   UNIQUE WELL IDENTIFIER
~PARAMETER INFORMATION
#MNEMO.UNIT         VALUE                 DESCRIPTION OF MNEMONIC
#------------------------------------------------------------------------------
~OTHER INFORMATION SECTION
#------------------------------------------------------------------------------
~CURVE INFORMATION
#MNEMO.UNIT         API CODE              CURVE DESCRIPTION
#------------------------------------------------------------------------------
 DEPTH.M                                 :   0     Depth
 TIME.SEC                                :   1     Time
 TXRX1.µs                                :   2     TXRX1
 TXRX2.µs                                :   3     TXRX2
 TXRX3.µs                                :   4     TXRX3
 R1R2.KM/S                               :   5     R1R2
 R2R3.KM/S                               :   6     R2R3
 R1R3.KM/S                               :   7     R1R3
 OUT6.API                                :   8     Natural Gamma
#------------------------------------------------------------------------------
~A  DEPTH     TIME         TXRX1         TXRX2         TXRX3          R1R2          R2R3          R1R3          OUT6
   119.99    36.78          0.00          0.00          0.00          1.#J          1.#J          1.#J          0.00
   119.98    37.42          0.00          0.00          0.00          1.#J          1.#J          1.#J          0.00
   119.97    38.05          0.00          0.00          0.00          1.#J          1.#J          1.#J          0.00
   119.96    38.68          0.00          0.00          0.00          1.#J          1.#J          1.#J          0.00
   119.95    39.31          0.00          0.00          0.00          1.#J          1.#J          1.#J          0.00
   119.94    39.94          0.00          0.00          0.00          1.#J          1.#J          1.#J          0.00
   119.93    40.57          0.00          0.00          0.00          1.#J          1.#J          1.#J          0.00
   119.92    41.20          0.00          0.00          0.00          1.#J          1.#J          1.#J          0.00
   119.91    41.84          0.00          0.00          0.00          1.#J          1.#J          1.#J          0.00
   119.90    42.49          0.00          0.00          0.00          1.#J          1.#J          1.#J          0.00
   119.89    43.13          0.00          0.00          0.00          1.#J          1.#J          1.#J          0.00
   119.88    43.80          0.00          0.00          0.00          1.#J          1.#J          1.#J          0.00
   119.87    44.47          0.00          0.00          0.00          1.#J          1.#J          1.#J          0.00
   119.86    45.10          0.00          0.00          0.00          1.#J          1.#J          1.#J          0.00
   119.85    45.73          0.00          0.00          0.00          1.#J          1.#J          1.#J          0.00
   119.84    46.35          0.00          0.00          0.00          1.#J          1.#J          1.#J          0.00
   119.83    46.98          0.00          0.00          0.00          1.#J          1.#J          1.#J          0.00
   119.82    47.62          0.00          0.00          0.00          1.#J          1.#J          1.#J          0.00
   119.81    48.25          0.00          0.00          0.00          1.#J          1.#J          1.#J          0.00
   119.80    48.88          0.00          0.00          0.00          1.#J          1.#J          1.#J          0.00
   119.79    49.52          0.00          0.00          0.00          1.#J          1.#J          1.#J          0.00
   119.78    50.15          0.00          0.00          0.00          1.#J          1.#J          1.#J          0.00
   119.77    50.79          0.00          0.00          0.00          1.#J          1.#J          1.#J          0.00
   119.76    51.44          0.00          0.00          0.00          1.#J          1.#J          1.#J          0.00
   119.75    52.07          0.00          0.00          0.00          1.#J          1.#J          1.#J          0.00
   119.74    52.71          0.00          0.00          0.00          1.#J          1.#J          1.#J          0.00
   119.73    53.35          0.00          0.00          0.00          1.#J          1.#J          1.#J          0.00
   119.72    53.99          0.00          0.00          0.00          1.#J          1.#J          1.#J          0.00
   119.71    54.62          0.00          0.00          0.00          1.#J          1.#J          1.#J          0.00
   119.70    55.25          0.00          0.00          0.00          1.#J          1.#J          1.#J          0.00
   119.69    55.89          0.00          0.00          0.00          1.#J          1.#J          1.#J          0.00
   119.68    56.52          0.00          0.00          0.00          1.#J          1.#J          1.#J          0.00
   119.67    57.16          0.00          0.00          0.00          1.#J          1.#J          1.#J          0.00
   119.66    57.80          0.00          0.00          0.00          1.#J          1.#J          1.#J          0.00
   119.65    58.44          0.00          0.00          0.00          1.#J          1.#J          1.#J          0.00
   119.64    59.08          0.00          0.00          0.00          1.#J          1.#J          1.#J          0.00
   119.63    59.72          0.00          0.00          0.00          1.#J          1.#J          1.#J          0.00
   119.62    60.36          0.00          0.00          0.00          1.#J          1.#J          1.#J          0.00
   119.61    61.00          0.00          0.00          0.00          1.#J          1.#J          1.#J          0.00
   119.60    61.65          0.00          0.00          0.00          1.#J          1.#J          1.#J          0.00
   119.59    62.30          0.00          0.00          0.00          1.#J          1.#J          1.#J          0.00
   119.58    62.94          0.00          0.00          0.00          1.#J          1.#J          1.#J          0.00
   119.57    63.56          0.00          0.00          0.00          1.#J          1.#J          1.#J          0.00
   119.56    64.19          0.00          0.00          0.00          1.#J          1.#J          1.#J          0.00
   119.55    64.83          0.00          0.00          0.00          1.#J          1.#J          1.#J          0.00
   119.54    65.46          0.00          0.00          0.00          1.#J          1.#J          1.#J          0.00
   119.53    66.11          0.00          0.00          0.00          1.#J          1.#J          1.#J          0.00
   119.52    66.80          0.00          0.00          0.00          1.#J          1.#J          1.#J          0.00
   119.51    67.44          0.00          0.00          0.00          1.#J          1.#J          1.#J          0.00
   119.50    68.61          0.00          0.00          0.00          1.#J          1.#J          1.#J          0.00
   119.49    69.24          0.00          0.00          0.00          1.#J          1.#J          1.#J          0.00
   119.48    69.87          0.00          0.00          0.00          1.#J          1.#J          1.#J          0.00
   119.47    70.50          0.00          0.00          0.00          1.#J          1.#J          1.#J          0.00
   119.46    71.14          0.00          0.00          0.00          1.#J          1.#J          1.#J          0.00
   119.45    71.77          0.00          0.00          0.00          1.#J          1.#J          1.#J          0.00
   119.44    72.41          0.00          0.00          0.00          1.#J          1.#J          1.#J          0.00
   119.43    73.04          0.00          0.00          0.00          1.#J          1.#J          1.#J          0.00
   119.42    73.68          0.00          0.00          0.00          1.#J          1.#J          1.#J          0.00
   119.41    74.32          0.00          0.00          0.00          1.#J          1.#J          1.#J          0.00
   119.40    74.96          0.00          0.00          0.00          1.#J          1.#J          1.#J          0.00
   119.39    75.59          0.00          0.00          0.00          1.#J          1.#J          1.#J          0.00
   119.38    76.23          0.00          0.00          0.00          1.#J          1.#J          1.#J          0.00
   119.37    76.87          0.00          0.00          0.00          1.#J          1.#J          1.#J          0.00
   119.36    77.50          0.00          0.00          0.00          1.#J          1.#J          1.#J          0.00
   119.35    78.14          0.00          0.00          0.00          1.#J          1.#J          1.#J          0.00
   119.34    78.77          0.00          0.00          0.00          1.#J          1.#J          1.#J          0.00
   119.33    79.41          0.00          0.00          0.00          1.#J          1.#J          1.#J          0.00
   119.32    80.05          0.00          0.00          0.00          1.#J          1.#J          1.#J          0.00
   119.31    80.69          0.00          0.00          0.00          1.#J          1.#J          1.#J          0.00
