#Written by Robertson Geologging WinLogger V1.5/410
~VERSION INFORMATION
#------------------------------------------------------------------------------
 VERS. 2.0 : CWLS LOG ASCII STANDARD - VERSION 2.0
 WRAP. NO  : ONE LINE PER DEPTH STEP
~WELL INFORMATION
#MNEM.UNIT         DATA                                DESCRIPTION OF MNEMONIC
#------------------------------------------------------------------------------
 STRT.M        119.9900                            :   START DEPTH
 STOP.M          2.9000                            :   STOP DEPTH
 STEP.M         -0.0100                            :   STEP VALUE
 NULL.        -999.2500                            :   NULL VALUE
 COMP.    GEUSd.                                   :   COMPANY NAME
 WELL.    59.459                                   :   WELL NAME
 FLD.     Jylland                                  :   FIELD NAME
 LOC.     N/A                                      :   LOCATION
 PROV.    N/A                                      :   PROVINCE
 SRVC.    N/A                                      :   SERVICE COMPANY NAME
 DATE.    02 Jun 14                                :   DATE
 UWI.     N/A                                      :   UNIQUE WELL IDENTIFIER
~PARAMETER INFORMATION
#MNEMO.UNIT         VALUE                 DESCRIPTION OF MNEMONIC
#------------------------------------------------------------------------------
~OTHER INFORMATION SECTION
#------------------------------------------------------------------------------
~CURVE INFORMATION
#MNEMO.UNIT         API CODE              CURVE DESCRIPTION
#------------------------------------------------------------------------------
 DEPTH.M                                 :   0     Depth
 TIME.SEC                                :   1     Time
 TXRX1.µs                                :   2     TXRX1
 TXRX2.µs                                :   3     TXRX2
 TXRX3.µs                                :   4     TXRX3
 R1R2.KM/S                               :   5     R1R2
 R2R3.KM/S                               :   6     R2R3
 R1R3.KM/S                               :   7     R1R3
 OUT6.API                                :   8     Natural Gamma
#------------------------------------------------------------------------------
~A  DEPTH     TIME         TXRX1         TXRX2         TXRX3          R1R2          R2R3          R1R3          OUT6
# ...
    42.02  7904.93        125.57        167.57        294.71          4.76          1.57          2.36          9.88
    42.01  7905.93        125.71        166.14        253.57          4.95          2.29          3.13          9.82
    42.00  7906.93        125.57        165.71        283.43          4.98          1.70          2.53          9.91
    41.99  7907.92        125.43        167.00        282.71          4.81          1.73          2.54          9.90
    41.98  7908.92        125.43        166.86        247.14          4.83          2.49          3.29          9.84
    41.97  7909.93        125.43        165.57        270.29          4.98          1.91          2.76          9.47
    41.96  7910.93        125.29        166.71        260.43          4.83          2.13          2.96          9.62
    41.95  7911.95        125.29        167.86        245.71          4.70          2.57          3.32          9.54
    41.94  7912.94        125.14        166.43        280.86          4.84          1.75          2.57          9.31
    41.93  7913.95        125.14        167.71        264.57          4.70          2.06          2.87          9.33
    41.92  7914.95        125.14        166.29        257.29          4.86          2.20          3.03          9.04
    41.91  7915.93        125.14        166.00        262.00          4.90          2.08          2.92          9.56
    41.90  7916.97        125.14        166.00        270.14          4.90          1.92          2.76          9.58
    41.89  7917.98        125.29        166.29        253.14          4.88          2.30          3.13          9.85
    41.88  7919.01        125.29        164.57        272.14          5.09          1.86          2.72          9.82
    41.87  7919.92        125.43        167.43        258.57          4.76          2.19          3.00          9.89
    41.86  7921.27        125.86        166.29        289.57          4.95          1.62          2.44         10.04
    41.85  7922.13        125.71        166.43        275.43          4.91          1.83          2.67          9.95
    41.84  7922.94        125.57        168.00        323.00          4.71          1.29          2.03          9.95
    41.83  7924.16        125.57        167.86        305.86          4.73          1.45          2.22          9.80
    41.82  7925.14        125.57        166.29        269.14          4.91          1.94          2.79          9.72
    41.81  7926.13        125.57        168.14        263.86          4.70          2.09          2.89         10.01
    41.80  7927.12        125.43        168.14        257.71          4.68          2.23          3.02         10.38
    41.79  7928.14        125.14        169.43        253.29          4.52          2.39          3.12         10.60
    41.78  7929.13        125.29        169.14        247.43          4.56          2.55          3.27         11.04
    41.77  7930.11        125.29        169.29        225.14          4.55          3.58          4.01         11.11
    41.76  7931.11        125.43        170.71        210.86          4.42          4.98          4.68         11.17
    41.75  7932.11        125.43        170.71        251.57          4.42          2.47          3.17         11.60
    41.74  7933.11        125.57        170.71        241.29          4.43          2.83          3.46         11.98
    41.73  7934.10        125.57        168.86        294.29          4.62          1.59          2.37         11.70
    41.72  7935.10        125.57        165.71        284.29          4.98          1.69          2.52         12.04
    41.71  7936.09        125.57        166.00        308.29          4.95          1.41          2.19         12.13
    41.70  7937.11        125.57        165.57        341.71          5.00          1.14          1.85         12.18
    41.69  7938.11        125.57        165.57        363.71          5.00          1.01          1.68         13.13
    41.68  7939.12        125.86        165.71        346.43          5.02          1.11          1.81         13.26
    41.67  7940.12        125.86        165.71        350.14          5.02          1.08          1.78         13.17
    41.66  7941.12        125.86        167.43        350.00          4.81          1.10          1.78         13.53
    41.65  7942.12        126.00        170.14        331.86          4.53          1.24          1.94         14.11
    41.64  7943.12        126.00        169.71        322.29          4.58          1.31          2.04         14.34
    41.63  7944.13        126.29        168.71        290.43          4.71          1.64          2.44         14.16
    41.62  7945.16        126.14        167.71        277.86          4.81          1.82          2.64         13.37
    41.61  7946.16        126.00        167.71        300.43          4.79          1.51          2.29         12.85
    41.60  7947.17        126.00        166.29        271.71          4.96          1.90          2.75         12.77
    41.59  7948.17        125.57        165.00        214.86          5.07          4.01          4.48         12.41
    41.58  7949.18        125.57        165.29        244.43          5.04          2.53          3.37         12.05
    41.57  7950.20        125.71        165.57        280.57          5.02          1.74          2.58         11.61
    41.56  7950.82        125.57        165.57        303.00          5.00          1.46          2.25         11.38
    41.55  7951.86        125.86        166.57        298.14          4.91          1.52          2.32         10.44
    41.54  7952.87        125.57        168.14        270.00          4.70          1.96          2.77         10.20
    41.53  7953.86        125.57        169.57        320.00          4.55          1.33          2.06          9.99
    41.52  7954.88        125.71        169.43        349.43          4.58          1.11          1.79          9.11
    41.51  7955.88        125.71        169.43        337.71          4.58          1.19          1.89          8.98
    41.50  7956.87        125.43        170.57        285.43          4.43          1.74          2.50          8.98
    41.49  7957.88        125.43        172.00        266.71          4.29          2.11          2.83          8.61
    41.48  7958.88        125.00        172.00        267.43          4.26          2.10          2.81          7.76
    41.47  7959.89        125.14        171.86        281.71          4.28          1.82          2.55          7.65
    41.46  7960.90        124.71        171.57        249.43          4.27          2.57          3.21          7.83
    41.45  7961.90        124.86        173.29        244.29          4.13          2.82          3.35          8.12
    41.44  7962.90        124.71        169.00        261.86          4.52          2.15          2.92          8.27
    41.43  7963.91        124.86        169.29        259.00          4.50          2.23          2.98          8.14
    41.42  7964.90        124.86        167.71        227.29          4.67          3.36          3.91          8.07
    41.41  7965.90        125.14        167.71        203.71          4.70          5.56          5.09          8.14
    41.40  7966.90        125.29        167.71        236.29          4.71          2.92          3.60          8.19
    41.39  7967.91        125.71        167.00        272.43          4.84          1.90          2.73          8.26
    41.38  7968.93        125.86        166.71        247.86          4.90          2.46          3.28          8.66
    41.37  7969.94        125.71        167.86        222.14          4.75          3.68          4.15          8.84
    41.36  7970.94        125.43        167.86        245.57          4.71          2.57          3.33          9.07
    41.35  7971.94        125.57        168.00        287.14          4.71          1.68          2.48          9.07
    41.34  7972.94        125.57        166.86        292.29          4.84          1.59          2.40          9.16
