#Written by Robertson Geologging WinLogger V1.5/410
~VERSION INFORMATION
#------------------------------------------------------------------------------
 VERS. 2.0 : CWLS LOG ASCII STANDARD - VERSION 2.0
 WRAP. NO  : ONE LINE PER DEPTH STEP
~WELL INFORMATION
#MNEM.UNIT         DATA                                DESCRIPTION OF MNEMONIC
#------------------------------------------------------------------------------
 STRT.M        119.9900                            :   START DEPTH
 STOP.M          2.9000                            :   STOP DEPTH
 STEP.M         -0.0100                            :   STEP VALUE
 NULL.        -999.2500                            :   NULL VALUE
 COMP.    GEUSd.                                   :   COMPANY NAME
 WELL.    59.459                                   :   WELL NAME
 FLD.     Jylland                                  :   FIELD NAME
 LOC.     N/A                                      :   LOCATION
 PROV.    N/A                                      :   PROVINCE
 SRVC.    N/A                                      :   SERVICE COMPANY NAME
 DATE.    02 Jun 14                                :   DATE
 UWI.     N/A                                      :   UNIQUE WELL IDENTIFIER
~PARAMETER INFORMATION
#MNEMO.UNIT         VALUE                 DESCRIPTION OF MNEMONIC
#------------------------------------------------------------------------------
~OTHER INFORMATION SECTION
#------------------------------------------------------------------------------
~CURVE INFORMATION
#MNEMO.UNIT         API CODE              CURVE DESCRIPTION
#------------------------------------------------------------------------------
 DEPTH.M                                 :   0     Depth
 TIME.SEC                                :   1     Time
 TXRX1.µs                                :   2     TXRX1
 TXRX2.µs                                :   3     TXRX2
 TXRX3.µs                                :   4     TXRX3
 R1R2.KM/S                               :   5     R1R2
 R2R3.KM/S                               :   6     R2R3
 R1R3.KM/S                               :   7     R1R3
 OUT6.API                                :   8     Natural Gamma
#------------------------------------------------------------------------------
~A  DEPTH     TIME         TXRX1         TXRX2         TXRX3          R1R2          R2R3          R1R3          OUT6
# ...
    57.89  6318.75         66.14         85.00        106.71         10.61          9.21          9.86         10.45
    57.88  6319.76         65.43         84.71        106.14         10.37          9.33          9.82         10.16
    57.87  6320.75         64.71         84.57        105.71         10.07          9.46          9.76         10.02
    57.86  6321.93         64.14         84.43        105.29          9.86          9.59          9.72          9.94
    57.85  6322.78         63.57         84.14        103.14          9.72         10.53         10.11          9.79
    57.84  6323.38         63.29         83.86        103.14          9.72         10.37         10.04          9.46
    57.83  6324.27         62.86         83.57        103.00          9.66         10.29          9.96          9.14
    57.82  6325.25         62.43         83.57        103.00          9.46         10.29          9.86          9.36
    57.81  6326.26         62.29         83.14        103.00          9.59         10.07          9.82          9.20
    57.80  6327.24         62.29         82.86        102.71          9.72         10.07          9.89          9.57
    57.79  6328.25         62.29         82.29        102.57         10.00          9.86          9.93          9.27
    57.78  6329.23         62.29         82.00        102.43         10.14          9.79          9.96          9.30
    57.77  6330.22         62.14         81.43        102.14         10.37          9.66         10.00          9.95
    57.76  6331.20         62.14         81.14        101.71         10.53          9.72         10.11         10.53
    57.75  6332.19         62.14         80.57        101.29         10.85          9.66         10.22         10.74
    57.74  6333.17         62.14         80.43        101.14         10.94          9.66         10.26         11.17
    57.73  6334.15         62.00         80.14        101.00         11.02          9.59         10.26         11.63
    57.72  6335.15         62.00         80.14        101.00         11.02          9.59         10.26         11.93
    57.71  6336.13         61.86         79.71        100.86         11.20          9.46         10.26         12.26
    57.70  6337.14         61.71         79.71        100.86         11.11          9.46         10.22         12.79
    57.69  6338.12         61.43         79.43        100.86         11.11          9.33         10.14         12.89
    57.68  6339.11         61.14         79.29        100.71         11.02          9.33         10.11         13.13
    57.67  6340.10         60.86         79.29        100.86         10.85          9.27         10.00         13.09
    57.66  6341.08         60.57         79.43        100.57         10.61          9.46         10.00         13.35
    57.65  6342.06         60.29         79.57        100.29         10.37          9.66         10.00         13.80
    57.64  6343.05         60.29         80.00        100.14         10.14          9.93         10.04         14.04
    57.63  6344.04         60.29         80.57        100.14          9.86         10.22         10.04         13.88
    57.62  6345.01         60.43         80.71        100.00          9.86         10.37         10.11         13.73
    57.61  6345.99         60.43         81.00        100.00          9.72         10.53         10.11         13.73
    57.60  6346.97         60.43         81.14        101.29          9.66          9.93          9.79         14.33
    57.59  6347.96         60.43         80.86        101.43          9.79          9.72          9.76         13.83
    57.58  6348.95         60.43         80.71        103.14          9.86          8.92          9.36         14.29
    57.57  6349.91         60.29         80.57        103.14          9.86          8.86          9.33         14.46
    57.56  6350.91         60.14         80.14        103.57         10.00          8.54          9.21         14.75
    57.55  6351.60         60.14         80.14        103.71         10.00          8.48          9.18         14.32
    57.54  6352.51         60.14         80.14        105.43         10.00          7.91          8.83         14.71
    57.53  6353.49         60.14         80.14        103.86         10.00          8.43          9.15         14.58
    57.52  6354.48         60.14         80.43        103.71          9.86          8.59          9.18         14.64
    57.51  6355.49         60.14         80.57        102.14          9.79          9.27          9.52         15.30
    57.50  6356.50         60.14         80.86        102.71          9.66          9.15          9.40         15.75
    57.49  6357.54         60.00         81.00        102.57          9.52          9.27          9.40         15.89
    57.48  6358.59         59.86         81.29        103.14          9.33          9.15          9.24         15.74
    57.47  6359.56         59.71         81.43        103.43          9.21          9.09          9.15         15.58
    57.46  6360.55         59.57         81.71        103.86          9.03          9.03          9.03         16.27
    57.45  6361.52         59.43         81.57        105.86          9.03          8.24          8.62         17.03
    57.44  6362.49         59.29         81.71        107.71          8.92          7.69          8.26         17.32
    57.43  6363.47         59.29         81.71        109.29          8.92          7.25          8.00         16.88
    57.42  6364.46         59.43         82.00        110.86          8.86          6.93          7.78         17.33
    57.41  6365.44         59.29         82.14        111.00          8.75          6.93          7.73         18.04
    57.40  6366.44         59.86         82.29        109.86          8.92          7.25          8.00         18.28
    57.39  6367.42         60.57         82.14        109.86          9.27          7.22          8.12         18.29
    57.38  6368.41         61.00         82.57        108.71          9.27          7.65          8.38         18.71
    57.37  6369.40         61.57         82.71        107.43          9.46          8.09          8.72         18.49
    57.36  6370.38         61.86         82.71        106.29          9.59          8.48          9.00         18.33
    57.35  6371.35         62.14         82.86        105.29          9.66          8.92          9.27         18.11
    57.34  6372.44         62.86         83.00        105.29          9.93          8.97          9.43         17.80
    57.33  6373.52         62.86         83.14        107.00          9.86          8.38          9.06         18.10
    57.32  6374.52         63.43         83.86        108.71          9.79          8.05          8.83         18.48
    57.31  6375.52         64.86         84.71        110.29         10.07          7.82          8.81         18.94
    57.30  6376.51         66.14         85.57        110.43         10.29          8.05          9.03         19.32
    57.29  6377.52         67.00         86.71        110.57         10.14          8.38          9.18         19.07
    57.28  6378.50         67.57         87.29        110.57         10.14          8.59          9.30         18.85
    57.27  6379.50         68.00         88.00        110.71         10.00          8.81          9.36         19.04
    57.26  6380.49         68.57         88.71        109.14          9.93          9.79          9.86         18.60
    57.25  6381.47         68.57         89.29        107.71          9.66         10.85         10.22         19.17
    57.24  6382.48         67.86         89.71        108.00          9.15         10.94          9.96         18.31
    57.23  6383.46         67.29         90.14        108.14          8.75         11.11          9.79         18.70
    57.22  6384.47         67.29         90.71        108.86          8.54         11.02          9.62         18.08
    57.21  6385.46         67.57         91.86        109.43          8.24         11.38          9.56         18.41
