#Written by Robertson Geologging WinLogger V1.5/410
~VERSION INFORMATION
#------------------------------------------------------------------------------
 VERS. 2.0 : CWLS LOG ASCII STANDARD - VERSION 2.0
 WRAP. NO  : ONE LINE PER DEPTH STEP
~WELL INFORMATION
#MNEM.UNIT         DATA                                DESCRIPTION OF MNEMONIC
#------------------------------------------------------------------------------
 STRT.M        119.9900                            :   START DEPTH
 STOP.M          2.9000                            :   STOP DEPTH
 STEP.M         -0.0100                            :   STEP VALUE
 NULL.        -999.2500                            :   NULL VALUE
 COMP.    GEUSd.                                   :   COMPANY NAME
 WELL.    59.459                                   :   WELL NAME
 FLD.     Jylland                                  :   FIELD NAME
 LOC.     N/A                                      :   LOCATION
 PROV.    N/A                                      :   PROVINCE
 SRVC.    N/A                                      :   SERVICE COMPANY NAME
 DATE.    02 Jun 14                                :   DATE
 UWI.     N/A                                      :   UNIQUE WELL IDENTIFIER
~PARAMETER INFORMATION
#MNEMO.UNIT         VALUE                 DESCRIPTION OF MNEMONIC
#------------------------------------------------------------------------------
~OTHER INFORMATION SECTION
#------------------------------------------------------------------------------
~CURVE INFORMATION
#MNEMO.UNIT         API CODE              CURVE DESCRIPTION
#------------------------------------------------------------------------------
 DEPTH.M                                 :   0     Depth
 TIME.SEC                                :   1     Time
 TXRX1.µs                                :   2     TXRX1
 TXRX2.µs                                :   3     TXRX2
 TXRX3.µs                                :   4     TXRX3
 R1R2.KM/S                               :   5     R1R2
 R2R3.KM/S                               :   6     R2R3
 R1R3.KM/S                               :   7     R1R3
 OUT6.API                                :   8     Natural Gamma
#------------------------------------------------------------------------------
~A  DEPTH     TIME         TXRX1         TXRX2         TXRX3          R1R2          R2R3          R1R3          OUT6
# ...
   112.40   539.17         75.57         99.00        119.71          8.54          9.66          9.06          7.01
   112.39   539.88         75.29         99.14        119.29          8.38          9.93          9.09          6.89
   112.38   540.60         75.00         99.29        119.29          8.24         10.00          9.03          6.93
   112.37   541.28         75.00         99.29        119.71          8.24          9.79          8.95          7.18
   112.36   541.98         74.86         99.43        119.86          8.14          9.79          8.89          7.06
   112.35   542.68         74.71         99.57        119.86          8.05          9.86          8.86          7.06
   112.34   543.39         74.86         99.43        120.00          8.14          9.72          8.86          6.93
   112.33   544.10         74.86         99.43        120.00          8.14          9.72          8.86          7.28
   112.32   544.80         74.86         99.43        120.14          8.14          9.66          8.83          6.82
   112.31   545.50         75.00         99.29        119.86          8.24          9.72          8.92          5.96
   112.30   546.20         74.86         99.29        119.43          8.19          9.93          8.97          5.60
   112.29   546.91         74.86         99.00        119.43          8.28          9.79          8.97          5.82
   112.28   547.62         74.86         99.00        119.29          8.28          9.86          9.00          5.93
   112.27   548.32         74.86         99.14        119.57          8.24          9.79          8.95          5.62
   112.26   549.02         74.86         99.00        119.86          8.28          9.59          8.89          5.61
   112.25   549.74         74.71         98.71        120.14          8.33          9.33          8.81          6.17
   112.24   550.45         74.57         98.71        120.43          8.28          9.21          8.72          6.74
   112.23   551.17         74.71         98.43        120.86          8.43          8.92          8.67          7.22
   112.22   551.88         74.57         98.57        121.00          8.33          8.92          8.62          7.44
   112.21   552.60         74.57         98.43        121.14          8.38          8.81          8.59          6.92
   112.20   553.32         74.57         98.29        121.14          8.43          8.75          8.59          6.66
   112.19   554.03         74.43         98.43        121.14          8.33          8.81          8.56          7.01
   112.18   554.75         74.57         98.43        121.00          8.38          8.86          8.62          7.58
   112.17   555.47         74.71         98.43        121.00          8.43          8.86          8.64          8.05
   112.16   556.19         74.71         98.71        121.00          8.33          8.97          8.64          7.70
   112.15   556.90         74.86         98.57        121.00          8.43          8.92          8.67          8.03
   112.14   557.61         74.86         98.57        121.14          8.43          8.86          8.64          8.03
   112.13   558.32         74.86         98.57        121.29          8.43          8.81          8.62          8.25
   112.12   559.03         74.86         98.43        121.43          8.48          8.70          8.59          8.33
   112.11   559.74         74.86         98.29        121.71          8.54          8.54          8.54          8.33
   112.10   560.44         74.86         97.71        121.71          8.75          8.33          8.54          8.80
   112.09   561.15         74.86         97.43        121.57          8.86          8.28          8.56          8.81
   112.08   561.85         74.86         97.43        121.57          8.86          8.28          8.56          7.88
   112.07   562.56         75.00         97.57        121.57          8.86          8.33          8.59          7.30
   112.06   563.26         75.00         97.71        121.57          8.81          8.38          8.59          7.42
   112.05   563.99         75.29         98.00        121.57          8.81          8.48          8.64          7.65
   112.04   564.70         75.43         98.43        121.57          8.70          8.64          8.67          7.77
   112.03   565.43         75.57         99.14        120.86          8.48          9.21          8.83          7.99
   112.02   566.17         75.71         99.43        121.00          8.43          9.27          8.83          7.86
   112.01   567.30         75.71         99.71        121.14          8.33          9.33          8.81          7.77
   112.00   568.45         75.71         99.71        121.14          8.33          9.33          8.81          7.76
   111.99   569.57         76.71         99.86        121.14          8.64          9.40          9.00          8.22
   111.98   570.69         77.43         99.86        121.14          8.92          9.40          9.15          7.65
   111.97   571.82         78.14         99.86        121.14          9.21          9.40          9.30          8.01
   111.96   572.96         78.71         99.86        121.86          9.46          9.09          9.27          8.25
   111.95   574.10         79.29        100.00        121.86          9.66          9.15          9.40          8.41
   111.94   575.26         80.00        100.00        121.86         10.00          9.15          9.56          8.75
   111.93   576.40         80.57        100.00        121.86         10.29          9.15          9.69          8.40
   111.92   577.56         80.29        100.00        121.86         10.14          9.15          9.62          8.81
   111.91   579.05         80.14         99.86        121.86         10.14          9.09          9.59          8.81
   111.90   580.28         79.86         99.86        121.57         10.00          9.21          9.59          8.57
   111.89   581.30         79.57         99.71        121.43          9.93          9.21          9.56          8.57
   111.88   582.44         79.43         99.57        121.43          9.93          9.15          9.52          8.22
   111.87   583.58         79.29         99.86        121.29          9.72          9.33          9.52          8.35
   111.86   584.73         79.14        100.57        121.29          9.33          9.66          9.49          8.01
   111.85   585.85         79.00        101.29        121.29          8.97         10.00          9.46          8.25
   111.84   586.99         79.14        102.14        121.29          8.70         10.45          9.49          8.13
   111.83   588.11         79.43        102.86        120.71          8.54         11.20          9.69          8.13
   111.82   589.24         79.86        103.57        120.86          8.43         11.57          9.76          7.79
   111.81   590.38         80.29        104.29        120.43          8.33         12.39          9.96          8.15
   111.80   591.52         80.71        104.57        120.57          8.38         12.50         10.04          7.92
   111.79   592.54         81.14        104.43        120.57          8.59         12.39         10.14          7.93
   111.78   593.53         81.57        104.43        120.71          8.75         12.28         10.22          7.57
   111.77   594.54         81.71        104.43        121.29          8.81         11.86         10.11          7.47
   111.76   595.91         81.86        104.43        122.86          8.86         10.85          9.76          7.58
   111.75   596.80         82.00        104.57        123.71          8.86         10.45          9.59          7.28
   111.74   597.73         82.00        104.71        124.86          8.81          9.93          9.33          7.51
   111.73   599.22         81.86        104.86        125.57          8.70          9.66          9.15          7.62
   111.72   600.21         81.71        105.00        126.14          8.59          9.46          9.00          7.16
