#Written by Robertson Geologging WinLogger V1.5/410
~VERSION INFORMATION
#------------------------------------------------------------------------------
 VERS. 2.0 : CWLS LOG ASCII STANDARD - VERSION 2.0
 WRAP. NO  : ONE LINE PER DEPTH STEP
~WELL INFORMATION
#MNEM.UNIT         DATA                                DESCRIPTION OF MNEMONIC
#------------------------------------------------------------------------------
 STRT.M        119.9900                            :   START DEPTH
 STOP.M          2.9000                            :   STOP DEPTH
 STEP.M         -0.0100                            :   STEP VALUE
 NULL.        -999.2500                            :   NULL VALUE
 COMP.    GEUSd.                                   :   COMPANY NAME
 WELL.    59.459                                   :   WELL NAME
 FLD.     Jylland                                  :   FIELD NAME
 LOC.     N/A                                      :   LOCATION
 PROV.    N/A                                      :   PROVINCE
 SRVC.    N/A                                      :   SERVICE COMPANY NAME
 DATE.    02 Jun 14                                :   DATE
 UWI.     N/A                                      :   UNIQUE WELL IDENTIFIER
~PARAMETER INFORMATION
#MNEMO.UNIT         VALUE                 DESCRIPTION OF MNEMONIC
#------------------------------------------------------------------------------
~OTHER INFORMATION SECTION
#------------------------------------------------------------------------------
~CURVE INFORMATION
#MNEMO.UNIT         API CODE              CURVE DESCRIPTION
#------------------------------------------------------------------------------
 DEPTH.M                                 :   0     Depth
 TIME.SEC                                :   1     Time
 TXRX1.µs                                :   2     TXRX1
 TXRX2.µs                                :   3     TXRX2
 TXRX3.µs                                :   4     TXRX3
 R1R2.KM/S                               :   5     R1R2
 R2R3.KM/S                               :   6     R2R3
 R1R3.KM/S                               :   7     R1R3
 OUT6.API                                :   8     Natural Gamma
#------------------------------------------------------------------------------
~A  DEPTH     TIME         TXRX1         TXRX2         TXRX3          R1R2          R2R3          R1R3          OUT6
# ...
    19.25  9508.30        125.71        163.57        279.00          5.28          1.73          2.61          9.58
    19.24  9508.97        125.71        163.71        268.86          5.26          1.90          2.79          9.59
    19.23  9509.63        125.43        165.14        303.86          5.04          1.44          2.24          9.11
    19.22  9510.29        125.43        165.00        286.00          5.05          1.65          2.49          9.34
    19.21  9510.93        125.43        165.14        285.29          5.04          1.66          2.50          9.12
    19.20  9511.58        125.43        166.57        253.29          4.86          2.31          3.13          9.13
    19.19  9512.24        125.43        166.43        262.86          4.88          2.07          2.91          8.78
    19.18  9512.89        125.57        167.00        301.86          4.83          1.48          2.27          8.44
    19.17  9513.55        125.71        168.00        298.00          4.73          1.54          2.32          8.78
    19.16  9514.20        125.86        168.00        298.71          4.75          1.53          2.31          9.35
    19.15  9514.85        125.71        168.00        253.43          4.73          2.34          3.13          9.23
    19.14  9515.51        125.86        168.57        248.57          4.68          2.50          3.26          9.81
    19.13  9516.17        125.71        167.71        262.14          4.76          2.12          2.93         10.04
    19.12  9516.81        125.71        167.71        218.00          4.76          3.98          4.33          9.48
    19.11  9517.46        125.57        167.57        213.43          4.76          4.36          4.55          9.58
    19.10  9518.11        125.43        167.71        222.86          4.73          3.63          4.11         10.15
    19.09  9518.76        125.43        166.14        221.14          4.91          3.64          4.18          9.92
    19.08  9519.42        125.57        165.71        240.43          4.98          2.68          3.48         10.25
    19.07  9520.08        125.57        166.57        213.71          4.88          4.24          4.54         10.59
    19.06  9520.73        125.57        165.86        214.57          4.96          4.11          4.49         10.47
    19.05  9521.39        125.43        166.29        254.71          4.90          2.26          3.09         11.33
    19.04  9522.04        125.57        166.86        258.43          4.84          2.18          3.01         11.55
    19.03  9522.70        125.71        166.57        221.43          4.90          3.65          4.18         11.52
    19.02  9523.36        125.57        168.14        182.71          4.70         13.73          7.00         11.74
    19.01  9524.02        125.57        168.14        194.57          4.70          7.57          5.80         12.30
    19.00  9524.68        125.43        168.14        187.57          4.68         10.29          6.44         12.08
    18.99  9525.35        125.57        168.86        188.71          4.62         10.07          6.33         11.97
    18.98  9526.00        125.71        168.29        148.14          4.70         -9.93         17.83         11.87
    18.97  9526.65        125.71        169.00        128.86          4.62         -4.98        127.27         11.86
    18.96  9527.31        125.57        167.86        188.43          4.73          9.72          6.36         12.43
    18.95  9527.96        125.71        167.71        214.71          4.76          4.26          4.49         12.64
    18.94  9528.63        125.57        168.00        245.86          4.71          2.57          3.33         12.42
    18.93  9529.28        125.43        166.43        256.14          4.88          2.23          3.06         12.18
    18.92  9529.94        125.29        167.14        254.00          4.78          2.30          3.11         12.40
    18.91  9530.60        125.29        168.86        299.86          4.59          1.53          2.29         12.06
    18.90  9531.26        125.14        167.86        320.71          4.68          1.31          2.05         12.07
    18.89  9531.92        125.29        168.29        292.29          4.65          1.61          2.40         12.19
    18.88  9532.58        125.43        167.71        306.71          4.73          1.44          2.21         11.32
    18.87  9533.25        125.43        167.57        290.86          4.75          1.62          2.42         11.44
    18.86  9533.91        125.71        168.00        282.14          4.73          1.75          2.56         11.36
    18.85  9534.59        125.86        168.29        286.86          4.71          1.69          2.48         11.48
    18.84  9535.26        125.86        166.86        276.14          4.88          1.83          2.66         11.15
    18.83  9535.92        126.00        166.57        270.57          4.93          1.92          2.77         11.69
    18.82  9536.57        125.86        167.43        241.14          4.81          2.71          3.47         11.34
    18.81  9537.22        125.71        168.43        200.43          4.68          6.25          5.35         11.55
    18.80  9537.86        125.71        168.43        166.71          4.68       -116.67          9.76         11.54
    18.79  9538.52        125.57        168.43        222.86          4.67          3.67          4.11         11.18
    18.78  9539.17        125.57        166.43        204.14          4.90          5.30          5.09         11.18
    18.77  9539.82        125.43        166.29        191.29          4.90          8.00          6.07         11.51
    18.76  9540.48        125.43        166.29        176.00          4.90         20.59          7.91         11.05
    18.75  9541.13        125.57        166.43        206.71          4.90          4.96          4.93         11.27
    18.74  9541.79        125.43        164.71        208.57          5.09          4.56          4.81         11.09
    18.73  9542.45        125.57        163.14        235.29          5.32          2.77          3.65         11.20
    18.72  9543.10        125.71        162.86        225.43          5.38          3.20          4.01         11.20
    18.71  9543.76        125.71        164.43        219.57          5.17          3.63          4.26         11.98
    18.70  9544.41        126.00        164.43        204.86          5.20          4.95          5.07         12.20
    18.69  9545.07        126.00        165.71        225.57          5.04          3.34          4.02         11.98
    18.68  9545.73        125.86        164.43        258.71          5.19          2.12          3.01         12.67
    18.67  9546.38        126.14        164.43        292.43          5.22          1.56          2.41         12.44
    18.66  9547.05        126.14        165.86        249.00          5.04          2.41          3.26         11.55
    18.65  9547.70        126.14        165.86        214.43          5.04          4.12          4.53         11.54
    18.64  9548.36        126.14        166.14        203.14          5.00          5.41          5.19         11.20
    18.63  9549.01        126.14        167.00        254.43          4.90          2.29          3.12         10.76
    18.62  9549.67        126.14        165.71        245.29          5.05          2.51          3.36         10.31
    18.61  9550.32        126.29        165.86        206.86          5.05          4.88          4.96         10.09
    18.60  9550.96        126.00        167.14        173.86          4.86         29.79          8.36          9.88
    18.59  9551.62        125.86        167.14        222.29          4.84          3.63          4.15         10.12
    18.58  9552.28        125.71        167.00        256.57          4.84          2.23          3.06         10.01
    18.57  9552.92        125.57        167.00        287.43          4.83          1.66          2.47         10.74
