#Written by Robertson Geologging WinLogger V1.5/410
~VERSION INFORMATION
#------------------------------------------------------------------------------
 VERS. 2.0 : CWLS LOG ASCII STANDARD - VERSION 2.0
 WRAP. NO  : ONE LINE PER DEPTH STEP
~WELL INFORMATION
#MNEM.UNIT         DATA                                DESCRIPTION OF MNEMONIC
#------------------------------------------------------------------------------
 STRT.M        119.9900                            :   START DEPTH
 STOP.M          2.9000                            :   STOP DEPTH
 STEP.M         -0.0100                            :   STEP VALUE
 NULL.        -999.2500                            :   NULL VALUE
 COMP.    GEUSd.                                   :   COMPANY NAME
 WELL.    59.459                                   :   WELL NAME
 FLD.     Jylland                                  :   FIELD NAME
 LOC.     N/A                                      :   LOCATION
 PROV.    N/A                                      :   PROVINCE
 SRVC.    N/A                                      :   SERVICE COMPANY NAME
 DATE.    02 Jun 14                                :   DATE
 UWI.     N/A                                      :   UNIQUE WELL IDENTIFIER
~PARAMETER INFORMATION
#MNEMO.UNIT         VALUE                 DESCRIPTION OF MNEMONIC
#------------------------------------------------------------------------------
~OTHER INFORMATION SECTION
#------------------------------------------------------------------------------
~CURVE INFORMATION
#MNEMO.UNIT         API CODE              CURVE DESCRIPTION
#------------------------------------------------------------------------------
 DEPTH.M                                 :   0     Depth
 TIME.SEC                                :   1     Time
 TXRX1.µs                                :   2     TXRX1
 TXRX2.µs                                :   3     TXRX2
 TXRX3.µs                                :   4     TXRX3
 R1R2.KM/S                               :   5     R1R2
 R2R3.KM/S                               :   6     R2R3
 R1R3.KM/S                               :   7     R1R3
 OUT6.API                                :   8     Natural Gamma
#------------------------------------------------------------------------------
~A  DEPTH     TIME         TXRX1         TXRX2         TXRX3          R1R2          R2R3          R1R3          OUT6
# ...
    34.43  8505.32        125.71        165.71        255.29          5.00          2.23          3.09         14.22
    34.42  8506.02        125.71        167.00        246.14          4.84          2.53          3.32         13.89
    34.41  8506.69        125.43        166.86        270.14          4.83          1.94          2.76         14.98
    34.40  8507.35        125.43        165.71        229.86          4.96          3.12          3.83         15.65
    34.39  8507.99        125.43        167.57        274.71          4.75          1.87          2.68         15.51
    34.38  8508.65        125.29        167.29        277.57          4.76          1.81          2.63         15.58
    34.37  8509.30        125.14        167.14        302.43          4.76          1.48          2.26         15.80
    34.36  8509.96        125.29        165.86        309.29          4.93          1.39          2.17         15.58
    34.35  8510.62        125.14        166.00        322.14          4.90          1.28          2.03         15.14
    34.34  8511.28        125.29        167.14        297.29          4.78          1.54          2.33         14.92
    34.33  8511.94        125.43        166.71        329.00          4.84          1.23          1.96         14.58
    34.32  8512.61        125.57        166.29        323.86          4.91          1.27          2.02         14.13
    34.31  8513.27        125.71        167.71        291.86          4.76          1.61          2.41         14.59
    34.30  8513.93        125.57        167.86        275.71          4.73          1.85          2.66         14.94
    34.29  8514.59        125.57        168.00        268.00          4.71          2.00          2.81         15.26
    34.28  8515.26        125.57        168.00        259.86          4.71          2.18          2.98         15.49
    34.27  8515.92        125.71        166.86        244.57          4.86          2.57          3.37         14.49
    34.26  8516.58        125.86        167.00        257.57          4.86          2.21          3.04         14.15
    34.25  8517.23        125.71        167.29        268.00          4.81          1.99          2.81         14.15
    34.24  8517.89        125.43        166.29        286.43          4.90          1.66          2.48         13.27
    34.23  8518.55        125.43        166.14        299.14          4.91          1.50          2.30         13.61
    34.22  8519.22        125.14        165.71        283.29          4.93          1.70          2.53         13.18
    34.21  8519.87        125.14        165.86        252.71          4.91          2.30          3.14         13.34
    34.20  8520.53        125.00        166.86        239.86          4.78          2.74          3.48         13.67
    34.19  8521.20        124.86        167.29        191.14          4.71          8.38          6.03         14.25
    34.18  8521.86        125.14        167.14        194.71          4.76          7.25          5.75         14.71
    34.17  8522.51        125.43        166.71        222.71          4.84          3.57          4.11         14.95
    34.16  8523.16        125.71        167.00        227.57          4.84          3.30          3.93         15.40
    34.15  8523.82        125.86        167.14        252.71          4.84          2.34          3.15         15.44
    34.14  8524.49        125.86        167.00        302.29          4.86          1.48          2.27         14.42
    34.13  8525.15        126.14        166.00        335.43          5.02          1.18          1.91         14.63
    34.12  8525.81        126.00        165.43        385.29          5.07          0.91          1.54         14.30
    34.11  8526.40        125.43        165.57        369.86          4.98          0.98          1.64         14.97
    34.10  8527.05        125.43        167.00        341.57          4.81          1.15          1.85         15.54
    34.09  8527.70        125.43        166.29        346.43          4.90          1.11          1.81         15.77
    34.08  8528.35        125.43        167.43        294.71          4.76          1.57          2.36         15.67
    34.07  8529.00        125.57        167.43        300.86          4.78          1.50          2.28         15.67
    34.06  8529.66        125.43        167.14        311.29          4.79          1.39          2.15         15.56
    34.05  8530.33        125.71        167.71        321.14          4.76          1.30          2.05         16.13
    34.04  8530.99        126.14        167.57        283.00          4.83          1.73          2.55         16.23
    34.03  8531.64        125.86        167.43        288.14          4.81          1.66          2.46         15.90
    34.02  8532.30        125.86        167.86        253.43          4.76          2.34          3.14         15.66
    34.01  8532.96        125.71        167.86        293.14          4.75          1.60          2.39         15.54
    34.00  8533.63        126.00        167.86        271.57          4.78          1.93          2.75         15.65
    33.99  8534.28        126.00        168.00        247.71          4.76          2.51          3.29         15.99
    33.98  8534.94        125.71        168.00        246.00          4.73          2.56          3.33         16.18
    33.97  8535.60        125.71        167.57        290.57          4.78          1.63          2.43         17.14
    33.96  8536.26        126.00        166.57        270.71          4.93          1.92          2.76         16.93
    33.95  8536.93        126.14        166.43        296.00          4.96          1.54          2.35         16.93
    33.94  8537.59        126.29        166.71        291.86          4.95          1.60          2.42         16.65
    33.93  8538.32        126.00        165.57        296.00          5.05          1.53          2.35         17.23
    33.92  8538.98        126.00        166.86        310.00          4.90          1.40          2.17         17.09
    33.91  8539.65        126.14        167.71        278.00          4.81          1.81          2.63         16.93
    33.90  8540.31        126.14        169.14        300.29          4.65          1.53          2.30         16.82
    33.89  8540.98        126.14        169.29        326.14          4.64          1.28          2.00         16.49
    33.88  8541.64        125.86        169.29        317.29          4.61          1.35          2.09         16.30
    33.87  8542.30        125.86        167.86        317.57          4.76          1.34          2.09         15.86
    33.86  8542.98        125.86        167.43        285.14          4.81          1.70          2.51         16.43
    33.85  8543.64        125.71        166.57        293.86          4.90          1.57          2.38         16.64
    33.84  8544.30        125.86        165.57        308.57          5.04          1.40          2.19         16.98
    33.83  8544.97        125.86        165.71        285.14          5.02          1.67          2.51         16.62
    33.82  8545.62        125.86        163.71        237.71          5.28          2.70          3.58         15.63
    33.81  8546.28        126.00        163.57        218.43          5.32          3.65          4.33         15.75
    33.80  8546.93        126.00        164.86        212.43          5.15          4.20          4.63         15.11
    33.79  8547.60        125.86        165.14        222.00          5.09          3.52          4.16         14.76
    33.78  8548.26        125.86        164.86        209.14          5.13          4.52          4.80         14.99
    33.77  8548.95        125.71        165.29        205.14          5.05          5.02          5.04         15.14
    33.76  8549.62        125.57        165.29        202.29          5.04          5.41          5.21         14.89
    33.75  8550.30        125.57        167.14        224.71          4.81          3.47          4.03         15.23
