#Written by Robertson Geologging WinLogger V1.5/410		
~VERSION INFORMATION		
#------------------------------------------------------------------------------		
 VERS. 2.0 : CWLS LOG ASCII STANDARD - VERSION 2.0		
 WRAP. NO  : ONE LINE PER DEPTH STEP		
~WELL INFORMATION		
#MNEM.UNIT         DATA                                DESCRIPTION OF MNEMONIC		
#------------------------------------------------------------------------------		
 STRT.M        348.0000                            :   START DEPTH		
 STOP.M          1.8300                            :   STOP DEPTH		
 STEP.M         -0.0100                            :   STEP VALUE		
 NULL.        -999.2500                            :   NULL VALUE		
 COMP.    GEUSd.                                   :   COMPANY NAME		
 WELL.    59.459                                   :   WELL NAME		
 FLD.     Jylland                                  :   FIELD NAME		
 LOC.     N/A                                      :   LOCATION		
 PROV.    N/A                                      :   PROVINCE		
 SRVC.    N/A                                      :   SERVICE COMPANY NAME		
 DATE.    26 May 14                                :   DATE		
 UWI.     N/A                                      :   UNIQUE WELL IDENTIFIER		
~PARAMETER INFORMATION		
#MNEMO.UNIT         VALUE                 DESCRIPTION OF MNEMONIC		
#------------------------------------------------------------------------------		
~OTHER INFORMATION SECTION		
#------------------------------------------------------------------------------		
~CURVE INFORMATION		
#MNEMO.UNIT         API CODE              CURVE DESCRIPTION		
#------------------------------------------------------------------------------		
 DEPTH.M                                 :   0     Depth		
 NGAM.API                                :   1     Natural Gamma		
 COND.mS/m                               :   2     Conductivity		
#------------------------------------------------------------------------------		
~A  DEPTH          NGAM          COND		
# ...
81.5	17.24	167.35
81.49	16.78	167.35
81.48	17.79	167.37
81.47	16.78	167.4
81.46	15.58	167.44
81.45	15.58	167.45
81.44	16.22	167.48
81.43	13.73	167.54
81.42	12.17	167.61
81.41	12.63	167.68
81.4	12.07	167.76
81.39	12.07	167.87
81.38	11.71	168.01
81.37	13.73	168.15
81.36	12.72	168.29
81.35	11.52	168.43
81.34	12.07	168.6
81.33	12.54	168.78
81.32	12.07	168.96
81.31	11.06	169.14
81.3	11.52	169.32
81.29	12.17	169.45
81.28	13.73	169.57
81.27	13.09	169.66
81.26	13.09	169.73
81.25	12.63	169.8
81.24	13.09	169.91
81.23	14.66	170
81.22	14.66	170.07
81.21	15.58	170.11
81.2	14.56	170.15
81.19	15.02	170.23
81.18	16.59	170.33
81.17	18.07	170.43
81.16	18.16	170.51
81.15	19.08	170.56
81.14	21.11	170.57
81.13	22.12	170.52
81.12	22.49	170.45
81.11	22.49	170.4
81.1	22.03	170.34
81.09	22.49	170.25
81.08	25.99	170.09
81.07	26.55	169.9
81.06	24.52	169.7
81.05	25.99	169.55
81.04	25.07	169.45
81.03	23.5	169.35
81.02	23.04	169.26
81.01	21.02	169.17
81	20.56	169.07
80.99	22.31	168.95
80.98	21.29	168.85
80.97	19.82	168.77
80.96	19.82	168.69
80.95	20.37	168.59
80.94	18.34	168.44
80.93	19.82	168.26
80.92	19.36	168.1
80.91	16.87	167.95
80.9	15.85	167.79
80.89	16.41	167.62
80.88	15.95	167.44
80.87	16.32	167.27
80.86	15.85	167.09
80.85	16.32	166.91
80.84	16.32	166.77
80.83	15.3	166.65
80.82	13.55	166.56
80.81	13.55	166.47
80.8	13.55	166.37
80.79	13.55	166.28
80.78	13.55	166.2
80.77	15.02	166.13
80.76	14.01	166.06
80.75	16.04	166
80.74	16.13	165.95
80.73	16.13	165.88
80.72	16.59	165.78
80.71	16.04	165.66
80.7	15.58	165.55
80.69	16.59	165.46
80.68	17.24	165.38
80.67	17.7	165.3
80.66	17.14	165.24
80.65	16.59	165.18
80.64	16.59	165.09
80.63	15.58	164.98
80.62	14.66	164.84
80.61	13.09	164.71
80.6	12.07	164.57
80.59	12.07	164.41
80.58	10.51	164.22
80.57	9.4	164.01
80.56	9.86	163.84
80.55	8.85	163.74
80.54	9.4	163.69
80.53	8.85	163.69
80.52	7.83	163.65
80.51	7.74	163.55
80.5	8.3	163.42
80.49	8.3	163.27
80.48	8.85	163.14
80.47	9.4	163.03
80.46	9.86	162.95
80.45	9.31	162.85
80.44	10.88	162.67
80.43	11.43	162.41
80.42	10.97	162.12
80.41	10.51	161.92
80.4	13.55	161.81
80.39	12.07	161.76
80.38	12.07	161.77
80.37	11.52	161.81
80.36	11.52	161.83
80.35	11.52	161.84
80.34	10.51	161.84
80.33	10.51	161.82
80.32	10.51	161.81
80.31	11.43	161.79
80.3	10.88	161.71
80.29	10.97	161.6
80.28	11.43	161.49
80.27	9.86	161.43
80.26	9.31	161.43
80.25	9.77	161.45
80.24	9.77	161.46
80.23	6.73	161.48
80.22	6.73	161.52
80.21	7.19	161.58
80.2	7.28	161.63
80.19	8.85	161.76
80.18	9.31	161.92
80.17	9.77	162.04
80.16	9.77	162.07
80.15	9.31	162.02
80.14	9.86	162.01
80.13	9.86	162.08
80.12	9.31	162.18
80.11	9.31	162.27
80.1	8.85	162.39
80.09	8.85	162.58
80.08	9.4	162.84
80.07	10.42	163.07
80.06	11.43	163.22
80.05	13.73	163.32
80.04	14.29	163.4
80.03	15.76	163.43
80.02	14.75	163.4
80.01	14.29	163.34
80	13.83	163.34
79.99	12.81	163.38
79.98	14.29	163.35
79.97	12.26	163.26
79.96	13.83	163.22
79.95	14.29	163.3
79.94	14.38	163.48
79.93	14.84	163.71
79.92	14.84	163.94
79.91	14.84	164.21
79.9	14.29	164.46
79.89	13.73	164.63
79.88	11.89	164.73
79.87	11.89	164.84
79.86	10.88	164.98
79.85	10.97	165.13
79.84	13	165.24
79.83	13	165.31
79.82	14.47	165.42
79.81	15.49	165.63
79.8	16.5	165.91
79.79	14.47	166.25
79.78	14.47	166.65
79.77	16.41	167.1
79.76	15.95	167.54
79.75	16.5	167.98
79.74	16.5	168.44
79.73	18.53	168.94
79.72	19.08	169.52
79.71	22.58	170.08
79.7	24.06	170.54
79.69	25.07	170.93
79.68	25.99	171.3
79.67	24.43	171.66
79.66	25.53	172.02
79.65	24.52	172.4
79.64	23.5	172.8
79.63	25.99	173.2
79.62	27.01	173.58
79.61	26.55	173.92
79.6	25.16	174.24
79.59	26.18	174.56
79.58	26.18	174.88
79.57	26.18	175.19
79.56	25.16	175.49
79.55	24.7	175.8
79.54	23.23	176.1
79.53	22.21	176.37
79.52	22.68	176.63
79.51	22.12	176.87
79.5	23.69	177.1
79.49	24.61	177.31
79.48	27.01	177.52
79.47	27.56	177.7
79.46	24.52	177.88
79.45	24.52	178.04
79.44	26.55	178.2
79.43	27.93	178.35
79.42	28.02	178.48
79.41	28.02	178.58
79.4	28.02	178.68
79.39	28.57	178.78
79.38	29.04	178.87
79.37	28.57	178.96
79.36	28.76	179.07
79.35	28.3	179.15
79.34	27.84	179.23
79.33	27.28	179.29
79.32	27.28	179.36
79.31	27.28	179.44
79.3	28.02	179.53
79.29	28.67	179.62
79.28	28.67	179.72
79.27	27.19	179.82
79.26	25.72	179.91
79.25	25.62	179.98
79.24	27.65	180.03
79.23	26.64	180.08
79.22	25.62	180.14
79.21	25.07	180.24
79.2	27.01	180.43
79.19	25.35	180.8
79.18	23.32	181.35
79.17	23.78	182.05
79.16	24.61	182.78
79.15	23.6	183.48
79.14	21.75	184.13
79.13	19.45	184.71
79.12	20.37	185.23
79.11	20.46	185.7
79.1	22.4	186.12
79.09	22.4	186.43
79.08	24.43	186.54
79.07	25.44	186.45
79.06	27.74	186.21
79.05	29.22	185.94
79.04	30.79	185.7
79.03	28.3	185.54
79.02	29.77	185.5
79.01	31.25	185.54
79	32.08	185.66
78.99	33.28	185.79
78.98	33.74	185.95
78.97	36.78	186.13
78.96	38.81	186.32
78.95	38.44	186.43
78.94	38.34	186.36
78.93	36.32	186.08
78.92	38.81	185.6
78.91	37.79	185.02
78.9	36.59	184.44
78.89	37.33	183.89
78.88	36.87	183.41
78.87	37.88	182.99
78.86	37.42	182.59
78.85	36.41	182.23
78.84	37.42	181.96
78.83	38.62	181.87
78.82	37.61	181.99
78.81	39.17	182.29
78.8	37.15	182.64
78.79	37.15	182.94
78.78	37.98	183.14
78.77	38.07	183.24
78.76	39.64	183.24
78.75	37.61	183.16
78.74	37.05	183.02
78.73	34.66	182.81
78.72	33.92	182.56
78.71	33.37	182.26
78.7	31.34	181.96
78.69	31.34	181.65
78.68	31.89	181.38
78.67	29.86	181.14
78.66	27.84	180.9
78.65	27.65	180.66
78.64	25.62	180.42
78.63	24.06	180.18
78.62	22.03	179.95
78.61	20	179.74
78.6	18.9	179.5
78.59	16.87	179.25
78.58	17.42	178.98
78.57	16.5	178.67
78.56	18.53	178.33
78.55	17.24	177.97
78.54	17.24	177.64
78.53	16.22	177.34
78.52	17.24	177.01
78.51	16.68	176.65
78.5	16.68	176.29
78.49	16.22	175.95
78.48	14.47	175.63
78.47	14.47	175.33
78.46	15.02	175.05
78.45	15.58	174.79
78.44	15.12	174.54
78.43	15.67	174.27
78.42	16.13	173.99
78.41	15.12	173.76
78.4	14.56	173.57
78.39	12.07	173.38
78.38	11.06	173.18
78.37	11.25	172.98
78.36	11.25	172.76
78.35	10.69	172.54
78.34	10.69	172.27
78.33	10.69	171.98
78.32	10.23	171.68
78.31	10.14	171.4
78.3	10.6	171.08
78.29	10.6	170.74
78.28	9.59	170.43
78.27	10.6	170.13
78.26	10.05	169.84
78.25	10.05	169.54
78.24	9.03	169.26
78.23	10.05	169
78.22	10.51	168.75
78.21	11.61	168.5
78.2	11.43	168.22
78.19	13.92	167.97
78.18	12.44	167.73
78.17	14.01	167.47
78.16	14.56	167.23
78.15	16.04	166.99
78.14	15.58	166.74
78.13	14.56	166.48
78.12	15.02	166.22
78.11	15.49	165.99
78.1	14.47	165.79
78.09	14.47	165.61
78.08	14.47	165.42
78.07	14.93	165.25
78.06	13.92	165.09
78.05	15.49	164.93
78.04	14.84	164.76
78.03	14.47	164.58
78.02	12.44	164.4
78.01	12.9	164.23
78	10.88	164.06
77.99	9.86	163.9
77.98	8.39	163.74
77.97	9.86	163.59
77.96	10.42	163.43
77.95	9.49	163.26
77.94	9.49	163.08
77.93	9.95	162.92
77.92	9.95	162.81
77.91	10.05	162.69
77.9	10.05	162.58
77.89	10.51	162.48
77.88	8.94	162.36
77.87	8.48	162.24
77.86	7.37	162.1
77.85	7.37	161.99
77.84	7.37	161.89
77.83	7.37	161.78
77.82	8.85	161.67
77.81	8.76	161.54
77.8	7.74	161.44
77.79	7.83	161.34
77.78	7.74	161.23
77.77	7.74	161.12
77.76	7.74	161.07
77.75	8.2	161.04
77.74	8.2	161
77.73	7.74	160.92
77.72	7.74	160.85
77.71	7.74	160.82
77.7	8.2	160.8
77.69	8.2	160.78
77.68	8.3	160.76
77.67	8.3	160.74
77.66	9.31	160.7
77.65	8.3	160.63
77.64	7.83	160.54
77.63	7.37	160.47
77.62	6.27	160.46
77.61	6.36	160.44
77.6	6.36	160.41
77.59	5.9	160.35
77.58	5.9	160.3
77.57	5.35	160.26
77.56	5.81	160.2
77.55	5.9	160.16
77.54	5.9	160.13
77.53	5.9	160.12
77.52	5.9	160.09
77.51	5.35	160.03
77.5	5.35	160
77.49	4.33	159.95
77.48	4.89	159.92
77.47	4.89	159.87
77.46	5.35	159.83
77.45	6.45	159.81
77.44	5.9	159.81
77.43	5.44	159.78
77.42	6.91	159.75
77.41	6.45	159.75
77.4	7.47	159.77
77.39	8.02	159.79
77.38	7.47	159.81
77.37	7.01	159.83
77.36	6.54	159.85
77.35	7.56	159.86
77.34	8.02	159.83
77.33	8.02	159.79
77.32	9.49	159.78
77.31	8.94	159.77
77.3	9.95	159.75
77.29	9.49	159.69
77.28	9.49	159.62
77.27	9.49	159.59
77.26	9.49	159.56
77.25	9.49	159.53
77.24	9.95	159.51
77.23	10.05	159.52
77.22	10.51	159.53
77.21	10.97	159.54
77.2	13	159.55
77.19	13	159.55
77.18	13	159.58
77.17	12.54	159.6
77.16	13.09	159.59
77.15	13.09	159.56
