#Written by Robertson Geologging WinLogger V1.5/410		
~VERSION INFORMATION		
#------------------------------------------------------------------------------		
 VERS. 2.0 : CWLS LOG ASCII STANDARD - VERSION 2.0		
 WRAP. NO  : ONE LINE PER DEPTH STEP		
~WELL INFORMATION		
#MNEM.UNIT         DATA                                DESCRIPTION OF MNEMONIC		
#------------------------------------------------------------------------------		
 STRT.M        348.0000                            :   START DEPTH		
 STOP.M          1.8300                            :   STOP DEPTH		
 STEP.M         -0.0100                            :   STEP VALUE		
 NULL.        -999.2500                            :   NULL VALUE		
 COMP.    GEUSd.                                   :   COMPANY NAME		
 WELL.    59.459                                   :   WELL NAME		
 FLD.     Jylland                                  :   FIELD NAME		
 LOC.     N/A                                      :   LOCATION		
 PROV.    N/A                                      :   PROVINCE		
 SRVC.    N/A                                      :   SERVICE COMPANY NAME		
 DATE.    26 May 14                                :   DATE		
 UWI.     N/A                                      :   UNIQUE WELL IDENTIFIER		
~PARAMETER INFORMATION		
#MNEMO.UNIT         VALUE                 DESCRIPTION OF MNEMONIC		
#------------------------------------------------------------------------------		
~OTHER INFORMATION SECTION		
#------------------------------------------------------------------------------		
~CURVE INFORMATION		
#MNEMO.UNIT         API CODE              CURVE DESCRIPTION		
#------------------------------------------------------------------------------		
 DEPTH.M                                 :   0     Depth		
 NGAM.API                                :   1     Natural Gamma		
 COND.mS/m                               :   2     Conductivity		
#------------------------------------------------------------------------------		
~A  DEPTH          NGAM          COND		
# ...
171.43	11.06	403.88
171.42	10.42	403.98
171.41	10.42	404.08
171.4	9.95	404.17
171.39	8.3	404.26
171.38	8.39	404.37
171.37	8.85	404.48
171.36	8.48	404.6
171.35	7.93	404.74
171.34	8.94	404.88
171.33	8.39	405.03
171.32	8.39	405.17
171.31	8.3	405.29
171.3	8.3	405.39
171.29	8.3	405.49
171.28	8.3	405.59
171.27	8.94	405.69
171.26	7.83	405.78
171.25	7.93	405.87
171.24	8.39	405.94
171.23	9.49	405.97
171.22	9.49	405.98
171.21	9.4	405.98
171.2	8.94	405.98
171.19	8.94	405.95
171.18	9.95	405.89
171.17	8.94	405.82
171.16	7.83	405.74
171.15	8.94	405.63
171.14	9.03	405.49
171.13	9.59	405.33
171.12	9.13	405.16
171.11	9.68	404.99
171.1	9.68	404.81
171.09	11.15	404.6
171.08	12.9	404.41
171.07	11.89	404.19
171.06	10.23	403.96
171.05	10.23	403.71
171.04	10.88	403.44
171.03	10.88	403.18
171.02	10.78	402.93
171.01	10.88	402.68
171	11.43	402.42
170.99	11.43	402.16
170.98	10.88	401.9
170.97	10.32	401.63
170.96	9.77	401.37
170.95	10.88	401.12
170.94	11.34	400.88
170.93	10.78	400.67
170.92	9.31	400.46
170.91	7.01	400.26
170.9	7.01	400.04
170.89	7.56	399.85
170.88	8.02	399.67
170.87	8.57	399.48
170.86	10.6	399.3
170.85	10.05	399.14
170.84	9.49	398.99
170.83	9.49	398.84
170.82	10.51	398.66
170.81	10.51	398.49
170.8	10.51	398.33
170.79	12.17	398.21
170.78	11.61	398.07
170.77	11.61	397.93
170.76	12.17	397.77
170.75	12.72	397.61
170.74	12.72	397.45
170.73	12.72	397.27
170.72	12.17	397.08
170.71	12.17	396.9
170.7	11.06	396.72
170.69	10.14	396.53
170.68	11.15	396.31
170.67	11.15	396.09
170.66	11.15	395.88
170.65	11.61	395.66
170.64	12.17	395.46
170.63	12.17	395.25
170.62	10.97	395.05
170.61	10.42	394.85
170.6	10.51	394.67
170.59	9.86	394.5
170.58	10.42	394.33
170.57	11.43	394.16
170.56	12.54	394
170.55	13.09	393.85
170.54	12.63	393.72
170.53	13.18	393.58
170.52	12.54	393.44
170.51	11.06	393.31
170.5	10.51	393.18
170.49	9.95	393.06
170.48	9.59	392.93
170.47	8.48	392.8
170.46	8.48	392.69
170.45	8.57	392.58
170.44	9.03	392.47
170.43	9.03	392.4
170.42	9.68	392.32
170.41	9.03	392.25
170.4	8.02	392.2
170.39	7.37	392.14
170.38	6.82	392.1
170.37	7.37	392.04
170.36	6.73	392
170.35	6.27	391.97
170.34	6.27	391.94
170.33	6.82	391.89
170.32	6.82	391.84
170.31	6.18	391.79
170.3	6.18	391.75
170.29	6.18	391.7
170.28	5.62	391.67
170.27	5.16	391.61
170.26	4.06	391.56
170.25	4.06	391.52
170.24	4.7	391.47
170.23	6.18	391.45
170.22	5.71	391.44
170.21	5.71	391.45
170.2	6.27	391.47
170.19	6.27	391.5
170.18	6.82	391.52
170.17	6.82	391.56
170.16	7.93	391.64
170.15	8.48	391.72
170.14	8.02	391.8
170.13	8.02	391.88
170.12	8.02	391.96
170.11	9.03	392.04
170.1	9.03	392.13
170.09	10.51	392.22
170.08	9.4	392.32
170.07	8.3	392.43
170.06	7.28	392.52
170.05	8.39	392.62
170.04	8.39	392.76
170.03	7.28	392.91
170.02	7.37	393.07
170.01	7.83	393.24
170	8.39	393.43
169.99	7.28	393.61
169.98	7.19	393.79
169.97	8.3	394
169.96	8.85	394.19
169.95	8.85	394.39
169.94	7.83	394.56
169.93	7.83	394.68
169.92	6.36	394.8
169.91	6.91	394.9
169.9	6.91	394.98
169.89	6.45	395.05
169.88	5.35	395.1
169.87	5.35	395.14
169.86	6.45	395.15
169.85	5.9	395.15
169.84	4.89	395.15
169.83	5.44	395.16
169.82	4.89	395.18
169.81	5.53	395.19
169.8	4.98	395.19
169.79	5.44	395.18
169.78	5.44	395.15
169.77	5.44	395.11
169.76	5.44	395.08
169.75	5.99	395.04
169.74	5.44	394.98
169.73	5.44	394.9
169.72	5.99	394.8
169.71	6.45	394.69
169.7	7.01	394.58
169.69	5.9	394.47
169.68	6.45	394.38
169.67	6.45	394.28
169.66	5.35	394.18
169.65	5.35	394.08
169.64	5.35	393.98
169.63	5.81	393.89
169.62	4.79	393.82
169.61	5.25	393.77
169.6	5.81	393.73
169.59	6.27	393.7
169.58	5.71	393.66
169.57	5.71	393.6
169.56	6.27	393.54
169.55	6.27	393.5
169.54	6.27	393.46
169.53	6.27	393.46
169.52	6.27	393.45
169.51	6.18	393.44
169.5	7.83	393.43
169.49	7.83	393.41
169.48	8.3	393.39
169.47	7.19	393.4
169.46	6.18	393.43
169.45	6.64	393.48
169.44	6.18	393.53
169.43	6.18	393.59
169.42	5.71	393.61
169.41	6.27	393.66
169.4	6.27	393.7
169.39	6.18	393.75
169.38	6.73	393.82
169.37	6.82	393.89
169.36	7.28	393.94
169.35	7.28	393.98
169.34	6.82	394
169.33	5.16	393.98
169.32	6.27	393.94
169.31	7.47	393.92
169.3	7.47	393.89
169.29	9.13	393.85
169.28	9.13	393.82
169.27	9.68	393.76
169.26	9.13	393.69
169.25	9.59	393.61
169.24	9.59	393.52
169.23	10.14	393.45
169.22	10.14	393.4
169.21	9.59	393.34
169.2	9.03	393.27
169.19	8.48	393.19
169.18	9.03	393.09
169.17	9.49	392.94
169.16	9.49	392.78
169.15	8.39	392.61
169.14	7.28	392.43
169.13	7.74	392.25
169.12	6.08	392.04
169.11	6.08	391.85
169.1	6.08	391.67
169.09	6.08	391.48
169.08	6.18	391.29
169.07	7.1	391.11
169.06	7.1	390.94
169.05	6.64	390.78
169.04	6.08	390.64
169.03	6.64	390.52
169.02	6.73	390.38
169.01	6.64	390.24
169	6.73	390.11
168.99	6.73	389.94
168.98	7.28	389.76
168.97	6.73	389.6
168.96	7.74	389.43
168.95	7.74	389.27
168.94	7.74	389.12
168.93	7.74	388.96
168.92	8.2	388.79
168.91	7.65	388.62
168.9	6.64	388.44
168.89	7.19	388.25
168.88	8.2	388.09
168.87	8.76	387.93
168.86	9.31	387.76
168.85	9.77	387.59
168.84	9.31	387.41
168.83	9.22	387.23
168.82	9.22	387.05
168.81	9.68	386.87
168.8	9.68	386.69
168.79	8.2	386.52
168.78	8.66	386.35
168.77	8.2	386.17
168.76	8.66	385.98
168.75	8.76	385.76
168.74	9.31	385.55
168.73	9.31	385.33
168.72	8.76	385.1
168.71	8.85	384.86
168.7	9.31	384.65
168.69	8.2	384.43
168.68	7.19	384.21
168.67	8.66	384.01
168.66	8.76	383.84
168.65	8.76	383.69
168.64	8.2	383.57
168.63	8.76	383.44
168.62	8.76	383.33
168.61	8.3	383.21
168.6	8.85	383.12
168.59	8.3	383.02
168.58	8.85	382.92
168.57	9.4	382.81
168.56	8.94	382.7
168.55	8.39	382.58
168.54	8.39	382.45
168.53	7.37	382.33
168.52	7.37	382.22
168.51	8.39	382.14
168.5	6.91	382.06
168.49	6.36	381.98
168.48	7.47	381.89
168.47	8.11	381.81
168.46	8.02	381.78
168.45	8.02	381.74
168.44	8.57	381.7
168.43	8.48	381.67
168.42	8.02	381.63
168.41	6.91	381.57
168.4	6.91	381.51
168.39	6.91	381.45
168.38	7.47	381.39
168.37	6.91	381.36
168.36	6.91	381.31
168.35	6.91	381.24
168.34	5.9	381.2
168.33	5.9	381.18
168.32	5.9	381.15
168.31	4.79	381.14
168.3	4.15	381.15
168.29	4.79	381.18
168.28	5.81	381.2
168.27	5.81	381.21
168.26	5.9	381.2
168.25	6.36	381.18
168.24	6.36	381.15
168.23	5.81	381.14
168.22	6.36	381.12
168.21	6.82	381.08
168.2	6.27	381.04
168.19	6.82	380.98
168.18	7.28	380.91
168.17	9.59	380.86
168.16	10.14	380.82
168.15	10.6	380.8
168.14	10.6	380.8
168.13	10.69	380.8
168.12	10.05	380.78
168.11	9.59	380.74
168.1	10.14	380.72
168.09	9.59	380.71
168.08	10.23	380.7
168.07	10.69	380.69
168.06	11.25	380.66
168.05	11.25	380.62
168.04	10.23	380.57
168.03	10.23	380.52
168.02	10.14	380.47
168.01	10.78	380.44
168	8.48	380.4
167.99	8.94	380.36
167.98	9.03	380.31
167.97	9.59	380.28
167.96	10.05	380.23
167.95	9.59	380.19
167.94	9.03	380.14
167.93	8.48	380.08
167.92	9.03	380.03
167.91	9.95	379.96
167.9	10.6	379.87
167.89	9.95	379.78
167.88	9.4	379.67
167.87	9.4	379.54
167.86	9.4	379.39
167.85	10.6	379.24
167.84	9.95	379.07
167.83	10.51	378.89
167.82	9.49	378.72
167.81	10.42	378.55
167.8	10.97	378.34
167.79	10.42	378.11
167.78	10.42	377.89
167.77	10.42	377.67
167.76	9.86	377.47
167.75	9.31	377.24
167.74	7.28	377
167.73	7.28	376.77
167.72	6.82	376.53
167.71	7.28	376.28
167.7	7.28	376.03
167.69	7.28	375.81
167.68	5.62	375.6
167.67	5.62	375.42
167.66	5.07	375.24
167.65	5.53	375.07
167.64	4.06	374.91
167.63	2.95	374.75
167.62	2.49	374.59
167.61	3.59	374.46
167.6	4.06	374.36
167.59	4.06	374.26
167.58	4.06	374.16
167.57	4.06	374.06
167.56	2.95	373.95
167.55	3.96	373.83
167.54	3.5	373.72
167.53	4.06	373.63
167.52	4.06	373.56
167.51	4.06	373.51
167.5	4.06	373.45
167.49	4.61	373.4
167.48	4.15	373.37
167.47	6.18	373.32
167.46	6.73	373.28
167.45	7.28	373.26
167.44	6.18	373.26
167.43	6.27	373.24
167.42	6.82	373.26
167.41	7.28	373.26
167.4	7.83	373.26
167.39	8.3	373.26
167.38	7.28	373.24
167.37	7.83	373.24
167.36	7.74	373.28
167.35	8.85	373.31
167.34	9.4	373.32
167.33	8.94	373.32
167.32	9.49	373.32
167.31	9.49	373.32
167.3	7.93	373.36
167.29	7.93	373.39
167.28	7.93	373.44
167.27	7.93	373.5
167.26	7.93	373.54
167.25	7.83	373.56
167.24	7.37	373.59
167.23	6.82	373.64
167.22	6.82	373.72
167.21	6.82	373.81
167.2	6.27	373.9
167.19	6.27	373.98
