#Written by Robertson Geologging WinLogger V1.5/410		
~VERSION INFORMATION		
#------------------------------------------------------------------------------		
 VERS. 2.0 : CWLS LOG ASCII STANDARD - VERSION 2.0		
 WRAP. NO  : ONE LINE PER DEPTH STEP		
~WELL INFORMATION		
#MNEM.UNIT         DATA                                DESCRIPTION OF MNEMONIC		
#------------------------------------------------------------------------------		
 STRT.M        348.0000                            :   START DEPTH		
 STOP.M          1.8300                            :   STOP DEPTH		
 STEP.M         -0.0100                            :   STEP VALUE		
 NULL.        -999.2500                            :   NULL VALUE		
 COMP.    GEUSd.                                   :   COMPANY NAME		
 WELL.    59.459                                   :   WELL NAME		
 FLD.     Jylland                                  :   FIELD NAME		
 LOC.     N/A                                      :   LOCATION		
 PROV.    N/A                                      :   PROVINCE		
 SRVC.    N/A                                      :   SERVICE COMPANY NAME		
 DATE.    26 May 14                                :   DATE		
 UWI.     N/A                                      :   UNIQUE WELL IDENTIFIER		
~PARAMETER INFORMATION		
#MNEMO.UNIT         VALUE                 DESCRIPTION OF MNEMONIC		
#------------------------------------------------------------------------------		
~OTHER INFORMATION SECTION		
#------------------------------------------------------------------------------		
~CURVE INFORMATION		
#MNEMO.UNIT         API CODE              CURVE DESCRIPTION		
#------------------------------------------------------------------------------		
 DEPTH.M                                 :   0     Depth		
 NGAM.API                                :   1     Natural Gamma		
 COND.mS/m                               :   2     Conductivity		
#------------------------------------------------------------------------------		
~A  DEPTH          NGAM          COND		
# ...
281.43	4.15	547.19
281.42	3.69	547.5
281.41	4.15	547.81
281.4	3.69	548.12
281.39	5.16	548.49
281.38	6.18	548.91
281.37	6.18	549.35
281.36	6.64	549.81
281.35	6.18	550.24
281.34	6.64	550.66
281.33	7.1	551.07
281.32	8.11	551.5
281.31	7.65	551.95
281.3	8.11	552.37
281.29	7.65	552.76
281.28	7.19	553.1
281.27	7.19	553.38
281.26	7.74	553.63
281.25	9.22	553.86
281.24	8.76	554.05
281.23	9.77	554.23
281.22	8.3	554.42
281.21	8.3	554.6
281.2	7.83	554.78
281.19	8.39	555.01
281.18	9.4	555.28
281.17	8.94	555.57
281.16	8.48	555.87
281.15	8.48	556.21
281.14	9.49	556.61
281.13	9.03	557.08
281.12	9.03	557.6
281.11	9.49	558.17
281.1	9.49	558.76
281.09	9.49	559.39
281.08	9.03	560.02
281.07	10.51	560.65
281.06	9.49	561.32
281.05	9.95	562.04
281.04	8.94	562.77
281.03	9.4	563.5
281.02	8.85	564.27
281.01	8.85	565.07
281	9.31	565.89
280.99	9.77	566.73
280.98	9.77	567.58
280.97	8.76	568.45
280.96	8.76	569.31
280.95	9.22	570.15
280.94	9.22	570.96
280.93	9.22	571.75
280.92	8.66	572.51
280.91	7.65	573.23
280.9	6.64	573.9
280.89	7.65	574.51
280.88	7.19	575.06
280.87	7.19	575.54
280.86	6.73	575.97
280.85	6.27	576.36
280.84	5.71	576.72
280.83	5.25	577.05
280.82	5.25	577.33
280.81	4.24	577.58
280.8	4.24	577.79
280.79	4.24	577.96
280.78	5.25	578.12
280.77	4.79	578.26
280.76	4.79	578.35
280.75	4.79	578.39
280.74	4.79	578.4
280.73	4.33	578.38
280.72	3.32	578.31
280.71	3.78	578.19
280.7	4.24	578
280.69	4.7	577.79
280.68	4.7	577.55
280.67	5.25	577.28
280.66	5.71	577
280.65	5.71	576.73
280.64	5.71	576.43
280.63	5.71	576.09
280.62	5.71	575.73
280.61	4.24	575.37
280.6	6.27	575.01
280.59	5.81	574.64
280.58	5.35	574.24
280.57	6.82	573.82
280.56	7.83	573.36
280.55	7.83	572.86
280.54	7.83	572.33
280.53	8.85	571.8
280.52	8.39	571.33
280.51	8.39	570.85
280.5	7.83	570.38
280.49	7.83	569.94
280.48	7.37	569.54
280.47	7.37	569.15
280.46	8.39	568.77
280.45	8.85	568.42
280.44	8.85	568.13
280.43	6.82	567.89
280.42	7.28	567.65
280.41	7.74	567.37
280.4	6.27	567.06
280.39	5.71	566.75
280.38	5.71	566.42
280.37	5.71	566.07
280.36	4.24	565.7
280.35	5.25	565.34
280.34	5.71	564.95
280.33	6.27	564.57
280.32	5.81	564.16
280.31	5.81	563.74
280.3	6.27	563.33
280.29	5.25	562.93
280.28	4.79	562.51
280.27	6.27	562.06
280.26	7.28	561.59
280.25	7.83	561.07
280.24	7.37	560.52
280.23	7.37	559.89
280.22	7.93	559.16
280.21	7.93	558.34
280.2	7.93	557.47
280.19	7.93	556.51
280.18	7.93	555.48
280.17	7.47	554.35
280.16	7.47	553.17
280.15	7.93	551.95
280.14	7.93	550.71
280.13	7.93	549.44
280.12	7.93	548.18
280.11	7.93	546.92
280.1	7.47	545.66
280.09	7.47	544.39
280.08	7.93	543.13
280.07	8.39	541.87
280.06	8.39	540.65
280.05	8.76	539.48
280.04	9.22	538.33
280.03	8.76	537.18
280.02	8.76	536.03
280.01	8.2	534.88
280	8.66	533.8
279.99	9.13	532.81
279.98	9.68	531.88
279.97	10.14	531.02
279.96	9.68	530.25
279.95	9.68	529.54
279.94	10.14	528.89
279.93	9.13	528.33
279.92	8.11	527.84
279.91	7.1	527.42
279.9	6.64	527.05
279.89	6.64	526.71
279.88	5.25	526.39
279.87	4.79	526.1
279.86	4.79	525.84
279.85	5.25	525.63
279.84	5.25	525.44
279.83	4.79	525.26
279.82	3.78	525.09
279.81	3.23	524.95
279.8	3.23	524.83
279.79	3.69	524.75
279.78	4.15	524.71
279.77	4.7	524.67
279.76	5.16	524.65
279.75	5.16	524.62
279.74	5.16	524.58
279.73	5.62	524.54
279.72	6.08	524.47
279.71	6.08	524.39
279.7	6.54	524.29
279.69	6.54	524.18
279.68	6.08	524.09
279.67	6.64	524
279.66	7.65	523.91
279.65	7.19	523.82
279.64	7.74	523.74
279.63	7.74	523.66
279.62	8.3	523.58
279.61	8.3	523.51
279.6	8.3	523.44
279.59	8.3	523.39
279.58	8.76	523.31
279.57	8.76	523.18
279.56	9.31	523.02
279.55	10.32	522.83
279.54	10.32	522.61
279.53	9.86	522.37
279.52	9.86	522.12
279.51	10.88	521.85
279.5	11.34	521.56
279.49	11.34	521.25
279.48	11.34	520.91
279.47	11.34	520.55
279.46	11.89	520.21
279.45	11.89	519.86
279.44	11.43	519.5
279.43	10.88	519.12
279.42	10.97	518.73
279.41	10.97	518.32
279.4	10.97	517.91
279.39	10.42	517.52
279.38	9.95	517.13
279.37	10.42	516.76
279.36	10.88	516.41
279.35	13.37	516.06
279.34	12.81	515.73
279.33	12.81	515.44
279.32	12.26	515.18
279.31	14.1	514.9
279.3	13.64	514.63
279.29	14.1	514.36
279.28	14.1	514.11
279.27	16.13	513.87
279.26	15.67	513.65
279.25	15.58	513.42
279.24	15.58	513.2
279.23	17.14	513
279.22	17.79	512.8
279.21	18.62	512.63
279.2	19.63	512.54
279.19	19.63	512.49
279.18	17.61	512.43
279.17	18.16	512.37
279.16	17.7	512.32
279.15	18.25	512.25
279.14	16.87	512.19
279.13	17.33	512.13
279.12	16.87	512.05
279.11	18.9	511.95
279.1	17.88	511.83
279.09	18.9	511.67
279.08	19.45	511.48
279.07	19.45	511.28
279.06	17.88	511.05
279.05	19.82	510.81
279.04	20	510.57
279.03	19.54	510.31
279.02	19.08	510.04
279.01	20.09	509.79
279	20.09	509.56
278.99	20.09	509.36
278.98	19.54	509.16
278.97	21.11	508.99
278.96	20.09	508.88
278.95	20.09	508.82
278.94	17.05	508.8
278.93	16.04	508.8
278.92	16.5	508.83
278.91	17.51	508.89
278.9	17.51	508.99
278.89	18.07	509.12
278.88	15.02	509.28
278.87	13	509.47
278.86	13	509.7
278.85	13.46	509.95
278.84	13	510.21
278.83	12.44	510.49
278.82	11.89	510.84
278.81	11.89	511.22
278.8	10.32	511.66
278.79	10.32	512.08
278.78	9.31	512.5
278.77	9.31	512.92
278.76	9.31	513.35
278.75	8.3	513.77
278.74	6.73	514.18
278.73	6.73	514.58
278.72	7.19	514.97
278.71	7.65	515.34
278.7	8.66	515.72
278.69	9.13	516.08
278.68	8.66	516.45
278.67	8.11	516.81
278.66	7.65	517.2
278.65	7.65	517.58
278.64	7.65	517.98
278.63	7.65	518.41
278.62	7.65	518.87
278.61	7.65	519.34
278.6	8.11	519.8
278.59	8.57	520.27
278.58	8.11	520.76
278.57	8.66	521.27
278.56	8.66	521.81
278.55	7.19	522.35
278.54	6.73	522.92
278.53	5.71	523.53
278.52	4.24	524.15
278.51	6.27	524.8
278.5	7.28	525.49
278.49	7.28	526.22
278.48	7.28	526.96
278.47	7.28	527.7
278.46	7.28	528.44
278.45	7.28	529.17
278.44	8.76	529.91
278.43	8.3	530.65
278.42	7.83	531.37
278.41	7.83	532.11
278.4	7.28	532.84
278.39	6.82	533.59
278.38	8.3	534.37
278.37	8.3	535.19
278.36	8.3	536.06
278.35	8.3	536.96
278.34	7.28	537.87
278.33	5.81	538.76
278.32	6.27	539.67
278.31	5.81	540.6
278.3	6.73	541.55
278.29	6.27	542.48
278.28	6.73	543.37
278.27	6.18	544.21
278.26	6.18	545.02
278.25	6.64	545.77
278.24	6.64	546.51
278.23	6.64	547.25
278.22	7.65	548.01
278.21	7.19	548.76
278.2	7.19	549.51
278.19	7.19	550.26
278.18	7.19	551.03
278.17	7.19	551.81
278.16	7.19	552.62
278.15	7.19	553.43
278.14	7.19	554.25
278.13	6.27	555.05
278.12	6.27	555.87
278.11	5.81	556.68
278.1	5.35	557.48
278.09	6.73	558.25
278.08	6.73	559
278.07	6.73	559.73
278.06	7.28	560.45
278.05	6.27	561.15
278.04	5.71	561.87
278.03	6.18	562.56
278.02	6.73	563.24
278.01	7.19	563.87
278	6.18	564.48
277.99	7.19	565.06
277.98	6.73	565.6
277.97	7.74	566.11
277.96	7.28	566.61
277.95	7.28	567.08
277.94	7.28	567.5
277.93	7.37	567.86
277.92	6.45	568.19
277.91	5.99	568.49
277.9	5.99	568.75
277.89	4.98	568.98
277.88	5.44	569.16
277.87	5.44	569.3
277.86	4.98	569.4
277.85	4.89	569.45
277.84	4.42	569.45
277.83	4.89	569.43
277.82	5.35	569.4
277.81	5.35	569.36
277.8	4.79	569.3
277.79	5.81	569.25
277.78	5.81	569.21
277.77	6.27	569.19
277.76	5.71	569.19
277.75	5.25	569.21
277.74	5.71	569.27
277.73	6.18	569.35
277.72	7.65	569.44
277.71	8.2	569.53
277.7	8.2	569.64
277.69	8.2	569.8
277.68	7.74	569.99
277.67	8.2	570.23
277.66	7.74	570.52
277.65	6.27	570.85
277.64	6.27	571.22
277.63	5.81	571.63
277.62	5.25	572.07
277.61	5.71	572.52
277.6	5.71	573.03
277.59	5.71	573.6
277.58	5.71	574.18
277.57	5.71	574.75
277.56	5.25	575.27
277.55	4.24	575.73
277.54	3.69	576.16
277.53	3.23	576.58
277.52	3.69	576.99
277.51	4.15	577.39
277.5	3.69	577.78
277.49	4.15	578.12
277.48	4.15	578.41
277.47	4.61	578.66
277.46	6.08	578.9
277.45	5.62	579.11
277.44	5.62	579.29
277.43	5.62	579.43
277.42	5.62	579.51
277.41	6.08	579.54
277.4	6.08	579.54
277.39	7.1	579.52
277.38	7.1	579.46
277.37	6.64	579.36
277.36	7.65	579.25
277.35	8.2	579.11
277.34	8.2	578.97
277.33	8.66	578.8
277.32	10.23	578.63
277.31	10.23	578.45
277.3	9.77	578.24
277.29	9.31	578.03
277.28	9.77	577.8
277.27	9.31	577.56
277.26	9.31	577.31
277.25	9.77	577.04
277.24	9.77	576.74
277.23	9.77	576.45
277.22	9.22	576.2
277.21	9.22	575.92
277.2	9.22	575.64
277.19	8.2	575.34
