#Written by Robertson Geologging WinLogger V1.5/410		
~VERSION INFORMATION		
#------------------------------------------------------------------------------		
 VERS. 2.0 : CWLS LOG ASCII STANDARD - VERSION 2.0		
 WRAP. NO  : ONE LINE PER DEPTH STEP		
~WELL INFORMATION		
#MNEM.UNIT         DATA                                DESCRIPTION OF MNEMONIC		
#------------------------------------------------------------------------------		
 STRT.M        348.0000                            :   START DEPTH		
 STOP.M          1.8300                            :   STOP DEPTH		
 STEP.M         -0.0100                            :   STEP VALUE		
 NULL.        -999.2500                            :   NULL VALUE		
 COMP.    GEUSd.                                   :   COMPANY NAME		
 WELL.    59.459                                   :   WELL NAME		
 FLD.     Jylland                                  :   FIELD NAME		
 LOC.     N/A                                      :   LOCATION		
 PROV.    N/A                                      :   PROVINCE		
 SRVC.    N/A                                      :   SERVICE COMPANY NAME		
 DATE.    26 May 14                                :   DATE		
 UWI.     N/A                                      :   UNIQUE WELL IDENTIFIER		
~PARAMETER INFORMATION		
#MNEMO.UNIT         VALUE                 DESCRIPTION OF MNEMONIC		
#------------------------------------------------------------------------------		
~OTHER INFORMATION SECTION		
#------------------------------------------------------------------------------		
~CURVE INFORMATION		
#MNEMO.UNIT         API CODE              CURVE DESCRIPTION		
#------------------------------------------------------------------------------		
 DEPTH.M                                 :   0     Depth		
 NGAM.API                                :   1     Natural Gamma		
 COND.mS/m                               :   2     Conductivity		
#------------------------------------------------------------------------------		
~A  DEPTH          NGAM          COND		
# ...
31.9	17.42	43.36
31.89	16.87	42.94
31.88	16.87	42.5
31.87	17.88	42.1
31.86	20.19	41.81
31.85	20.65	41.63
31.84	21.2	41.57
31.83	19.17	41.6
31.82	19.26	41.68
31.81	19.17	41.77
31.8	18.62	41.92
31.79	17.51	42.2
31.78	15.02	42.65
31.77	14.66	43.26
31.76	14.1	43.92
31.75	16.41	44.49
31.74	16.87	44.97
31.73	17.33	45.36
31.72	17.88	45.63
31.71	18.34	45.83
31.7	17.42	45.99
31.69	16.59	46.15
31.68	17.97	46.25
31.67	17.33	46.21
31.66	16.78	45.95
31.65	18.53	45.54
31.64	18.99	45.13
31.63	19.54	44.75
31.62	21.2	44.39
31.61	20.65	44.05
31.6	20.56	43.75
31.59	21.11	43.55
31.58	18.8	43.41
31.57	19.45	43.3
31.56	19.45	43.21
31.55	19.36	43.21
31.54	19.54	43.28
31.53	20.92	43.39
31.52	19.45	43.5
31.51	17.14	43.71
31.5	17.14	44.04
31.49	17.7	44.41
31.48	16.5	44.71
31.47	17.05	44.91
31.46	18.53	45.15
31.45	17.42	45.45
31.44	18.44	45.72
31.43	18.53	45.96
31.42	18.99	46.23
31.41	21.02	46.57
31.4	21.02	46.91
31.39	20	47.16
31.38	20.65	47.32
31.37	20.46	47.51
31.36	19.08	47.75
31.35	20.09	47.96
31.34	20.09	48.1
31.33	20.09	48.11
31.32	21.38	48
31.31	20.74	48.03
31.3	19.73	48.63
31.29	17.24	49.96
31.28	17.7	51.85
31.27	18.53	54.09
31.26	17.88	56.47
31.25	17.97	58.83
31.24	15.95	61.07
31.23	17.14	63.23
31.22	18.16	65.42
31.21	18.16	67.67
31.2	16.68	69.74
31.19	16.13	71.21
31.18	15.58	71.92
31.17	16.13	72.14
31.16	16.13	72.13
31.15	14.38	72.06
31.14	14.38	72.06
31.13	13.37	72.22
31.12	14.38	72.49
31.11	13.83	72.78
31.1	14.93	73.01
31.09	15.49	73.06
31.08	15.49	72.68
31.07	15.49	71.52
31.06	14.66	69.42
31.05	14.84	66.74
31.04	14.19	63.99
31.03	14.19	61.42
31.02	14.66	59.03
31.01	14.75	56.8
31	15.12	54.58
30.99	15.12	52.25
30.98	15.12	49.9
30.97	14.66	47.89
30.96	14.66	46.66
30.95	15.12	46.44
30.94	16.13	46.87
30.93	12.72	47.35
30.92	12.72	47.6
30.91	11.61	47.6
30.9	11.61	47.44
30.89	11.61	47.35
30.88	12.26	47.49
30.87	12.81	47.9
30.86	15.3	48.42
30.85	14.29	48.88
30.84	15.21	49.12
30.83	15.39	49.09
30.82	15.39	48.96
30.81	17.14	48.88
30.8	18.16	48.84
30.79	18.62	48.75
30.78	17.7	48.61
30.77	16.68	48.45
30.76	17.24	48.19
30.75	16.68	47.84
30.74	16.68	47.48
30.73	17.14	47.27
30.72	15.67	47.26
30.71	15.02	47.35
30.7	15.02	47.43
30.69	14.01	47.49
30.68	14.56	47.63
30.67	14.56	47.86
30.66	13.46	48.1
30.65	13.46	48.36
30.64	11.15	48.68
30.63	10.14	49.04
30.62	10.14	49.42
30.61	10.14	49.75
30.6	10.14	50.04
30.59	10.05	50.36
30.58	10.14	50.68
30.57	12.17	50.94
30.56	11.71	51.16
30.55	13.73	51.41
30.54	12.54	51.68
30.53	11.52	51.89
30.52	11.52	52
30.51	10.97	52.13
30.5	10.51	52.35
30.49	10.42	52.64
30.48	9.95	52.84
30.47	10.97	52.92
30.46	11.52	52.93
30.45	11.52	52.95
30.44	11.52	52.96
30.43	11.52	52.95
30.42	11.06	52.89
30.41	10.51	52.8
30.4	8.48	52.62
30.39	8.48	52.31
30.38	6.45	51.88
30.37	6.54	51.36
30.36	8.02	50.87
30.35	7.1	50.43
30.34	7.1	49.98
30.33	7.19	49.52
30.32	7.74	49.13
30.31	9.4	48.85
30.3	9.4	48.64
30.29	8.85	48.5
30.28	9.49	48.43
30.27	9.95	48.55
30.26	10.97	48.92
30.25	11.52	49.43
30.24	11.98	49.99
30.23	12.44	50.53
30.22	13	51.02
30.21	13	51.43
30.2	13	51.83
30.19	11.52	52.3
30.18	11.98	52.85
30.17	14.84	53.42
30.16	15.76	53.81
30.15	15.85	53.88
30.14	15.67	53.7
30.13	14.66	53.42
30.12	16.32	53.16
30.11	15.67	52.89
30.1	14.66	52.59
30.09	13.18	52.29
30.08	14.29	51.9
30.07	14.84	51.35
30.06	14.84	50.62
30.05	14.29	49.8
30.04	15.3	49.1
30.03	15.76	48.6
30.02	16.32	48.22
30.01	15.3	47.89
30	12.44	47.64
29.99	10.42	47.46
29.98	9.77	47.3
29.97	8.3	47.19
29.96	8.3	47.15
29.95	6.64	47.21
29.94	6.18	47.39
29.93	7.19	47.64
29.92	8.3	47.9
29.91	6.64	48.19
29.9	6.18	48.44
29.89	7.19	48.6
29.88	7.19	48.64
29.87	7.28	48.61
29.86	6.73	48.52
29.85	7.65	48.35
29.84	8.2	48.09
29.83	8.66	47.65
29.82	9.77	47.12
29.81	10.32	46.82
29.8	10.32	47.09
29.79	12.81	47.96
29.78	13.83	49.25
29.77	13.83	50.74
29.76	13.83	52.34
29.75	13.27	54.04
29.74	13.27	55.79
29.73	12.72	57.55
29.72	11.25	59.41
29.71	11.71	61.34
29.7	11.15	63.03
29.69	11.71	64.12
29.68	10.23	64.59
29.67	9.68	64.64
29.66	12.26	64.56
29.65	11.71	64.45
29.64	10.69	64.29
29.63	11.71	64.1
29.62	9.77	63.91
29.61	9.22	63.71
29.6	9.22	63.41
29.59	9.22	63
29.58	9.68	62.36
29.57	9.68	61.31
29.56	9.68	59.81
29.55	11.15	58.07
29.54	12.35	56.37
29.53	12.26	54.79
29.52	11.71	53.25
29.51	12.26	51.66
29.5	12.72	50.01
29.49	9.68	48.38
29.48	9.13	46.81
29.47	9.13	45.42
29.46	8.11	44.41
29.45	7.56	43.85
29.44	7.65	43.53
29.43	9.13	43.17
29.42	8.11	42.7
29.41	7.56	42.27
29.4	8.02	42
29.39	8.02	41.9
29.38	6.54	41.87
29.37	4.89	41.86
29.36	4.89	41.84
29.35	5.53	41.79
29.34	5.44	41.73
29.33	5.44	41.61
29.32	5.44	41.43
29.31	5.44	41.2
29.3	6.91	40.94
29.29	8.02	40.64
29.28	9.49	40.33
29.27	8.94	40
29.26	7.47	39.67
29.25	8.02	39.4
29.24	8.57	39.22
29.23	8.11	39.07
29.22	8.11	38.88
29.21	8.66	38.66
29.2	10.14	38.49
29.19	11.71	38.4
29.18	11.61	38.35
29.17	11.15	38.31
29.16	11.71	38.3
29.15	11.71	38.35
29.14	11.71	38.43
29.13	10.78	38.49
29.12	11.71	38.63
29.11	10.23	38.94
29.1	12.72	39.36
29.09	13.18	39.78
29.08	12.63	40.11
29.07	12.63	40.39
29.06	12.63	40.63
29.05	12.63	40.8
29.04	12.07	40.86
29.03	11.15	40.85
29.02	11.15	40.86
29.01	10.69	40.88
29	11.15	40.87
28.99	10.69	40.85
28.98	12.72	40.83
28.97	13.83	40.83
28.96	15.3	40.84
28.95	13.73	40.84
28.94	14.29	40.83
28.93	12.26	40.94
28.92	11.8	41.26
28.91	12.26	41.53
28.9	12.26	41.66
28.89	13.37	41.7
28.88	13.83	41.75
28.87	13.83	41.84
28.86	15.58	41.94
28.85	13.55	42.04
28.84	13.55	42.17
28.83	14.1	42.37
28.82	14.01	42.55
28.81	12.54	42.5
28.8	11.89	42.41
28.79	10.42	42.4
28.78	9.95	42.47
28.77	9.4	42.56
28.76	8.94	42.61
28.75	8.94	42.64
28.74	8.48	42.66
28.73	8.94	42.74
28.72	8.94	42.85
28.71	9.95	42.97
28.7	10.51	43.11
28.69	8.66	43.32
28.68	9.22	43.51
28.67	8.66	43.67
28.66	8.2	43.79
28.65	7.74	43.89
28.64	7.19	43.99
28.63	7.83	44.09
28.62	7.74	44.18
28.61	7.74	44.27
28.6	8.2	44.38
28.59	9.31	44.47
28.58	11.34	44.56
28.57	11.89	44.68
28.56	10.88	44.83
28.55	9.77	45.04
28.54	10.32	45.26
28.53	10.32	45.51
28.52	10.32	45.82
28.51	9.77	46.14
28.5	9.77	46.39
28.49	10.69	46.53
28.48	10.69	46.58
28.47	11.15	46.61
28.46	11.15	46.65
28.45	11.15	46.73
28.44	11.15	46.74
28.43	11.25	46.69
28.42	11.15	46.65
28.41	9.68	46.62
28.4	9.13	46.56
28.39	9.77	46.5
28.38	11.8	46.52
28.37	9.77	46.6
28.36	9.68	46.76
28.35	9.22	46.93
28.34	9.77	47.02
28.33	11.25	47.03
28.32	10.32	46.97
28.31	10.32	47.06
28.3	10.32	47.72
28.29	9.77	49.08
28.28	10.32	50.97
28.27	11.98	53.16
28.26	11.43	55.48
28.25	12.44	57.82
28.24	11.89	60.16
28.23	11.89	62.47
28.22	11.34	64.73
28.21	10.78	66.94
28.2	12.26	68.83
28.19	11.8	70.01
28.18	11.8	70.38
28.17	11.71	70.12
28.16	11.34	69.51
28.15	11.25	68.75
28.14	12.35	67.85
28.13	11.89	66.76
28.12	11.89	65.53
28.11	11.89	64.22
28.1	10.23	62.88
28.09	10.78	61.41
28.08	10.23	59.53
28.07	10.23	57.14
28.06	10.69	54.61
28.05	10.6	52.5
28.04	9.68	51.04
28.03	9.22	50.07
28.02	9.77	49.44
28.01	10.23	49.2
28	9.77	49.32
27.99	9.13	49.62
27.98	9.13	50.12
27.97	9.13	51.08
27.96	11.15	52.62
27.95	11.15	54.37
27.94	11.15	55.64
27.93	12.26	56.23
27.92	12.17	56.4
27.91	11.71	56.42
27.9	12.26	56.27
27.89	12.26	56.02
27.88	11.8	55.8
27.87	11.71	55.65
27.86	10.69	55.48
27.85	10.14	55.23
27.84	9.68	54.86
27.83	11.71	54.41
27.82	11.8	53.99
27.81	12.35	53.58
27.8	11.25	53.12
27.79	10.23	52.63
27.78	11.15	52.15
27.77	11.25	51.69
27.76	10.14	51.24
27.75	9.68	50.83
27.74	9.13	50.5
27.73	9.59	50.29
27.72	10.78	50.23
27.71	12.81	50.23
27.7	12.35	50.29
27.69	12.81	50.41
27.68	12.81	50.52
27.67	14.47	50.58
27.66	12.9	50.53
27.65	12.9	50.44
27.64	11.89	50.31
27.63	12.35	50.16
27.62	12.44	50.02
27.61	11.43	49.92
27.6	11.43	49.84
27.59	11.43	49.73
27.58	12.44	49.51
27.57	13.09	49.18
27.56	14.56	48.83
27.55	14.56	48.56
27.54	13.55	48.41
27.53	14.01	48.31
27.52	14.56	48.25
27.51	14.56	48.19
27.5	13.92	48.12
27.49	14.01	47.98
27.48	14.93	47.77
27.47	15.49	47.57
27.46	17.05	47.52
27.45	16.5	47.61
27.44	17.05	47.76
27.43	15.95	47.87
27.42	16.5	47.96
27.41	15.95	48.08
27.4	15.95	48.22
27.39	13.46	48.43
27.38	12.9	48.68
27.37	11.89	49
27.36	12.44	49.35
27.35	11.98	49.68
27.34	11.98	49.9
27.33	10.97	50.03
27.32	10.42	50.12
27.31	8.94	50.18
