#Written by Robertson Geologging WinLogger V1.5/410		
~VERSION INFORMATION		
#------------------------------------------------------------------------------		
 VERS. 2.0 : CWLS LOG ASCII STANDARD - VERSION 2.0		
 WRAP. NO  : ONE LINE PER DEPTH STEP		
~WELL INFORMATION		
#MNEM.UNIT         DATA                                DESCRIPTION OF MNEMONIC		
#------------------------------------------------------------------------------		
 STRT.M        348.0000                            :   START DEPTH		
 STOP.M          1.8300                            :   STOP DEPTH		
 STEP.M         -0.0100                            :   STEP VALUE		
 NULL.        -999.2500                            :   NULL VALUE		
 COMP.    GEUSd.                                   :   COMPANY NAME		
 WELL.    59.459                                   :   WELL NAME		
 FLD.     Jylland                                  :   FIELD NAME		
 LOC.     N/A                                      :   LOCATION		
 PROV.    N/A                                      :   PROVINCE		
 SRVC.    N/A                                      :   SERVICE COMPANY NAME		
 DATE.    26 May 14                                :   DATE		
 UWI.     N/A                                      :   UNIQUE WELL IDENTIFIER		
~PARAMETER INFORMATION		
#MNEMO.UNIT         VALUE                 DESCRIPTION OF MNEMONIC		
#------------------------------------------------------------------------------		
~OTHER INFORMATION SECTION		
#------------------------------------------------------------------------------		
~CURVE INFORMATION		
#MNEMO.UNIT         API CODE              CURVE DESCRIPTION		
#------------------------------------------------------------------------------		
 DEPTH.M                                 :   0     Depth		
 NGAM.API                                :   1     Natural Gamma		
 COND.mS/m                               :   2     Conductivity		
#------------------------------------------------------------------------------		
~A  DEPTH          NGAM          COND		
# ...
238.84	8.57	598.77
238.83	8.57	598.86
238.82	9.03	598.94
238.81	10.05	599
238.8	9.59	599.02
238.79	9.59	599.03
238.78	8.11	599.01
238.77	7.56	598.95
238.76	6.54	598.85
238.75	6.54	598.71
238.74	6.08	598.52
238.73	6.08	598.22
238.72	4.89	597.84
238.71	3.41	597.36
238.7	3.41	596.79
238.69	3.41	596.11
238.68	3.41	595.3
238.67	3.41	594.39
238.66	3.41	593.42
238.65	3.5	592.42
238.64	2.95	591.41
238.63	2.95	590.42
238.62	3.04	589.46
238.61	3.5	588.55
238.6	3.5	587.69
238.59	3.5	586.87
238.58	3.96	586.12
238.57	4.98	585.44
238.56	4.98	584.8
238.55	5.53	584.21
238.54	4.98	583.65
238.53	5.44	583.07
238.52	5.44	582.47
238.51	5.44	581.86
238.5	5.44	581.26
238.49	6.45	580.66
238.48	6.45	580.06
238.47	6.45	579.5
238.46	6.91	578.98
238.45	6.91	578.56
238.44	6.45	578.23
238.43	6.91	578.03
238.42	6.91	577.95
238.41	6.91	577.97
238.4	5.9	578.06
238.39	5.9	578.2
238.38	5.99	578.36
238.37	5.53	578.55
238.36	5.53	578.78
238.35	6.64	579.03
238.34	7.1	579.28
238.33	7.1	579.52
238.32	6.08	579.7
238.31	5.53	579.85
238.3	6.08	580
238.29	6.18	580.18
238.28	6.08	580.41
238.27	6.08	580.7
238.26	5.62	581.05
238.25	6.18	581.43
238.24	6.73	581.84
238.23	6.73	582.28
238.22	6.73	582.75
238.21	6.08	583.24
238.2	6.08	583.73
238.19	6.18	584.19
238.18	5.53	584.62
238.17	6.08	584.97
238.16	6.54	585.25
238.15	6.54	585.49
238.14	6.54	585.69
238.13	6.54	585.82
238.12	5.99	585.9
238.11	5.53	585.9
238.1	5.53	585.83
238.09	5.99	585.73
238.08	5.44	585.61
238.07	4.42	585.45
238.06	4.42	585.29
238.05	5.44	585.12
238.04	4.98	584.91
238.03	5.44	584.68
238.02	4.89	584.45
238.01	4.98	584.18
238	3.96	583.92
237.99	3.96	583.65
237.98	5.07	583.38
237.97	5.53	583.07
237.96	4.52	582.77
237.95	5.07	582.5
237.94	5.07	582.25
237.93	6.08	582.03
237.92	6.18	581.87
237.91	6.18	581.74
237.9	7.19	581.63
237.89	7.19	581.56
237.88	6.73	581.52
237.87	7.19	581.51
237.86	7.19	581.53
237.85	7.65	581.58
237.84	7.1	581.63
237.83	7.56	581.71
237.82	7.56	581.81
237.81	6.91	581.9
237.8	6.45	582.01
237.79	6.45	582.14
237.78	5.9	582.26
237.77	6.36	582.39
237.76	5.35	582.52
237.75	5.25	582.67
237.74	5.25	582.81
237.73	5.25	582.94
237.72	5.25	583.07
237.71	4.7	583.17
237.7	4.24	583.25
237.69	4.24	583.3
237.68	4.24	583.32
237.67	5.71	583.33
237.66	5.81	583.32
237.65	5.35	583.28
237.64	4.89	583.22
237.63	5.9	583.14
237.62	6.45	583.03
237.61	6.91	582.92
237.6	6.91	582.82
237.59	6.91	582.72
237.58	6.91	582.61
237.57	7.37	582.52
237.56	6.91	582.42
237.55	8.94	582.32
237.54	9.4	582.19
237.53	9.4	582.07
237.52	9.49	581.93
237.51	10.05	581.79
237.5	10.6	581.63
237.49	10.05	581.45
237.48	10.05	581.28
237.47	10.51	581.15
237.46	10.51	581.02
237.45	9.95	580.92
237.44	9.49	580.84
237.43	9.49	580.78
237.42	9.95	580.76
237.41	10.6	580.76
237.4	10.14	580.77
237.39	10.6	580.83
237.38	8.57	580.92
237.37	8.11	581.01
237.36	8.57	581.09
237.35	9.13	581.16
237.34	8.11	581.23
237.33	6.54	581.27
237.32	6.54	581.32
237.31	7.01	581.35
237.3	7.01	581.4
237.29	6.45	581.45
237.28	7.01	581.5
237.27	9.03	581.53
237.26	8.57	581.58
237.25	9.22	581.61
237.24	8.57	581.65
237.23	10.05	581.68
237.22	9.59	581.74
237.21	10.6	581.81
237.2	11.06	581.89
237.19	11.06	581.95
237.18	11.06	582.02
237.17	11.52	582.09
237.16	12.54	582.17
237.15	13.09	582.25
237.14	13.09	582.34
237.13	13.09	582.43
237.12	13.18	582.53
237.11	14.66	582.62
237.1	13.09	582.72
237.09	13.64	582.8
237.08	12.54	582.89
237.07	12.54	582.98
237.06	12.17	583.05
237.05	12.07	583.11
237.04	12.54	583.17
237.03	13.18	583.22
237.02	13.18	583.27
237.01	13.55	583.33
237	15.39	583.39
236.99	14.38	583.43
236.98	14.84	583.46
236.97	14.84	583.42
236.96	14.38	583.33
236.95	14.29	583.23
236.94	12.72	583.09
236.93	12.26	582.92
236.92	12.72	582.72
236.91	13.73	582.47
236.9	13.73	582.18
236.89	13.18	581.86
236.88	14.19	581.5
236.87	14.75	581.12
236.86	13.64	580.75
236.85	13.18	580.36
236.84	12.17	579.97
236.83	10.88	579.59
236.82	10.88	579.2
236.81	9.86	578.81
236.8	10.51	578.45
236.79	10.51	578.1
236.78	10.05	577.74
236.77	10.14	577.4
236.76	10.6	577.07
236.75	9.59	576.76
236.74	8.57	576.47
236.73	8.57	576.15
236.72	8.02	575.82
236.71	7.65	575.52
236.7	6.64	575.25
236.69	7.1	574.98
236.68	7.1	574.69
236.67	6.64	574.41
236.66	5.62	574.12
236.65	5.62	573.83
236.64	5.62	573.52
236.63	4.52	573.2
236.62	5.53	572.9
236.61	6.54	572.6
236.6	5.99	572.26
236.59	6.64	571.88
236.58	7.1	571.47
236.57	7.56	571.02
236.56	7.1	570.53
236.55	7.56	569.99
236.54	7.01	569.41
236.53	5.99	568.8
236.52	5.53	568.17
236.51	5.53	567.5
236.5	5.99	566.8
236.49	5.99	566.09
236.48	5.99	565.36
236.47	5.99	564.61
236.46	6.54	563.87
236.45	5.99	563.16
236.44	5.44	562.47
236.43	6.45	561.82
236.42	5.9	561.21
236.41	5.44	560.62
236.4	5.44	560.05
236.39	5.9	559.48
236.38	5.99	558.91
236.37	5.44	558.35
236.36	5.9	557.83
236.35	7.01	557.33
236.34	7.01	556.84
236.33	7.56	556.35
236.32	8.11	555.91
236.31	7.65	555.49
236.3	8.11	555.09
236.29	7.56	554.72
236.28	8.57	554.41
236.27	8.57	554.11
236.26	8.02	553.87
236.25	8.02	553.64
236.24	8.48	553.45
236.23	9.03	553.29
236.22	9.03	553.18
236.21	8.48	553.05
236.2	9.03	552.93
236.19	9.03	552.81
236.18	7.93	552.71
236.17	8.94	552.62
236.16	7.93	552.56
236.15	7.37	552.51
236.14	8.85	552.47
236.13	8.39	552.44
236.12	8.94	552.41
236.11	7.93	552.39
236.1	7.93	552.4
236.09	7.47	552.45
236.08	6.91	552.49
236.07	7.47	552.54
236.06	6.91	552.58
236.05	7.01	552.62
236.04	7.01	552.68
236.03	6.91	552.73
236.02	6.45	552.79
236.01	6.91	552.86
236	5.9	552.94
235.99	6.45	553.01
235.98	6.91	553.07
235.97	5.44	553.17
235.96	5.44	553.27
235.95	5.44	553.37
235.94	6.45	553.48
235.93	6.45	553.59
235.92	6.91	553.69
235.91	6.91	553.8
235.9	5.9	553.93
235.89	5.44	554.05
235.88	4.89	554.18
235.87	4.89	554.28
235.86	5.9	554.36
235.85	5.9	554.45
235.84	5.99	554.58
235.83	7.01	554.71
235.82	6.45	554.86
235.81	5.99	555.02
235.8	7.01	555.19
235.79	8.02	555.33
235.78	7.93	555.44
235.77	8.11	555.53
235.76	7.65	555.63
235.75	8.66	555.77
235.74	9.22	555.92
235.73	9.22	556.04
235.72	9.68	556.16
235.71	9.68	556.26
235.7	10.14	556.4
235.69	9.13	556.56
235.68	9.13	556.75
235.67	9.03	557
235.66	8.02	557.28
235.65	8.02	557.58
235.64	8.02	557.88
235.63	7.01	558.17
235.62	6.45	558.47
235.61	5.99	558.76
235.6	4.79	559.06
235.59	5.81	559.36
235.58	4.33	559.62
235.57	4.79	559.87
235.56	4.79	560.09
235.55	4.79	560.32
235.54	5.25	560.54
235.53	5.35	560.72
235.52	5.35	560.88
235.51	5.35	561.03
235.5	4.89	561.16
235.49	5.99	561.3
235.48	7.01	561.43
235.47	7.01	561.56
235.46	7.56	561.7
235.45	7.1	561.82
235.44	7.1	561.95
235.43	7.1	562.09
235.42	6.08	562.26
235.41	6.08	562.44
235.4	5.07	562.63
235.39	5.53	562.83
235.38	6.18	563.03
235.37	6.18	563.2
235.36	5.62	563.34
235.35	5.16	563.45
235.34	5.16	563.55
235.33	6.27	563.64
235.32	6.18	563.72
235.31	5.62	563.79
235.3	5.62	563.87
235.29	5.62	563.97
235.28	6.08	564.1
235.27	6.54	564.25
235.26	6.08	564.42
235.25	6.64	564.63
235.24	6.64	564.86
235.23	7.1	565.09
235.22	6.64	565.31
235.21	6.54	565.51
235.2	6.54	565.7
235.19	6.54	565.86
235.18	7.01	565.99
235.17	7.47	566.08
235.16	6.36	566.13
235.15	5.35	566.15
235.14	4.89	566.15
235.13	4.89	566.15
235.12	5.81	566.15
235.11	6.82	566.16
235.1	7.83	566.18
235.09	8.94	566.19
235.08	9.4	566.21
235.07	9.4	566.21
235.06	8.94	566.19
235.05	9.4	566.16
235.04	9.4	566.1
235.03	9.49	566.03
235.02	9.95	565.93
235.01	9.49	565.81
235	9.03	565.66
234.99	10.05	565.49
234.98	10.51	565.31
234.97	10.97	565.14
234.96	10.97	564.98
234.95	10.05	564.82
234.94	9.03	564.66
234.93	7.56	564.52
234.92	7.01	564.38
234.91	6.45	564.26
234.9	6.45	564.16
234.89	6.45	564.05
234.88	5.99	563.96
234.87	4.98	563.9
234.86	4.42	563.83
234.85	4.52	563.76
234.84	4.98	563.72
234.83	4.98	563.71
234.82	4.98	563.7
234.81	5.53	563.69
234.8	5.07	563.72
234.79	5.07	563.79
234.78	4.98	563.88
234.77	4.52	564
234.76	4.52	564.12
234.75	3.96	564.27
234.74	4.52	564.45
234.73	5.53	564.66
234.72	6.08	564.89
234.71	6.08	565.11
234.7	6.08	565.35
234.69	6.08	565.58
234.68	5.53	565.81
234.67	5.53	566.03
234.66	6.64	566.25
234.65	5.62	566.47
234.64	4.61	566.68
234.63	5.16	566.89
234.62	5.16	567.06
234.61	5.16	567.21
234.6	5.16	567.37
