#Written by Robertson Geologging WinLogger V1.5/410		
~VERSION INFORMATION		
#------------------------------------------------------------------------------		
 VERS. 2.0 : CWLS LOG ASCII STANDARD - VERSION 2.0		
 WRAP. NO  : ONE LINE PER DEPTH STEP		
~WELL INFORMATION		
#MNEM.UNIT         DATA                                DESCRIPTION OF MNEMONIC		
#------------------------------------------------------------------------------		
 STRT.M        348.0000                            :   START DEPTH		
 STOP.M          1.8300                            :   STOP DEPTH		
 STEP.M         -0.0100                            :   STEP VALUE		
 NULL.        -999.2500                            :   NULL VALUE		
 COMP.    GEUSd.                                   :   COMPANY NAME		
 WELL.    59.459                                   :   WELL NAME		
 FLD.     Jylland                                  :   FIELD NAME		
 LOC.     N/A                                      :   LOCATION		
 PROV.    N/A                                      :   PROVINCE		
 SRVC.    N/A                                      :   SERVICE COMPANY NAME		
 DATE.    26 May 14                                :   DATE		
 UWI.     N/A                                      :   UNIQUE WELL IDENTIFIER		
~PARAMETER INFORMATION		
#MNEMO.UNIT         VALUE                 DESCRIPTION OF MNEMONIC		
#------------------------------------------------------------------------------		
~OTHER INFORMATION SECTION		
#------------------------------------------------------------------------------		
~CURVE INFORMATION		
#MNEMO.UNIT         API CODE              CURVE DESCRIPTION		
#------------------------------------------------------------------------------		
 DEPTH.M                                 :   0     Depth		
 NGAM.API                                :   1     Natural Gamma		
 COND.mS/m                               :   2     Conductivity		
#------------------------------------------------------------------------------		
~A  DEPTH          NGAM          COND		
# ...
150.13	4.33	279.59
150.12	3.32	279.3
150.11	2.86	279.03
150.1	3.32	278.77
150.09	2.77	278.52
150.08	2.77	278.29
150.07	2.77	278.05
150.06	3.78	277.8
150.05	4.24	277.55
150.04	4.7	277.32
150.03	4.7	277.11
150.02	5.71	276.87
150.01	5.71	276.63
150	5.71	276.39
149.99	5.71	276.14
149.98	5.25	275.89
149.97	5.71	275.64
149.96	5.25	275.4
149.95	5.71	275.18
149.94	5.71	274.98
149.93	5.71	274.76
149.92	5.25	274.53
149.91	5.71	274.28
149.9	6.18	274.03
149.89	5.62	273.76
149.88	5.62	273.46
149.87	5.16	273.17
149.86	5.16	272.86
149.85	4.61	272.54
149.84	5.07	272.2
149.83	5.53	271.87
149.82	5.53	271.58
149.81	5.53	271.3
149.8	5.07	271.05
149.79	5.07	270.8
149.78	4.61	270.59
149.77	5.07	270.42
149.76	4.61	270.27
149.75	5.07	270.14
149.74	4.61	270.05
149.73	4.15	269.98
149.72	5.71	269.93
149.71	5.25	269.87
149.7	5.25	269.84
149.69	5.81	269.82
149.68	5.81	269.84
149.67	5.35	269.85
149.66	5.35	269.88
149.65	6.82	269.94
149.64	7.28	270.01
149.63	7.74	270.09
149.62	7.74	270.2
149.61	8.76	270.34
149.6	8.76	270.48
149.59	8.76	270.65
149.58	8.76	270.87
149.57	8.3	271.1
149.56	8.3	271.34
149.55	6.27	271.54
149.54	6.27	271.72
149.53	6.27	271.89
149.52	5.25	272.05
149.51	4.79	272.2
149.5	5.25	272.33
149.49	4.79	272.44
149.48	3.78	272.52
149.47	3.32	272.55
149.46	2.86	272.57
149.45	2.86	272.57
149.44	2.3	272.59
149.43	1.84	272.65
149.42	1.84	272.71
149.41	1.84	272.77
149.4	1.84	272.8
149.39	1.84	272.83
149.38	1.84	272.82
149.37	2.3	272.79
149.36	2.77	272.76
149.35	2.77	272.71
149.34	4.24	272.65
149.33	5.25	272.57
149.32	5.25	272.44
149.31	4.79	272.29
149.3	4.79	272.16
149.29	5.25	272.03
149.28	5.25	271.91
149.27	5.25	271.8
149.26	6.27	271.71
149.25	6.73	271.64
149.24	7.28	271.59
149.23	7.74	271.55
149.22	7.74	271.52
149.21	7.74	271.5
149.2	7.74	271.47
149.19	8.2	271.44
149.18	8.2	271.38
149.17	7.19	271.34
149.16	6.73	271.3
149.15	6.73	271.27
149.14	7.19	271.22
149.13	7.19	271.19
149.12	7.65	271.17
149.11	8.66	271.17
149.1	8.66	271.19
149.09	9.13	271.25
149.08	10.14	271.34
149.07	9.13	271.45
149.06	8.66	271.59
149.05	8.66	271.75
149.04	9.59	271.92
149.03	10.14	272.09
149.02	9.22	272.26
149.01	9.68	272.44
149	10.69	272.62
148.99	10.14	272.79
148.98	11.98	272.96
148.97	11.52	273.13
148.96	12.54	273.34
148.95	12.07	273.56
148.94	11.06	273.78
148.93	11.06	274.02
148.92	9.59	274.3
148.91	9.59	274.59
148.9	9.59	274.89
148.89	9.59	275.17
148.88	10.05	275.46
148.87	10.14	275.76
148.86	10.05	276.07
148.85	10.51	276.37
148.84	10.05	276.65
148.83	9.03	276.91
148.82	9.03	277.15
148.81	7.19	277.38
148.8	7.65	277.61
148.79	6.64	277.85
148.78	6.64	278.08
148.77	7.1	278.32
148.76	6.64	278.55
148.75	7.1	278.78
148.74	5.62	278.99
148.73	5.62	279.2
148.72	6.64	279.42
148.71	7.56	279.64
148.7	7.56	279.87
148.69	7.65	280.08
148.68	7.19	280.26
148.67	7.65	280.44
148.66	7.19	280.6
148.65	6.73	280.72
148.64	7.19	280.85
148.63	7.19	280.97
148.62	8.2	281.1
148.61	7.74	281.21
148.6	8.3	281.32
148.59	8.3	281.4
148.58	7.83	281.46
148.57	7.83	281.54
148.56	8.3	281.6
148.55	8.3	281.66
148.54	7.37	281.71
148.53	6.82	281.76
148.52	6.27	281.78
148.51	6.27	281.78
148.5	5.81	281.77
148.49	6.82	281.74
148.48	6.82	281.69
148.47	6.82	281.65
148.46	6.36	281.57
148.45	5.81	281.48
148.44	5.81	281.37
148.43	4.79	281.27
148.42	5.81	281.15
148.41	6.82	281
148.4	6.82	280.84
148.39	6.82	280.66
148.38	5.81	280.47
148.37	5.35	280.29
148.36	4.89	280.11
148.35	5.35	279.96
148.34	5.81	279.86
148.33	6.82	279.77
148.32	5.81	279.65
148.31	6.27	279.52
148.3	5.81	279.38
148.29	5.81	279.23
148.28	5.81	279.07
148.27	6.27	278.92
148.26	7.93	278.73
148.25	7.37	278.52
148.24	7.37	278.26
148.23	7.37	277.94
148.22	7.37	277.62
148.21	7.37	277.29
148.2	8.85	276.98
148.19	8.85	276.68
148.18	8.39	276.4
148.17	7.93	276.13
148.16	7.37	275.88
148.15	7.37	275.66
148.14	7.37	275.48
148.13	7.37	275.3
148.12	7.83	275.13
148.11	8.39	274.91
148.1	9.77	274.67
148.09	9.13	274.39
148.08	8.66	274.1
148.07	7.65	273.83
148.06	8.11	273.56
148.05	7.65	273.29
148.04	8.66	273.04
148.03	7.65	272.82
148.02	7.65	272.62
148.01	7.19	272.47
148	7.19	272.4
147.99	6.73	272.38
147.98	7.19	272.43
147.97	7.74	272.5
147.96	7.74	272.58
147.95	7.74	272.69
147.94	6.73	272.8
147.93	4.89	272.91
147.92	4.33	273
147.91	5.35	273.08
147.9	5.81	273.13
147.89	5.35	273.21
147.88	6.27	273.31
147.87	6.27	273.4
147.86	6.27	273.5
147.85	6.27	273.65
147.84	6.27	273.82
147.83	7.28	273.99
147.82	8.3	274.17
147.81	8.3	274.35
147.8	8.3	274.56
147.79	8.3	274.78
147.78	7.83	275.02
147.77	8.3	275.25
147.76	8.76	275.48
147.75	8.3	275.73
147.74	8.3	275.97
147.73	8.3	276.18
147.72	8.76	276.39
147.71	8.3	276.62
147.7	7.28	276.86
147.69	7.83	277.09
147.68	8.3	277.32
147.67	8.3	277.54
147.66	7.28	277.75
147.65	6.73	277.99
147.64	7.28	278.22
147.63	7.74	278.44
147.62	7.74	278.64
147.61	7.74	278.86
147.6	7.28	279.06
147.59	7.28	279.25
147.58	7.74	279.43
147.57	6.73	279.61
147.56	7.28	279.77
147.55	6.82	279.91
147.54	6.82	280.02
147.53	7.28	280.12
147.52	6.27	280.24
147.51	6.27	280.36
147.5	6.73	280.49
147.49	7.19	280.62
147.48	7.74	280.77
147.47	7.19	280.91
147.46	5.71	281.05
147.45	5.71	281.19
147.44	6.18	281.36
147.43	6.18	281.54
147.42	6.18	281.71
147.41	5.71	281.85
147.4	6.73	282
147.39	6.18	282.16
147.38	6.64	282.29
147.37	6.18	282.44
147.36	6.18	282.58
147.35	6.64	282.7
147.34	6.64	282.86
147.33	7.19	283.02
147.32	6.73	283.19
147.31	6.18	283.41
147.3	6.18	283.66
147.29	6.64	283.92
147.28	6.64	284.18
147.27	6.18	284.45
147.26	6.18	284.68
147.25	6.18	284.93
147.24	6.18	285.2
147.23	5.16	285.42
147.22	4.7	285.64
147.21	4.24	285.84
147.2	4.24	286.02
147.19	5.81	286.16
147.18	5.81	286.29
147.17	5.81	286.4
147.16	5.25	286.52
147.15	5.25	286.64
147.14	5.25	286.76
147.13	4.79	286.85
147.12	5.81	286.96
147.11	6.27	287.09
147.1	6.27	287.19
147.09	7.28	287.27
147.08	7.28	287.32
147.07	7.74	287.37
147.06	8.2	287.4
147.05	8.2	287.43
147.04	9.22	287.45
147.03	9.22	287.47
147.02	7.19	287.49
147.01	6.73	287.47
147	6.27	287.39
146.99	5.81	287.29
146.98	6.27	287.19
146.97	6.27	287.11
146.96	6.27	287.03
146.95	4.79	286.94
146.94	4.33	286.83
146.93	4.79	286.7
146.92	3.78	286.56
146.91	3.32	286.41
146.9	3.32	286.28
146.89	2.86	286.14
146.88	2.86	286.02
146.87	1.84	285.87
146.86	1.84	285.66
146.85	1.84	285.44
146.84	1.84	285.21
146.83	1.84	284.98
146.82	2.3	284.74
146.81	2.3	284.47
146.8	1.84	284.17
146.79	1.84	283.86
146.78	2.3	283.56
146.77	2.3	283.25
146.76	1.84	282.97
146.75	2.3	282.72
146.74	2.77	282.47
146.73	2.77	282.23
146.72	2.77	282
146.71	3.78	281.81
146.7	3.78	281.66
146.69	3.78	281.54
146.68	4.24	281.45
146.67	4.24	281.41
146.66	4.24	281.38
146.65	3.78	281.37
146.64	3.78	281.4
146.63	4.24	281.46
146.62	4.7	281.54
146.61	4.7	281.63
146.6	4.7	281.75
146.59	5.71	281.87
146.58	5.25	282.01
146.57	5.25	282.15
146.56	5.25	282.29
146.55	5.25	282.48
146.54	4.7	282.68
146.53	5.16	282.89
146.52	5.62	283.09
146.51	5.62	283.3
146.5	6.08	283.5
146.49	6.54	283.69
146.48	7.01	283.89
146.47	6.54	284.08
146.46	6.08	284.27
146.45	6.64	284.43
146.44	7.1	284.54
146.43	7.1	284.6
146.42	6.54	284.64
146.41	7.56	284.64
146.4	7.56	284.6
146.39	8.11	284.52
146.38	9.13	284.39
146.37	8.66	284.21
146.36	8.2	284.01
146.35	8.2	283.81
146.34	8.2	283.59
146.33	8.76	283.38
146.32	9.31	283.16
146.31	8.85	282.91
146.3	8.85	282.64
146.29	8.85	282.35
146.28	8.85	282.08
146.27	8.39	281.83
146.26	9.4	281.57
146.25	9.4	281.27
146.24	8.85	280.95
146.23	8.39	280.62
146.22	7.37	280.29
146.21	7.83	279.96
146.2	7.83	279.67
146.19	7.83	279.37
146.18	7.83	279.06
146.17	7.37	278.73
146.16	6.36	278.39
146.15	6.82	278.05
146.14	7.28	277.73
146.13	7.28	277.45
146.12	7.74	277.2
146.11	6.73	276.97
146.1	6.73	276.74
146.09	5.71	276.53
146.08	5.71	276.34
146.07	5.25	276.22
146.06	5.25	276.15
146.05	6.73	276.12
146.04	5.25	276.1
146.03	5.71	276.12
146.02	5.71	276.13
146.01	6.27	276.14
146	6.73	276.16
145.99	8.76	276.21
145.98	8.3	276.25
145.97	7.83	276.31
145.96	7.83	276.37
145.95	7.83	276.41
145.94	7.83	276.46
145.93	8.39	276.53
145.92	8.85	276.58
145.91	8.85	276.66
145.9	9.31	276.75
145.89	10.78	276.84
145.88	9.31	276.9
145.87	9.77	276.92
145.86	9.31	276.92
145.85	9.77	276.9
