#Written by Robertson Geologging WinLogger V1.5/410
~VERSION INFORMATION
#------------------------------------------------------------------------------
 VERS. 2.0 : CWLS LOG ASCII STANDARD - VERSION 2.0
 WRAP. NO  : ONE LINE PER DEPTH STEP
~WELL INFORMATION
#MNEM.UNIT         DATA                                DESCRIPTION OF MNEMONIC
#------------------------------------------------------------------------------
 STRT.M        348.0200                            :   START DEPTH
 STOP.M        107.2000                            :   STOP DEPTH
 STEP.M         -0.0100                            :   STEP VALUE
 NULL.        -999.2500                            :   NULL VALUE
 COMP.    GEUSd.                                   :   COMPANY NAME
 WELL.    59.459                                   :   WELL NAME
 FLD.     Jylland                                  :   FIELD NAME
 LOC.     N/A                                      :   LOCATION
 PROV.    N/A                                      :   PROVINCE
 SRVC.    N/A                                      :   SERVICE COMPANY NAME
 DATE.    27 May 14                                :   DATE
 UWI.     N/A                                      :   UNIQUE WELL IDENTIFIER
~PARAMETER INFORMATION
#MNEMO.UNIT         VALUE                 DESCRIPTION OF MNEMONIC
#------------------------------------------------------------------------------
~OTHER INFORMATION SECTION
#------------------------------------------------------------------------------
~CURVE INFORMATION
#MNEMO.UNIT         API CODE              CURVE DESCRIPTION
#------------------------------------------------------------------------------
 DEPTH.M                                 :   0     Depth
 TIME.SEC                                :   1     Time
 TXRX1.µs                                :   2     TXRX1
 TXRX2.µs                                :   3     TXRX2
 TXRX3.µs                                :   4     TXRX3
 R1R2.KM/S                               :   5     R1R2
 R2R3.KM/S                               :   6     R2R3
 R1R3.KM/S                               :   7     R1R3
 OUT6.API                                :   8     Natural Gamma
#------------------------------------------------------------------------------
~A  DEPTH     TIME         TXRX1         TXRX2         TXRX3          R1R2          R2R3          R1R3          OUT6
# ...
   156.20 15380.67         73.29         96.57        118.71          8.59          9.03          8.81          8.07
   156.19 15381.31         73.14         96.43        118.14          8.59          9.21          8.89          7.88
   156.18 15381.95         73.14         96.29        117.71          8.64          9.33          8.97          7.41
   156.17 15382.64         73.14         96.29        117.29          8.64          9.52          9.06          7.59
   156.16 15383.80         73.14         96.14        117.00          8.70          9.59          9.12          7.89
   156.15 15384.43         73.14         96.00        116.71          8.75          9.66          9.18          8.16
   156.14 15385.06         73.00         95.86        116.57          8.75          9.66          9.18          8.15
   156.13 15385.70         73.00         95.71        116.43          8.81          9.66          9.21          8.28
   156.12 15386.33         73.00         95.57        116.29          8.86          9.66          9.24          8.53
   156.11 15386.97         73.00         95.43        116.14          8.92          9.66          9.27          8.31
   156.10 15387.61         73.00         95.00        116.14          9.09          9.46          9.27          8.19
   156.09 15388.25         73.00         94.71        116.14          9.21          9.33          9.27          8.32
   156.08 15388.89         73.00         94.57        116.14          9.27          9.27          9.27          8.32
   156.07 15389.52         73.00         94.43        116.14          9.33          9.21          9.27          8.62
   156.06 15390.16         72.86         94.29        116.29          9.33          9.09          9.21          8.74
   156.05 15390.81         72.71         94.14        116.43          9.33          8.97          9.15          8.98
   156.04 15391.45         72.57         94.00        116.43          9.33          8.92          9.12          9.09
   156.03 15392.08         72.43         94.00        116.43          9.27          8.92          9.09          8.58
   156.02 15392.71         72.29         94.00        116.43          9.21          8.92          9.06          8.42
   156.01 15393.35         72.00         94.00        116.43          9.09          8.92          9.00          8.55
   156.00 15393.99         71.71         94.00        116.29          8.97          8.97          8.97          8.49
   155.99 15394.57         71.57         94.00        116.14          8.92          9.03          8.97          7.73
   155.98 15395.22         71.43         94.00        116.00          8.86          9.09          8.97          7.64
   155.97 15395.85         71.29         94.00        116.00          8.81          9.09          8.95          7.53
   155.96 15396.48         71.14         94.00        116.00          8.75          9.09          8.92          7.05
   155.95 15397.12         71.00         94.00        116.00          8.70          9.09          8.89          7.05
   155.94 15397.87         71.00         94.00        116.00          8.70          9.09          8.89          7.15
   155.93 15398.51         71.00         94.00        116.00          8.70          9.09          8.89          7.15
   155.92 15399.27         71.00         94.00        116.00          8.70          9.09          8.89          7.15
   155.91 15399.92         71.00         94.00        115.86          8.70          9.15          8.92          7.26
   155.90 15400.49         71.00         93.86        115.71          8.75          9.15          8.95          6.45
   155.89 15401.14         71.00         93.71        115.57          8.81          9.15          8.97          6.57
   155.88 15401.79         71.00         93.57        115.57          8.86          9.09          8.97          6.34
   155.87 15402.43         71.00         93.43        115.43          8.92          9.09          9.00          6.11
   155.86 15403.07         71.00         93.29        115.29          8.97          9.09          9.03          6.34
   155.85 15403.72         71.00         93.14        115.29          9.03          9.03          9.03          6.34
   155.84 15404.37         71.00         93.00        115.29          9.09          8.97          9.03          6.93
   155.83 15405.01         71.00         93.00        115.29          9.09          8.97          9.03          6.88
   155.82 15405.66         71.00         93.00        115.29          9.09          8.97          9.03          7.18
   155.81 15406.31         71.00         93.00        115.14          9.09          9.03          9.06          7.30
   155.80 15406.95         71.00         93.00        115.14          9.09          9.03          9.06          7.39
   155.79 15407.58         71.00         93.00        115.14          9.09          9.03          9.06          7.39
   155.78 15408.29         71.00         93.00        115.14          9.09          9.03          9.06          7.26
   155.77 15408.94         71.00         93.00        115.14          9.09          9.03          9.06          6.80
   155.76 15409.59         71.00         93.00        115.14          9.09          9.03          9.06          7.15
   155.75 15410.22         71.00         93.00        115.14          9.09          9.03          9.06          6.80
   155.74 15410.87         71.00         93.00        115.14          9.09          9.03          9.06          6.57
   155.73 15411.50         71.00         93.00        115.14          9.09          9.03          9.06          6.80
   155.72 15412.14         70.86         93.00        115.29          9.03          8.97          9.00          6.43
   155.71 15412.77         70.86         93.00        115.29          9.03          8.97          9.00          6.55
   155.70 15413.40         70.71         93.00        115.29          8.97          8.97          8.97          6.32
   155.69 15414.04         70.57         93.00        115.29          8.92          8.97          8.95          5.86
   155.68 15414.67         70.57         93.00        115.29          8.92          8.97          8.95          5.62
   155.67 15415.37         70.43         93.00        115.29          8.86          8.97          8.92          5.38
   155.66 15416.02         70.43         93.00        115.29          8.86          8.97          8.92          5.20
   155.65 15416.88         70.57         93.00        115.14          8.92          9.03          8.97          5.24
   155.64 15417.61         70.43         93.00        115.00          8.86          9.09          8.97          4.73
   155.63 15418.23         70.43         93.00        115.14          8.86          9.03          8.95          4.65
   155.62 15419.25         70.43         93.00        115.29          8.86          8.97          8.92          4.65
   155.61 15420.37         70.29         93.00        115.29          8.81          8.97          8.89          4.53
   155.60 15421.32         70.43         93.00        115.29          8.86          8.97          8.92          4.94
   155.59 15421.89         70.43         93.00        115.29          8.86          8.97          8.92          4.94
   155.58 15422.46         70.29         93.00        115.29          8.81          8.97          8.89          4.91
   155.57 15423.41         70.29         93.00        115.29          8.81          8.97          8.89          5.00
   155.56 15424.10         70.29         93.00        115.29          8.81          8.97          8.89          5.13
   155.55 15424.75         70.43         93.00        115.14          8.86          9.03          8.95          5.29
   155.54 15425.44         70.57         93.00        115.29          8.92          8.97          8.95          5.57
   155.53 15426.01         70.43         93.00        115.57          8.86          8.86          8.86          5.92
   155.52 15426.61         70.43         93.00        115.86          8.86          8.75          8.81          6.15
