#Written by Robertson Geologging WinLogger V1.5/410
~VERSION INFORMATION
#------------------------------------------------------------------------------
 VERS. 2.0 : CWLS LOG ASCII STANDARD - VERSION 2.0
 WRAP. NO  : ONE LINE PER DEPTH STEP
~WELL INFORMATION
#MNEM.UNIT         DATA                                DESCRIPTION OF MNEMONIC
#------------------------------------------------------------------------------
 STRT.M        348.0200                            :   START DEPTH
 STOP.M        107.2000                            :   STOP DEPTH
 STEP.M         -0.0100                            :   STEP VALUE
 NULL.        -999.2500                            :   NULL VALUE
 COMP.    GEUSd.                                   :   COMPANY NAME
 WELL.    59.459                                   :   WELL NAME
 FLD.     Jylland                                  :   FIELD NAME
 LOC.     N/A                                      :   LOCATION
 PROV.    N/A                                      :   PROVINCE
 SRVC.    N/A                                      :   SERVICE COMPANY NAME
 DATE.    27 May 14                                :   DATE
 UWI.     N/A                                      :   UNIQUE WELL IDENTIFIER
~PARAMETER INFORMATION
#MNEMO.UNIT         VALUE                 DESCRIPTION OF MNEMONIC
#------------------------------------------------------------------------------
~OTHER INFORMATION SECTION
#------------------------------------------------------------------------------
~CURVE INFORMATION
#MNEMO.UNIT         API CODE              CURVE DESCRIPTION
#------------------------------------------------------------------------------
 DEPTH.M                                 :   0     Depth
 TIME.SEC                                :   1     Time
 TXRX1.µs                                :   2     TXRX1
 TXRX2.µs                                :   3     TXRX2
 TXRX3.µs                                :   4     TXRX3
 R1R2.KM/S                               :   5     R1R2
 R2R3.KM/S                               :   6     R2R3
 R1R3.KM/S                               :   7     R1R3
 OUT6.API                                :   8     Natural Gamma
#------------------------------------------------------------------------------
~A  DEPTH     TIME         TXRX1         TXRX2         TXRX3          R1R2          R2R3          R1R3          OUT6
# ...
   283.85  5778.40         65.86         85.86        106.00         10.00          9.93          9.96         10.47
   283.84  5779.16         65.71         86.00        106.14          9.86          9.93          9.89         10.66
   283.83  5780.18         65.57         86.00        106.29          9.79          9.86          9.82         10.79
   283.82  5781.01         65.43         86.14        106.43          9.66          9.86          9.76         10.43
   283.81  5781.78         65.43         86.29        106.57          9.59          9.86          9.72         10.85
   283.80  5782.54         65.29         86.29        106.71          9.52          9.79          9.66         10.69
   283.79  5783.39         65.14         86.43        106.86          9.40          9.79          9.59         10.62
   283.78  5784.16         65.00         86.57        107.00          9.27          9.79          9.52         10.34
   283.77  5784.92         65.00         86.71        107.00          9.21          9.86          9.52         10.45
   283.76  5786.21         65.00         86.86        107.00          9.15          9.93          9.52         10.75
   283.75  5787.03         65.00         86.86        107.00          9.15          9.93          9.52         10.71
   283.74  5787.88         65.00         86.86        107.00          9.15          9.93          9.52         10.33
   283.73  5788.75         65.00         87.00        107.00          9.09         10.00          9.52          9.94
   283.72  5789.61         65.14         87.00        107.00          9.15         10.00          9.56         10.15
   283.71  5790.46         65.29         87.00        107.00          9.21         10.00          9.59          9.54
   283.70  5791.32         65.43         87.00        107.00          9.27         10.00          9.62          9.72
   283.69  5792.17         65.71         87.00        107.00          9.40         10.00          9.69          9.41
   283.68  5793.04         66.00         87.00        107.00          9.52         10.00          9.76          8.98
   283.67  5793.92         66.29         87.00        107.00          9.66         10.00          9.82          8.86
   283.66  5794.75         66.43         87.00        107.00          9.72         10.00          9.86          8.24
   283.65  5795.59         66.57         87.00        107.00          9.79         10.00          9.89          8.77
   283.64  5796.41         66.57         87.00        107.00          9.79         10.00          9.89          8.62
   283.63  5797.35         66.71         87.00        107.00          9.86         10.00          9.93          8.84
   283.62  5798.20         66.57         87.00        107.00          9.79         10.00          9.89          9.09
   283.61  5799.05         66.43         87.00        107.00          9.72         10.00          9.86          9.69
   283.60  5799.88         66.43         87.14        107.00          9.66         10.07          9.86         10.27
   283.59  5800.74         66.43         87.29        107.00          9.59         10.14          9.86          9.93
   283.58  5801.59         66.29         87.57        107.00          9.40         10.29          9.82          9.91
   283.57  5802.36         66.29         87.71        107.00          9.33         10.37          9.82         10.06
   283.56  5803.21         66.14         87.86        107.00          9.21         10.45          9.79          9.77
   283.55  5804.04         66.00         88.00        107.00          9.09         10.53          9.76          9.81
   283.54  5804.89         65.86         88.14        107.00          8.97         10.61          9.72          9.95
   283.53  5805.74         65.57         88.14        107.00          8.86         10.61          9.66         10.38
   283.52  5806.50         65.43         88.00        107.00          8.86         10.53          9.62         11.07
   283.51  5807.09         65.43         87.86        107.00          8.92         10.45          9.62         10.80
   283.50  5807.94         65.29         87.86        107.00          8.86         10.45          9.59         10.79
   283.49  5808.79         65.29         87.71        107.14          8.92         10.29          9.56         11.59
   283.48  5809.65         65.43         87.57        107.29          9.03         10.14          9.56         11.23
   283.47  5810.49         65.43         87.43        107.43          9.09         10.00          9.52         10.98
   283.46  5811.28         65.57         87.29        107.57          9.21          9.86          9.52         11.14
   283.45  5812.14         65.71         87.29        107.71          9.27          9.79          9.52         11.06
   283.44  5813.06         65.57         87.14        107.86          9.27          9.66          9.46         10.44
   283.43  5813.93         65.57         87.14        108.00          9.27          9.59          9.43          9.72
   283.42  5814.78         65.43         87.00        108.00          9.27          9.52          9.40         10.04
   283.41  5815.66         65.43         87.00        108.00          9.27          9.52          9.40         10.46
   283.40  5816.50         65.57         86.86        108.00          9.40          9.46          9.43         10.79
   283.39  5817.34         65.57         86.71        108.00          9.46          9.40          9.43         10.65
   283.38  5818.19         65.57         86.57        108.00          9.52          9.33          9.43         10.65
   283.37  5819.03         65.86         86.43        108.00          9.72          9.27          9.49         10.21
   283.36  5819.89         66.00         86.14        108.00          9.93          9.15          9.52         10.01
   283.35  5820.75         66.29         86.29        108.00         10.00          9.21          9.59          9.71
   283.34  5821.46         66.43         86.14        108.00         10.14          9.15          9.62         10.39
   283.33  5822.45         66.57         86.29        108.00         10.14          9.21          9.66         10.24
   283.32  5823.27         66.71         86.29        107.86         10.22          9.27          9.72          9.79
   283.31  5824.13         66.86         86.43        107.86         10.22          9.33          9.76          9.75
   283.30  5824.99         66.86         86.57        107.71         10.14          9.46          9.79         10.26
   283.29  5825.80         67.00         86.71        107.57         10.14          9.59          9.86         10.34
   283.28  5826.64         67.00         86.71        107.43         10.14          9.66          9.89         10.53
   283.27  5827.49         66.86         86.86        107.29         10.00          9.79          9.89         10.72
   283.26  5828.35         66.71         86.86        107.14          9.93          9.86          9.89         11.74
   283.25  5829.21         66.71         87.14        107.14          9.79         10.00          9.89         11.53
   283.24  5830.07         66.71         87.14        107.00          9.79         10.07          9.93         12.02
   283.23  5830.93         66.71         87.29        107.00          9.72         10.14          9.93         12.30
   283.22  5831.78         66.71         87.29        107.00          9.72         10.14          9.93         12.56
   283.21  5832.62         66.86         87.29        107.00          9.79         10.14          9.96         13.00
   283.20  5833.47         67.14         87.43        107.14          9.86         10.14         10.00         13.69
   283.19  5834.33         67.29         87.57        107.29          9.86         10.14         10.00         14.30
   283.18  5835.21         67.43         87.57        107.43          9.93         10.07         10.00         14.64
   283.17  5836.05         67.43         87.71        107.57          9.86         10.07          9.96         14.44
