#Written by Robertson Geologging WinLogger V1.5/410
~VERSION INFORMATION
#------------------------------------------------------------------------------
 VERS. 2.0 : CWLS LOG ASCII STANDARD - VERSION 2.0
 WRAP. NO  : ONE LINE PER DEPTH STEP
~WELL INFORMATION
#MNEM.UNIT         DATA                                DESCRIPTION OF MNEMONIC
#------------------------------------------------------------------------------
 STRT.M        348.0200                            :   START DEPTH
 STOP.M        107.2000                            :   STOP DEPTH
 STEP.M         -0.0100                            :   STEP VALUE
 NULL.        -999.2500                            :   NULL VALUE
 COMP.    GEUSd.                                   :   COMPANY NAME
 WELL.    59.459                                   :   WELL NAME
 FLD.     Jylland                                  :   FIELD NAME
 LOC.     N/A                                      :   LOCATION
 PROV.    N/A                                      :   PROVINCE
 SRVC.    N/A                                      :   SERVICE COMPANY NAME
 DATE.    27 May 14                                :   DATE
 UWI.     N/A                                      :   UNIQUE WELL IDENTIFIER
~PARAMETER INFORMATION
#MNEMO.UNIT         VALUE                 DESCRIPTION OF MNEMONIC
#------------------------------------------------------------------------------
~OTHER INFORMATION SECTION
#------------------------------------------------------------------------------
~CURVE INFORMATION
#MNEMO.UNIT         API CODE              CURVE DESCRIPTION
#------------------------------------------------------------------------------
 DEPTH.M                                 :   0     Depth
 TIME.SEC                                :   1     Time
 TXRX1.µs                                :   2     TXRX1
 TXRX2.µs                                :   3     TXRX2
 TXRX3.µs                                :   4     TXRX3
 R1R2.KM/S                               :   5     R1R2
 R2R3.KM/S                               :   6     R2R3
 R1R3.KM/S                               :   7     R1R3
 OUT6.API                                :   8     Natural Gamma
#------------------------------------------------------------------------------
~A  DEPTH     TIME         TXRX1         TXRX2         TXRX3          R1R2          R2R3          R1R3          OUT6
# ...
   252.11  8494.75         71.57         94.57        115.57          8.70          9.52          9.09          4.77
   252.10  8495.69         71.00         94.86        115.29          8.38          9.79          9.03          4.61
   252.09  8496.63         70.57         94.86        115.14          8.24          9.86          8.97          4.18
   252.08  8497.48         70.00         94.71        115.00          8.09          9.86          8.89          4.11
   252.07  8498.26         69.43         94.57        115.00          7.95          9.79          8.78          4.13
   252.06  8499.02         69.00         94.57        115.00          7.82          9.79          8.70          3.98
   252.05  8499.70         69.29         94.29        115.00          8.00          9.66          8.75          4.07
   252.04  8500.46         69.86         94.14        115.00          8.24          9.59          8.86          4.02
   252.03  8501.38         70.43         94.00        115.00          8.48          9.52          8.97          4.80
   252.02  8502.21         70.86         93.71        114.86          8.75          9.46          9.09          4.63
   252.01  8503.07         71.29         93.57        114.86          8.97          9.40          9.18          4.48
   252.00  8503.93         71.57         93.43        114.86          9.15          9.33          9.24          4.36
   251.99  8504.78         71.71         93.29        114.86          9.27          9.27          9.27          4.49
   251.98  8505.62         71.71         93.29        114.71          9.27          9.33          9.30          4.83
   251.97  8506.45         71.71         93.14        114.71          9.33          9.27          9.30          4.74
   251.96  8507.30         71.57         93.00        114.57          9.33          9.27          9.30          5.09
   251.95  8508.13         71.43         93.00        114.57          9.27          9.27          9.27          5.50
   251.94  8508.99         71.43         93.00        114.43          9.27          9.33          9.30          5.44
   251.93  8509.85         71.43         92.86        114.29          9.33          9.33          9.33          6.50
   251.92  8510.75         71.57         92.71        114.14          9.46          9.33          9.40          6.68
   251.91  8511.65         71.57         92.57        114.14          9.52          9.27          9.40          6.85
   251.90  8512.70         71.43         92.57        114.00          9.46          9.33          9.40          7.29
   251.89  8513.55         71.43         92.43        114.00          9.52          9.27          9.40          7.31
   251.88  8514.35         71.57         92.29        114.00          9.66          9.21          9.43          7.54
   251.87  8515.10         71.57         92.14        114.00          9.72          9.15          9.43          7.41
   251.86  8515.92         71.57         92.14        114.00          9.72          9.15          9.43          6.93
   251.85  8516.76         71.43         92.14        114.14          9.66          9.09          9.36          7.63
   251.84  8517.70         71.43         92.14        114.14          9.66          9.09          9.36          7.63
   251.83  8518.56         71.43         92.14        114.14          9.66          9.09          9.36          7.53
   251.82  8519.40         71.43         92.29        114.14          9.59          9.15          9.36          7.75
   251.81  8520.15         71.29         92.43        114.29          9.46          9.15          9.30          7.69
   251.80  8521.01         71.14         92.43        114.29          9.40          9.15          9.27          7.77
   251.79  8521.89         71.00         92.57        114.29          9.27          9.21          9.24          7.60
   251.78  8522.72         71.00         92.71        114.14          9.21          9.33          9.27          7.45
   251.77  8523.58         71.00         92.86        114.29          9.15          9.33          9.24          7.77
   251.76  8524.44         71.00         92.86        114.29          9.15          9.33          9.24          6.95
   251.75  8525.30         71.00         92.86        114.29          9.15          9.33          9.24          7.19
   251.74  8526.14         71.00         92.86        114.14          9.15          9.40          9.27          7.15
   251.73  8526.98         71.00         93.00        114.29          9.09          9.40          9.24          6.86
   251.72  8527.83         71.00         93.00        114.29          9.09          9.40          9.24          6.69
   251.71  8528.68         70.86         93.00        114.29          9.03          9.40          9.21          6.39
   251.70  8529.55         70.71         93.00        114.14          8.97          9.46          9.21          6.49
   251.69  8530.40         70.57         93.00        114.14          8.92          9.46          9.18          6.77
   251.68  8531.24         70.29         93.00        114.14          8.81          9.46          9.12          6.43
   251.67  8531.99         70.14         93.00        114.14          8.75          9.46          9.09          6.79
   251.66  8532.84         69.86         93.00        114.00          8.64          9.52          9.06          7.13
   251.65  8533.69         69.57         93.00        114.00          8.54          9.52          9.00          6.87
   251.64  8534.57         69.29         93.00        114.00          8.43          9.52          8.95          6.82
   251.63  8535.38         69.00         93.00        114.00          8.33          9.52          8.89          7.00
   251.62  8536.22         68.71         92.86        114.00          8.28          9.46          8.83          7.13
   251.61  8537.04         68.57         92.71        114.00          8.28          9.40          8.81          6.94
   251.60  8538.05         68.71         92.57        114.00          8.38          9.33          8.83          6.51
   251.59  8539.05         69.00         92.29        114.00          8.59          9.21          8.89          6.52
   251.58  8539.88         69.14         92.14        114.00          8.70          9.15          8.92          6.12
   251.57  8540.72         69.43         92.00        114.00          8.86          9.09          8.97          5.98
   251.56  8541.64         69.71         91.71        114.00          9.09          8.97          9.03          5.89
   251.55  8542.33         70.00         91.71        114.00          9.21          8.97          9.09          6.31
   251.54  8543.26         70.29         91.71        114.00          9.33          8.97          9.15          6.32
   251.53  8544.09         70.14         91.43        114.00          9.40          8.86          9.12          6.13
   251.52  8544.93         70.00         91.29        114.00          9.40          8.81          9.09          5.81
   251.51  8545.77         70.00         90.71        114.00          9.66          8.59          9.09          5.70
   251.50  8546.62         70.00         90.57        114.00          9.72          8.54          9.09          5.31
   251.49  8547.45         70.00         90.71        114.00          9.66          8.59          9.09          4.75
   251.48  8548.20         70.00         90.71        114.00          9.66          8.59          9.09          5.00
   251.47  8549.30         70.00         90.71        114.00          9.66          8.59          9.09          4.78
   251.46  8550.14         70.14         90.86        114.00          9.66          8.64          9.12          4.51
   251.45  8550.92         70.29         91.00        114.00          9.66          8.70          9.15          4.47
   251.44  8551.96         70.29         91.43        114.00          9.46          8.86          9.15          4.49
   251.43  8552.70         70.43         91.43        114.14          9.52          8.81          9.15          4.58
