#Written by Robertson Geologging WinLogger V1.5/410
~VERSION INFORMATION
#------------------------------------------------------------------------------
 VERS. 2.0 : CWLS LOG ASCII STANDARD - VERSION 2.0
 WRAP. NO  : ONE LINE PER DEPTH STEP
~WELL INFORMATION
#MNEM.UNIT         DATA                                DESCRIPTION OF MNEMONIC
#------------------------------------------------------------------------------
 STRT.M        348.0200                            :   START DEPTH
 STOP.M        107.2000                            :   STOP DEPTH
 STEP.M         -0.0100                            :   STEP VALUE
 NULL.        -999.2500                            :   NULL VALUE
 COMP.    GEUSd.                                   :   COMPANY NAME
 WELL.    59.459                                   :   WELL NAME
 FLD.     Jylland                                  :   FIELD NAME
 LOC.     N/A                                      :   LOCATION
 PROV.    N/A                                      :   PROVINCE
 SRVC.    N/A                                      :   SERVICE COMPANY NAME
 DATE.    27 May 14                                :   DATE
 UWI.     N/A                                      :   UNIQUE WELL IDENTIFIER
~PARAMETER INFORMATION
#MNEMO.UNIT         VALUE                 DESCRIPTION OF MNEMONIC
#------------------------------------------------------------------------------
~OTHER INFORMATION SECTION
#------------------------------------------------------------------------------
~CURVE INFORMATION
#MNEMO.UNIT         API CODE              CURVE DESCRIPTION
#------------------------------------------------------------------------------
 DEPTH.M                                 :   0     Depth
 TIME.SEC                                :   1     Time
 TXRX1.µs                                :   2     TXRX1
 TXRX2.µs                                :   3     TXRX2
 TXRX3.µs                                :   4     TXRX3
 R1R2.KM/S                               :   5     R1R2
 R2R3.KM/S                               :   6     R2R3
 R1R3.KM/S                               :   7     R1R3
 OUT6.API                                :   8     Natural Gamma
#------------------------------------------------------------------------------
~A  DEPTH     TIME         TXRX1         TXRX2         TXRX3          R1R2          R2R3          R1R3          OUT6
# ...
   332.15  1375.92         64.00         83.71        103.71         10.14         10.00         10.07         11.09
   332.14  1376.51         63.71         83.57        103.57         10.07         10.00         10.04         10.86
   332.13  1377.47         63.71         83.29        103.43         10.22          9.93         10.07         11.17
   332.12  1378.35         63.57         83.14        103.14         10.22         10.00         10.11         11.38
   332.11  1379.15         63.29         82.86        102.86         10.22         10.00         10.11         11.44
   332.10  1380.32         63.00         82.57        102.43         10.22         10.07         10.14         10.79
   332.09  1381.18         63.00         82.43        102.14         10.29         10.14         10.22         10.64
   332.08  1382.15         62.71         82.14        101.86         10.29         10.14         10.22         10.56
   332.07  1382.88         62.57         82.00        101.57         10.29         10.22         10.26         10.41
   332.06  1383.89         62.14         81.86        101.29         10.14         10.29         10.22         11.03
   332.05  1384.91         61.86         81.57        101.14         10.14         10.22         10.18         10.31
   332.04  1385.65         61.71         81.43        100.86         10.14         10.29         10.22         10.41
   332.03  1386.51         61.71         81.43        100.71         10.14         10.37         10.26         10.11
   332.02  1387.84         61.57         81.29        100.57         10.14         10.37         10.26          9.95
   332.01  1388.49         61.71         81.14        100.43         10.29         10.37         10.33          9.89
   332.00  1389.61         61.86         80.86        100.29         10.53         10.29         10.41          9.90
   331.99  1390.56         62.00         80.57        100.14         10.77         10.22         10.49          9.96
   331.98  1391.59         62.14         80.29        100.00         11.02         10.14         10.57          9.78
   331.97  1392.53         62.29         80.00        100.00         11.29         10.00         10.61          9.76
   331.96  1393.20         62.29         79.86        100.00         11.38          9.93         10.61          9.56
   331.95  1394.30         62.14         79.57        100.00         11.48          9.79         10.57          9.40
   331.94  1394.96         61.86         79.57        100.00         11.29          9.79         10.49          9.46
   331.93  1396.16         61.57         79.57         99.86         11.11          9.86         10.45          9.83
   331.92  1397.27         61.43         79.57         99.71         11.02          9.93         10.45          9.84
   331.91  1398.22         61.29         79.71         99.43         10.85         10.14         10.49          9.52
   331.90  1399.06         61.14         79.86         99.14         10.69         10.37         10.53          9.68
   331.89  1399.99         61.00         79.86         98.86         10.61         10.53         10.57          9.18
   331.88  1401.02         61.00         80.00         98.43         10.53         10.85         10.69          9.29
   331.87  1401.95         61.00         80.14         98.14         10.45         11.11         10.77          9.51
   331.86  1402.91         61.00         80.14         98.00         10.45         11.20         10.81          9.65
   331.85  1403.85         60.86         80.00         97.71         10.45         11.29         10.85          9.77
   331.84  1404.77         60.71         79.86         97.57         10.45         11.29         10.85          9.71
   331.83  1405.70         60.57         79.57         97.57         10.53         11.11         10.81          9.99
   331.82  1406.72         60.43         79.14         97.57         10.69         10.85         10.77          9.95
   331.81  1407.65         60.29         79.00         97.71         10.69         10.69         10.69          9.89
   331.80  1408.39         60.14         78.71         97.86         10.77         10.45         10.61          9.58
   331.79  1409.14         60.00         78.57         98.00         10.77         10.29         10.53          9.53
   331.78  1410.15         60.00         78.71         98.29         10.69         10.22         10.45          9.23
   331.77  1410.72         60.00         78.86         98.43         10.61         10.22         10.41          9.37
   331.76  1411.47         60.00         79.00         98.43         10.53         10.29         10.41          9.56
   331.75  1412.22         60.00         79.29         98.43         10.37         10.45         10.41          9.55
   331.74  1413.29         60.00         79.14         98.29         10.45         10.45         10.45         10.17
   331.73  1414.19         60.00         79.00         98.00         10.53         10.53         10.53          9.81
   331.72  1415.11         60.00         78.86         97.71         10.61         10.61         10.61          9.95
   331.71  1416.07         60.00         78.57         97.43         10.77         10.61         10.69         10.15
   331.70  1417.01         60.00         78.29         97.43         10.94         10.45         10.69         10.11
   331.69  1417.95         59.86         78.14         97.43         10.94         10.37         10.65         10.20
   331.68  1418.89         59.71         78.00         97.29         10.94         10.37         10.65         10.41
   331.67  1419.85         59.71         78.00         97.29         10.94         10.37         10.65         10.46
   331.66  1420.79         59.71         78.00         97.29         10.94         10.37         10.65         10.41
   331.65  1421.72         59.71         78.00         97.29         10.94         10.37         10.65         10.38
   331.64  1422.68         59.57         78.00         97.14         10.85         10.45         10.65         10.86
   331.63  1423.52         59.57         78.00         96.86         10.85         10.61         10.73         11.29
   331.62  1424.47         59.57         78.00         96.57         10.85         10.77         10.81         11.21
   331.61  1425.13         59.71         78.00         96.43         10.94         10.85         10.89         11.23
   331.60  1426.08         59.57         77.86         96.29         10.94         10.85         10.89         10.88
   331.59  1427.04         59.57         77.86         96.14         10.94         10.94         10.94         10.73
   331.58  1428.06         59.57         77.71         96.00         11.02         10.94         10.98         11.17
   331.57  1428.91         59.71         77.71         96.00         11.11         10.94         11.02         11.07
   331.56  1429.84         59.71         77.71         96.00         11.11         10.94         11.02         11.28
   331.55  1430.78         59.86         77.71         95.86         11.20         11.02         11.11         11.18
   331.54  1431.71         59.71         77.71         95.86         11.11         11.02         11.07         10.95
   331.53  1432.66         59.71         77.86         95.86         11.02         11.11         11.07         10.93
   331.52  1433.53         59.71         77.86         95.86         11.02         11.11         11.07         11.50
   331.51  1434.53         59.71         77.86         95.86         11.02         11.11         11.07         11.18
   331.50  1435.50         59.71         77.71         95.86         11.11         11.02         11.07         11.33
   331.49  1436.46         59.71         77.71         95.86         11.11         11.02         11.07         11.24
   331.48  1437.34         59.71         77.57         96.00         11.20         10.85         11.02         12.04
   331.47  1438.23         59.86         77.43         95.86         11.38         10.85         11.11         11.65
