#Written by Robertson Geologging WinLogger V1.5/410
~VERSION INFORMATION
#------------------------------------------------------------------------------
 VERS. 2.0 : CWLS LOG ASCII STANDARD - VERSION 2.0
 WRAP. NO  : ONE LINE PER DEPTH STEP
~WELL INFORMATION
#MNEM.UNIT         DATA                                DESCRIPTION OF MNEMONIC
#------------------------------------------------------------------------------
 STRT.M        348.0200                            :   START DEPTH
 STOP.M        107.2000                            :   STOP DEPTH
 STEP.M         -0.0100                            :   STEP VALUE
 NULL.        -999.2500                            :   NULL VALUE
 COMP.    GEUSd.                                   :   COMPANY NAME
 WELL.    59.459                                   :   WELL NAME
 FLD.     Jylland                                  :   FIELD NAME
 LOC.     N/A                                      :   LOCATION
 PROV.    N/A                                      :   PROVINCE
 SRVC.    N/A                                      :   SERVICE COMPANY NAME
 DATE.    27 May 14                                :   DATE
 UWI.     N/A                                      :   UNIQUE WELL IDENTIFIER
~PARAMETER INFORMATION
#MNEMO.UNIT         VALUE                 DESCRIPTION OF MNEMONIC
#------------------------------------------------------------------------------
~OTHER INFORMATION SECTION
#------------------------------------------------------------------------------
~CURVE INFORMATION
#MNEMO.UNIT         API CODE              CURVE DESCRIPTION
#------------------------------------------------------------------------------
 DEPTH.M                                 :   0     Depth
 TIME.SEC                                :   1     Time
 TXRX1.µs                                :   2     TXRX1
 TXRX2.µs                                :   3     TXRX2
 TXRX3.µs                                :   4     TXRX3
 R1R2.KM/S                               :   5     R1R2
 R2R3.KM/S                               :   6     R2R3
 R1R3.KM/S                               :   7     R1R3
 OUT6.API                                :   8     Natural Gamma
#------------------------------------------------------------------------------
~A  DEPTH     TIME         TXRX1         TXRX2         TXRX3          R1R2          R2R3          R1R3          OUT6
# ...
   187.94 13305.12         71.14         93.43        116.00          8.97          8.86          8.92         10.12
   187.93 13305.70         71.00         93.57        116.00          8.86          8.92          8.89          9.76
   187.92 13306.34         71.00         93.71        116.00          8.81          8.97          8.89          9.58
   187.91 13306.97         71.00         93.86        116.00          8.75          9.03          8.89          9.13
   187.90 13307.55         71.00         93.86        116.00          8.75          9.03          8.89          9.45
   187.89 13308.19         71.14         94.00        116.00          8.75          9.09          8.92          9.50
   187.88 13308.83         71.14         94.00        116.00          8.75          9.09          8.92          9.39
   187.87 13309.47         71.14         94.00        116.00          8.75          9.09          8.92          9.58
   187.86 13310.11         71.14         94.00        116.00          8.75          9.09          8.92          9.32
   187.85 13310.75         71.14         94.00        116.14          8.75          9.03          8.89          9.47
   187.84 13311.40         71.29         94.00        116.29          8.81          8.97          8.89          9.66
   187.83 13312.04         71.43         94.00        116.29          8.86          8.97          8.92          9.14
   187.82 13312.69         71.43         94.00        116.43          8.86          8.92          8.89          9.24
   187.81 13313.34         71.57         94.00        116.57          8.92          8.86          8.89          9.22
   187.80 13313.99         71.71         94.00        116.57          8.97          8.86          8.92          9.21
   187.79 13314.63         71.86         94.00        116.57          9.03          8.86          8.95          9.09
   187.78 13315.28         72.00         94.00        116.57          9.09          8.86          8.97          8.74
   187.77 13315.93         72.00         94.00        116.57          9.09          8.86          8.97          8.50
   187.76 13316.59         72.00         94.00        116.57          9.09          8.86          8.97          8.85
   187.75 13317.23         72.00         94.00        116.57          9.09          8.86          8.97          8.47
   187.74 13317.87         72.00         94.14        116.43          9.03          8.97          9.00          8.82
   187.73 13318.51         72.00         94.29        116.43          8.97          9.03          9.00          8.66
   187.72 13319.15         72.00         94.43        116.43          8.92          9.09          9.00          8.87
   187.71 13319.80         72.00         94.57        116.29          8.86          9.21          9.03          9.10
   187.70 13320.45         72.00         94.71        116.29          8.81          9.27          9.03          8.68
   187.69 13321.11         72.00         94.86        116.29          8.75          9.33          9.03          8.51
   187.68 13321.80         72.00         95.00        116.14          8.70          9.46          9.06          8.86
   187.67 13322.47         72.00         95.00        116.29          8.70          9.40          9.03          8.34
   187.66 13323.11         72.00         95.00        116.43          8.70          9.33          9.00          8.16
   187.65 13323.74         72.14         95.00        116.57          8.75          9.27          9.00          7.92
   187.64 13324.36         72.29         95.00        116.71          8.81          9.21          9.00          7.57
   187.63 13324.99         72.43         94.86        116.71          8.92          9.15          9.03          7.90
   187.62 13325.61         72.43         94.71        116.86          8.97          9.03          9.00          7.67
   187.61 13326.25         72.57         94.71        117.00          9.03          8.97          9.00          8.26
   187.60 13326.88         72.57         94.71        117.00          9.03          8.97          9.00          8.38
   187.59 13327.52         72.71         94.71        117.00          9.09          8.97          9.03          8.26
   187.58 13328.15         72.71         94.71        117.00          9.09          8.97          9.03          8.73
   187.57 13328.79         72.57         94.71        117.00          9.03          8.97          9.00          8.48
   187.56 13329.42         72.57         94.86        117.00          8.97          9.03          9.00          8.32
   187.55 13330.07         72.57         95.00        117.00          8.92          9.09          9.00          7.59
   187.54 13330.69         72.43         95.00        117.00          8.86          9.09          8.97          7.59
   187.53 13331.33         72.43         91.43        117.00         10.53          7.82          8.97          7.82
   187.52 13331.97         72.43         91.43        117.00         10.53          7.82          8.97          7.95
   187.51 13332.61         72.29         91.43        117.00         10.45          7.82          8.95          7.79
   187.50 13333.25         72.43         91.43        117.00         10.53          7.82          8.97          8.05
   187.49 13333.89         72.29         91.43        117.00         10.45          7.82          8.95          8.63
   187.48 13334.53         72.29         91.43        117.00         10.45          7.82          8.95          9.11
   187.47 13335.17         72.43         91.43        117.00         10.53          7.82          8.97          9.23
   187.46 13335.82         72.57         95.14        117.00          8.86          9.15          9.00          8.92
   187.45 13336.46         72.57         95.29        117.00          8.81          9.21          9.00          8.91
   187.44 13337.10         72.71         95.29        117.00          8.86          9.21          9.03          8.89
   187.43 13337.73         72.71         95.29        117.14          8.86          9.15          9.00          8.89
   187.42 13338.36         72.86         95.29        117.14          8.92          9.15          9.03          9.23
   187.41 13339.00         73.00         95.29        117.29          8.97          9.09          9.03          9.23
   187.40 13339.65         73.00         95.29        117.43          8.97          9.03          9.00          9.34
   187.39 13340.28         73.00         95.14        117.57          9.03          8.92          8.97          9.11
   187.38 13340.88         73.00         95.00        117.71          9.09          8.81          8.95          9.78
   187.37 13341.51         73.00         95.00        117.71          9.09          8.81          8.95          9.67
   187.36 13342.08         73.14         95.00        117.57          9.15          8.86          9.00          9.21
   187.35 13342.85         73.29         95.00        117.57          9.21          8.86          9.03          8.96
   187.34 13343.49         73.29         95.00        117.43          9.21          8.92          9.06          8.59
   187.33 13344.13         73.29         95.00        117.29          9.21          8.97          9.09          8.32
   187.32 13344.69         73.29         95.00        117.14          9.21          9.03          9.12          8.11
   187.31 13345.33         73.29         95.14        117.00          9.15          9.15          9.15          7.77
   187.30 13345.97         73.29         95.29        117.00          9.09          9.21          9.15          7.65
   187.29 13346.61         73.14         95.43        117.00          8.97          9.27          9.12          7.53
   187.28 13347.25         73.00         95.57        117.00          8.86          9.33          9.09          7.99
   187.27 13347.87         73.00         95.71        117.00          8.81          9.40          9.09          8.00
   187.26 13348.51         73.00         95.86        117.00          8.75          9.46          9.09          8.11
