#Written by Robertson Geologging WinLogger V1.5/410
~VERSION INFORMATION
#------------------------------------------------------------------------------
 VERS. 2.0 : CWLS LOG ASCII STANDARD - VERSION 2.0
 WRAP. NO  : ONE LINE PER DEPTH STEP
~WELL INFORMATION
#MNEM.UNIT         DATA                                DESCRIPTION OF MNEMONIC
#------------------------------------------------------------------------------
 STRT.M        348.0200                            :   START DEPTH
 STOP.M        107.2000                            :   STOP DEPTH
 STEP.M         -0.0100                            :   STEP VALUE
 NULL.        -999.2500                            :   NULL VALUE
 COMP.    GEUSd.                                   :   COMPANY NAME
 WELL.    59.459                                   :   WELL NAME
 FLD.     Jylland                                  :   FIELD NAME
 LOC.     N/A                                      :   LOCATION
 PROV.    N/A                                      :   PROVINCE
 SRVC.    N/A                                      :   SERVICE COMPANY NAME
 DATE.    27 May 14                                :   DATE
 UWI.     N/A                                      :   UNIQUE WELL IDENTIFIER
~PARAMETER INFORMATION
#MNEMO.UNIT         VALUE                 DESCRIPTION OF MNEMONIC
#------------------------------------------------------------------------------
~OTHER INFORMATION SECTION
#------------------------------------------------------------------------------
~CURVE INFORMATION
#MNEMO.UNIT         API CODE              CURVE DESCRIPTION
#------------------------------------------------------------------------------
 DEPTH.M                                 :   0     Depth
 TIME.SEC                                :   1     Time
 TXRX1.µs                                :   2     TXRX1
 TXRX2.µs                                :   3     TXRX2
 TXRX3.µs                                :   4     TXRX3
 R1R2.KM/S                               :   5     R1R2
 R2R3.KM/S                               :   6     R2R3
 R1R3.KM/S                               :   7     R1R3
 OUT6.API                                :   8     Natural Gamma
#------------------------------------------------------------------------------
~A  DEPTH     TIME         TXRX1         TXRX2         TXRX3          R1R2          R2R3          R1R3          OUT6
   348.02    40.81          0.00          0.00          0.00          1.#J          1.#J          1.#J          0.00
   348.01    41.59          0.00          0.00          0.00          1.#J          1.#J          1.#J          0.00
   348.00    42.32          0.00          0.00          0.00          1.#J          1.#J          1.#J          0.00
   347.99    42.97          0.00          0.00          0.00          1.#J          1.#J          1.#J          0.00
   347.98    43.71          0.00          0.00          0.00          1.#J          1.#J          1.#J          0.00
   347.97    44.31          0.00          0.00          0.00          1.#J          1.#J          1.#J          0.00
   347.96    45.07          0.00          0.00          0.00          1.#J          1.#J          1.#J          0.00
   347.95    45.73          0.00          0.00          0.00          1.#J          1.#J          1.#J          0.00
   347.94    46.86          0.00          0.00          0.00          1.#J          1.#J          1.#J          0.00
   347.93    47.49          0.00          0.00          0.00          1.#J          1.#J          1.#J          0.00
   347.92    48.19          0.00          0.00          0.00          1.#J          1.#J          1.#J          0.00
   347.91    48.82          0.00          0.00          0.00          1.#J          1.#J          1.#J          0.00
   347.90    49.46          0.00          0.00          0.00          1.#J          1.#J          1.#J          0.00
   347.89    50.10          0.00          0.00          0.00          1.#J          1.#J          1.#J          0.00
   347.88    50.74          0.00          0.00          0.00          1.#J          1.#J          1.#J          0.00
   347.87    51.46          0.00          0.00          0.00          1.#J          1.#J          1.#J          0.00
   347.86    52.10          0.00          0.00          0.00          1.#J          1.#J          1.#J          0.00
   347.85    52.74          0.00          0.00          0.00          1.#J          1.#J          1.#J          0.00
   347.84    53.38          0.00          0.00          0.00          1.#J          1.#J          1.#J          0.00
   347.83    54.02          0.00          0.00          0.00          1.#J          1.#J          1.#J          0.00
   347.82    54.66          0.00          0.00          0.00          1.#J          1.#J          1.#J          0.00
   347.81    55.31          0.00          0.00          0.00          1.#J          1.#J          1.#J          0.00
   347.80    55.95          0.00          0.00          0.00          1.#J          1.#J          1.#J          0.00
   347.79    56.59          0.00          0.00          0.00          1.#J          1.#J          1.#J          0.00
   347.78    57.23          0.00          0.00          0.00          1.#J          1.#J          1.#J          0.00
   347.77    57.88          0.00          0.00          0.00          1.#J          1.#J          1.#J          0.00
   347.76    58.53          0.00          0.00          0.00          1.#J          1.#J          1.#J          0.00
   347.75    59.16          0.00          0.00          0.00          1.#J          1.#J          1.#J          0.00
   347.74    59.87          0.00          0.00          0.00          1.#J          1.#J          1.#J          0.00
   347.73    60.84          0.00          0.00          0.00          1.#J          1.#J          1.#J          0.00
   347.72    62.00          0.00          0.00          0.00          1.#J          1.#J          1.#J          0.00
   347.71    62.64          0.00          0.00          0.00          1.#J          1.#J          1.#J          0.00
   347.70    63.29          0.00          0.00          0.00          1.#J          1.#J          1.#J          0.00
   347.69    64.06          0.00          0.00          0.00          1.#J          1.#J          1.#J          0.00
   347.68    64.71          0.00          0.00          0.00          1.#J          1.#J          1.#J          0.00
   347.67    65.36          0.00          0.00          0.00          1.#J          1.#J          1.#J          0.00
   347.66    66.00          0.00          0.00          0.00          1.#J          1.#J          1.#J          0.00
   347.65    66.64          0.00          0.00          0.00          1.#J          1.#J          1.#J          0.00
   347.64    67.29          0.00          0.00          0.00          1.#J          1.#J          1.#J          0.00
   347.63    67.92          0.00          0.00          0.00          1.#J          1.#J          1.#J          0.00
   347.62    68.55          0.00          0.00          0.00          1.#J          1.#J          1.#J          0.00
   347.61    69.19          0.00          0.00          0.00          1.#J          1.#J          1.#J          0.00
   347.60    69.84          0.00          0.00          0.00          1.#J          1.#J          1.#J          0.00
   347.59    70.48          0.00          0.00          0.00          1.#J          1.#J          1.#J          0.00
   347.58    71.26          0.00          0.00          0.00          1.#J          1.#J          1.#J          0.00
   347.57    71.84          0.00          0.00          0.00          1.#J          1.#J          1.#J          0.00
   347.56    72.42          0.00          0.00          0.00          1.#J          1.#J          1.#J          0.00
   347.55    73.01          0.00          0.00          0.00          1.#J          1.#J          1.#J          0.00
   347.54    73.66          0.00          0.00          0.00          1.#J          1.#J          1.#J          0.00
   347.53    74.45          0.00          0.00          0.00          1.#J          1.#J          1.#J          0.00
   347.52    75.23          0.00          0.00          0.00          1.#J          1.#J          1.#J          0.00
   347.51    75.81          0.00          0.00          0.00          1.#J          1.#J          1.#J          0.00
   347.50    77.00          0.00          0.00          0.00          1.#J          1.#J          1.#J          0.00
   347.49    77.79          0.00          0.00          0.00          1.#J          1.#J          1.#J          0.00
   347.48    78.43          0.00          0.00          0.00          1.#J          1.#J          1.#J          0.00
   347.47    79.33          0.00          0.00          0.00          1.#J          1.#J          1.#J          0.00
   347.46    79.92          0.00          0.00          0.00          1.#J          1.#J          1.#J          0.00
   347.45    80.55          0.00          0.00          0.00          1.#J          1.#J          1.#J          0.00
   347.44    81.47          0.00          0.00          0.00          1.#J          1.#J          1.#J          0.00
   347.43    82.07          0.00          0.00          0.00          1.#J          1.#J          1.#J          0.00
   347.42    82.75          0.00          0.00          0.00          1.#J          1.#J          1.#J          0.00
   347.41    83.41          0.00          0.00          0.00          1.#J          1.#J          1.#J          0.00
   347.40    84.06          0.00          0.00          0.00          1.#J          1.#J          1.#J          0.00
   347.39    84.68          0.00          0.00          0.00          1.#J          1.#J          1.#J          0.00
   347.38    85.30          0.00          0.00          0.00          1.#J          1.#J          1.#J          0.00
   347.37    85.87          0.00          0.00          0.00          1.#J          1.#J          1.#J          0.00
   347.36    86.69          0.00          0.00          0.00          1.#J          1.#J          1.#J          0.00
   347.35    87.33          0.00          0.00          0.00          1.#J          1.#J          1.#J          0.00
   347.34    87.96          0.00          0.00          0.00          1.#J          1.#J          1.#J          0.00
