#Written by Robertson Geologging WinLogger V1.5/410
~VERSION INFORMATION
#------------------------------------------------------------------------------
 VERS. 2.0 : CWLS LOG ASCII STANDARD - VERSION 2.0
 WRAP. NO  : ONE LINE PER DEPTH STEP
~WELL INFORMATION
#MNEM.UNIT         DATA                                DESCRIPTION OF MNEMONIC
#------------------------------------------------------------------------------
 STRT.M        348.0200                            :   START DEPTH
 STOP.M        107.2000                            :   STOP DEPTH
 STEP.M         -0.0100                            :   STEP VALUE
 NULL.        -999.2500                            :   NULL VALUE
 COMP.    GEUSd.                                   :   COMPANY NAME
 WELL.    59.459                                   :   WELL NAME
 FLD.     Jylland                                  :   FIELD NAME
 LOC.     N/A                                      :   LOCATION
 PROV.    N/A                                      :   PROVINCE
 SRVC.    N/A                                      :   SERVICE COMPANY NAME
 DATE.    27 May 14                                :   DATE
 UWI.     N/A                                      :   UNIQUE WELL IDENTIFIER
~PARAMETER INFORMATION
#MNEMO.UNIT         VALUE                 DESCRIPTION OF MNEMONIC
#------------------------------------------------------------------------------
~OTHER INFORMATION SECTION
#------------------------------------------------------------------------------
~CURVE INFORMATION
#MNEMO.UNIT         API CODE              CURVE DESCRIPTION
#------------------------------------------------------------------------------
 DEPTH.M                                 :   0     Depth
 TIME.SEC                                :   1     Time
 TXRX1.µs                                :   2     TXRX1
 TXRX2.µs                                :   3     TXRX2
 TXRX3.µs                                :   4     TXRX3
 R1R2.KM/S                               :   5     R1R2
 R2R3.KM/S                               :   6     R2R3
 R1R3.KM/S                               :   7     R1R3
 OUT6.API                                :   8     Natural Gamma
#------------------------------------------------------------------------------
~A  DEPTH     TIME         TXRX1         TXRX2         TXRX3          R1R2          R2R3          R1R3          OUT6
# ...
   267.98  7133.98         68.29         89.14        109.43          9.59          9.86          9.72         11.12
   267.97  7134.74         68.29         89.00        109.57          9.66          9.72          9.69         10.77
   267.96  7135.68         68.29         89.00        109.57          9.66          9.72          9.69         11.08
   267.95  7136.28         68.29         89.00        109.71          9.66          9.66          9.66         11.54
   267.94  7137.24         68.14         89.00        109.86          9.59          9.59          9.59         10.95
   267.93  7138.12         67.86         89.00        109.86          9.46          9.59          9.52         11.00
   267.92  7138.97         67.71         89.00        110.00          9.40          9.52          9.46         10.31
   267.91  7139.81         67.71         89.00        110.00          9.40          9.52          9.46         10.77
   267.90  7140.66         67.57         89.00        109.86          9.33          9.59          9.46         10.92
   267.89  7141.51         67.43         89.00        109.71          9.27          9.66          9.46         10.70
   267.88  7142.37         67.29         89.00        109.57          9.21          9.72          9.46         10.53
   267.87  7143.22         67.14         89.00        109.43          9.15          9.79          9.46         10.31
   267.86  7143.98         67.14         89.00        109.29          9.15          9.86          9.49         10.26
   267.85  7144.74         67.14         89.00        109.14          9.15          9.93          9.52         10.12
   267.84  7145.59         67.00         89.00        109.00          9.09         10.00          9.52          9.82
   267.83  7146.36         67.00         89.00        109.00          9.09         10.00          9.52          9.09
   267.82  7147.21         67.00         88.86        109.00          9.15          9.93          9.52          9.08
   267.81  7148.04         67.00         88.86        109.00          9.15          9.93          9.52          8.74
   267.80  7148.89         67.00         88.71        109.00          9.21          9.86          9.52          9.08
   267.79  7149.75         67.00         88.57        109.00          9.27          9.79          9.52          9.26
   267.78  7150.60         67.00         88.43        109.00          9.33          9.72          9.52          8.64
   267.77  7151.52         67.00         88.29        109.00          9.40          9.66          9.52          9.07
   267.76  7152.28         67.00         88.00        109.00          9.52          9.52          9.52          9.01
   267.75  7152.98         67.00         88.00        109.00          9.52          9.52          9.52          9.34
   267.74  7153.74         67.00         87.71        109.00          9.66          9.40          9.52          9.57
   267.73  7154.61         67.00         87.71        109.00          9.66          9.40          9.52          9.60
   267.72  7155.47         67.00         87.71        109.00          9.66          9.40          9.52          9.82
   267.71  7156.33         67.00         87.57        109.00          9.72          9.33          9.52          9.82
   267.70  7157.19         67.00         87.57        109.00          9.72          9.33          9.52         10.22
   267.69  7158.05         67.00         87.71        108.86          9.66          9.46          9.56          9.97
   267.68  7158.93         67.00         87.71        108.71          9.66          9.52          9.59          9.99
   267.67  7159.77         67.00         87.86        108.57          9.59          9.66          9.62         10.21
   267.66  7160.63         67.00         87.86        108.43          9.59          9.72          9.66         10.43
   267.65  7161.47         67.00         87.71        108.14          9.66          9.79          9.72         10.19
   267.64  7162.31         67.00         87.86        107.86          9.59         10.00          9.79         10.22
   267.63  7163.13         67.00         87.71        107.57          9.66         10.07          9.86          9.99
   267.62  7164.03         67.00         87.71        107.43          9.66         10.14          9.89          9.73
   267.61  7164.89         67.00         87.57        107.29          9.72         10.14          9.93         10.04
   267.60  7165.76         67.00         87.43        107.14          9.79         10.14          9.96          9.80
   267.59  7166.75         67.00         87.43        107.00          9.79         10.22         10.00          9.52
   267.58  7167.59         67.00         87.57        107.00          9.72         10.29         10.00          9.63
   267.57  7168.37         67.14         87.57        107.00          9.79         10.29         10.04          8.93
   267.56  7169.32         67.14         87.57        107.00          9.79         10.29         10.04          8.98
   267.55  7170.15         67.29         87.43        106.86          9.93         10.29         10.11          8.85
   267.54  7170.99         67.43         87.43        106.71         10.00         10.37         10.18          8.43
   267.53  7171.84         67.57         87.43        106.57         10.07         10.45         10.26          8.12
   267.52  7172.68         67.71         87.29        106.43         10.22         10.45         10.33          7.90
   267.51  7173.54         67.71         87.14        106.29         10.29         10.45         10.37          7.81
   267.50  7174.39         67.57         87.00        106.14         10.29         10.45         10.37          7.64
   267.49  7175.25         67.57         87.00        106.00         10.29         10.53         10.41          7.19
   267.48  7176.11         67.43         87.00        106.00         10.22         10.53         10.37          7.13
   267.47  7176.96         67.29         87.00        106.00         10.14         10.53         10.33          7.35
   267.46  7177.81         67.14         87.00        106.00         10.07         10.53         10.29          7.36
   267.45  7178.66         67.00         86.86        106.00         10.07         10.45         10.26          7.54
   267.44  7179.52         67.00         86.86        106.00         10.07         10.45         10.26          7.32
   267.43  7180.29         67.00         86.71        106.00         10.14         10.37         10.26          7.41
   267.42  7181.13         67.00         86.57        106.00         10.22         10.29         10.26          7.60
   267.41  7181.98         67.00         86.43        105.86         10.29         10.29         10.29          7.06
   267.40  7182.83         67.00         86.29        105.86         10.37         10.22         10.29          7.12
   267.39  7183.68         67.00         86.14        105.86         10.45         10.14         10.29          7.06
   267.38  7184.44         67.00         86.14        105.86         10.45         10.14         10.29          6.68
   267.37  7185.31         67.00         86.00        105.71         10.53         10.14         10.33          7.04
   267.36  7186.15         67.00         86.00        105.71         10.53         10.14         10.33          7.29
   267.35  7187.01         67.00         86.00        105.57         10.53         10.22         10.37          7.35
   267.34  7187.69         66.86         86.00        105.71         10.45         10.14         10.29          7.35
   267.33  7188.55         66.71         86.00        105.57         10.37         10.22         10.29          7.43
   267.32  7189.31         66.57         86.00        105.57         10.29         10.22         10.26          7.53
   267.31  7190.27         66.43         86.00        105.43         10.22         10.29         10.26          7.81
   267.30  7191.10         66.29         86.00        105.43         10.14         10.29         10.22          7.37
