#Written by Robertson Geologging WinLogger V1.5/410
~VERSION INFORMATION
#------------------------------------------------------------------------------
 VERS. 2.0 : CWLS LOG ASCII STANDARD - VERSION 2.0
 WRAP. NO  : ONE LINE PER DEPTH STEP
~WELL INFORMATION
#MNEM.UNIT         DATA                                DESCRIPTION OF MNEMONIC
#------------------------------------------------------------------------------
 STRT.M        348.0200                            :   START DEPTH
 STOP.M        107.2000                            :   STOP DEPTH
 STEP.M         -0.0100                            :   STEP VALUE
 NULL.        -999.2500                            :   NULL VALUE
 COMP.    GEUSd.                                   :   COMPANY NAME
 WELL.    59.459                                   :   WELL NAME
 FLD.     Jylland                                  :   FIELD NAME
 LOC.     N/A                                      :   LOCATION
 PROV.    N/A                                      :   PROVINCE
 SRVC.    N/A                                      :   SERVICE COMPANY NAME
 DATE.    27 May 14                                :   DATE
 UWI.     N/A                                      :   UNIQUE WELL IDENTIFIER
~PARAMETER INFORMATION
#MNEMO.UNIT         VALUE                 DESCRIPTION OF MNEMONIC
#------------------------------------------------------------------------------
~OTHER INFORMATION SECTION
#------------------------------------------------------------------------------
~CURVE INFORMATION
#MNEMO.UNIT         API CODE              CURVE DESCRIPTION
#------------------------------------------------------------------------------
 DEPTH.M                                 :   0     Depth
 TIME.SEC                                :   1     Time
 TXRX1.µs                                :   2     TXRX1
 TXRX2.µs                                :   3     TXRX2
 TXRX3.µs                                :   4     TXRX3
 R1R2.KM/S                               :   5     R1R2
 R2R3.KM/S                               :   6     R2R3
 R1R3.KM/S                               :   7     R1R3
 OUT6.API                                :   8     Natural Gamma
#------------------------------------------------------------------------------
~A  DEPTH     TIME         TXRX1         TXRX2         TXRX3          R1R2          R2R3          R1R3          OUT6
# ...
   123.77 17688.50         74.86         97.86        122.00          8.70          8.28          8.48          7.19
   123.76 17689.25         74.86         98.00        122.00          8.64          8.33          8.48          6.88
   123.75 17690.07         74.86         98.14        122.00          8.59          8.38          8.48          6.67
   123.74 17690.90         75.00         98.14        122.00          8.64          8.38          8.51          6.52
   123.73 17691.84         75.00         98.00        122.14          8.70          8.28          8.48          6.74
   123.72 17692.69         75.00         98.14        122.43          8.64          8.24          8.43          6.47
   123.71 17693.53         74.86         98.14        122.71          8.59          8.14          8.36          6.74
   123.70 17694.40         74.86         98.14        123.14          8.59          8.00          8.28          6.91
   123.69 17695.29         74.86         98.00        123.71          8.64          7.78          8.19          6.83
   123.68 17696.21         74.86         97.71        124.43          8.75          7.49          8.07          6.57
   123.67 17697.02         74.86         97.71        124.43          8.75          7.49          8.07          6.89
   123.66 17697.87         74.86         97.86        124.14          8.70          7.61          8.12          6.55
   123.65 17698.68         74.86         98.00        123.57          8.64          7.82          8.21          6.87
   123.64 17699.51         75.00         98.14        123.00          8.64          8.05          8.33          6.79
   123.63 17700.34         74.86         98.29        122.29          8.54          8.33          8.43          6.53
   123.62 17701.16         74.86         98.57        121.43          8.43          8.75          8.59          6.44
   123.61 17702.00         74.86         99.14        120.14          8.24          9.52          8.83          6.08
   123.60 17702.84         74.71         99.71        119.57          8.00         10.07          8.92          6.07
   123.59 17703.66         74.57        100.43        119.14          7.73         10.69          8.97          6.24
   123.58 17704.55         74.43        101.29        118.86          7.45         11.38          9.00          6.33
   123.57 17705.32         74.14        101.00        118.71          7.45         11.29          8.97          6.83
   123.56 17705.99         74.14        100.71        118.57          7.53         11.20          9.00          6.66
   123.55 17706.75         74.00        100.29        118.29          7.61         11.11          9.03          6.96
   123.54 17707.59         74.00         99.57        118.29          7.82         10.69          9.03          6.87
   123.53 17708.35         74.00         98.71        118.43          8.09         10.14          9.00          6.60
   123.52 17709.12         74.14         97.71        118.57          8.48          9.59          9.00          6.84
   123.51 17709.95         74.43         96.14        118.71          9.21          8.86          9.03          7.40
   123.50 17710.87         75.00         95.86        118.71          9.59          8.75          9.15          7.76
   123.49 17711.79         75.86         95.43        118.71         10.22          8.59          9.33          8.11
   123.48 17712.56         76.57         95.14        118.86         10.77          8.43          9.46          8.29
   123.47 17713.47         76.43         94.86        119.00         10.85          8.28          9.40          8.20
   123.46 17714.23         76.29         94.71        119.14         10.85          8.19          9.33          8.30
   123.45 17715.16         76.00         94.57        119.29         10.77          8.09          9.24          8.39
   123.44 17715.99         75.57         94.57        119.43         10.53          8.05          9.12          8.83
   123.43 17716.74         75.00         94.43        119.57         10.29          7.95          8.97          9.44
   123.42 17717.58         73.86         94.43        119.71          9.72          7.91          8.72          9.89
   123.41 17718.42         72.71         94.29        119.86          9.27          7.82          8.48          9.79
   123.40 17719.28         72.29         94.29        120.00          9.09          7.78          8.38          9.53
   123.39 17720.14         72.00         94.14        120.00          9.03          7.73          8.33          9.68
   123.38 17720.97         71.71         94.00        120.00          8.97          7.69          8.28          9.56
   123.37 17721.79         71.43         94.00        120.00          8.86          7.69          8.24          9.82
   123.36 17722.62         71.14         94.14        120.00          8.70          7.73          8.19         10.09
   123.35 17723.46         71.00         94.14        120.00          8.64          7.73          8.16         10.02
   123.34 17724.29         70.86         94.14        120.00          8.59          7.73          8.14          9.83
   123.33 17725.22         70.86         94.29        120.00          8.54          7.78          8.14          9.13
   123.32 17726.05         70.86         94.43        120.00          8.48          7.82          8.14          8.94
   123.31 17726.81         70.71         94.57        120.00          8.38          7.87          8.12          8.85
   123.30 17727.73         70.57         94.86        119.86          8.24          8.00          8.12          9.63
   123.29 17728.66         70.57         95.00        119.71          8.19          8.09          8.14          9.79
   123.28 17729.44         70.57         95.14        119.57          8.14          8.19          8.16          9.79
   123.27 17730.27         70.71         95.29        119.43          8.14          8.28          8.21         10.15
   123.26 17731.19         70.71         95.29        119.29          8.14          8.33          8.24         10.06
   123.25 17731.95         70.71         95.29        119.14          8.14          8.38          8.26         10.16
   123.24 17732.70         70.86         95.14        119.00          8.24          8.38          8.31         10.06
   123.23 17733.65         71.00         95.00        119.14          8.33          8.28          8.31          9.88
   123.22 17734.40         70.86         94.86        119.29          8.33          8.19          8.26          9.70
   123.21 17735.17         70.86         94.86        119.43          8.33          8.14          8.24          9.97
   123.20 17736.02         70.86         94.71        119.57          8.38          8.05          8.21         10.16
   123.19 17736.87         70.86         94.71        119.71          8.38          8.00          8.19         10.78
   123.18 17737.72         70.86         94.71        119.86          8.38          7.95          8.16         11.37
   123.17 17738.58         70.86         94.86        120.00          8.33          7.95          8.14         11.32
   123.16 17739.42         70.71         94.71        120.00          8.33          7.91          8.12         11.50
   123.15 17740.26         70.86         94.71        120.00          8.38          7.91          8.14         11.80
   123.14 17741.09         70.86         94.71        120.00          8.38          7.91          8.14         11.75
   123.13 17741.84         70.86         94.86        119.86          8.33          8.00          8.16         10.96
   123.12 17742.52         70.71         94.86        119.86          8.28          8.00          8.14         10.98
   123.11 17743.47         70.71         94.71        119.86          8.33          7.95          8.14         11.17
   123.10 17744.13         70.71         94.71        119.71          8.33          8.00          8.16         11.00
   123.09 17744.96         70.86         94.86        119.57          8.33          8.09          8.21         10.77
