#Written by Robertson Geologging WinLogger V1.5/410
~VERSION INFORMATION
#------------------------------------------------------------------------------
 VERS. 2.0 : CWLS LOG ASCII STANDARD - VERSION 2.0
 WRAP. NO  : ONE LINE PER DEPTH STEP
~WELL INFORMATION
#MNEM.UNIT         DATA                                DESCRIPTION OF MNEMONIC
#------------------------------------------------------------------------------
 STRT.M        348.0200                            :   START DEPTH
 STOP.M        107.2000                            :   STOP DEPTH
 STEP.M         -0.0100                            :   STEP VALUE
 NULL.        -999.2500                            :   NULL VALUE
 COMP.    GEUSd.                                   :   COMPANY NAME
 WELL.    59.459                                   :   WELL NAME
 FLD.     Jylland                                  :   FIELD NAME
 LOC.     N/A                                      :   LOCATION
 PROV.    N/A                                      :   PROVINCE
 SRVC.    N/A                                      :   SERVICE COMPANY NAME
 DATE.    27 May 14                                :   DATE
 UWI.     N/A                                      :   UNIQUE WELL IDENTIFIER
~PARAMETER INFORMATION
#MNEMO.UNIT         VALUE                 DESCRIPTION OF MNEMONIC
#------------------------------------------------------------------------------
~OTHER INFORMATION SECTION
#------------------------------------------------------------------------------
~CURVE INFORMATION
#MNEMO.UNIT         API CODE              CURVE DESCRIPTION
#------------------------------------------------------------------------------
 DEPTH.M                                 :   0     Depth
 TIME.SEC                                :   1     Time
 TXRX1.µs                                :   2     TXRX1
 TXRX2.µs                                :   3     TXRX2
 TXRX3.µs                                :   4     TXRX3
 R1R2.KM/S                               :   5     R1R2
 R2R3.KM/S                               :   6     R2R3
 R1R3.KM/S                               :   7     R1R3
 OUT6.API                                :   8     Natural Gamma
#------------------------------------------------------------------------------
~A  DEPTH     TIME         TXRX1         TXRX2         TXRX3          R1R2          R2R3          R1R3          OUT6
# ...
   299.72  4404.26         66.00         86.00        106.57         10.00          9.72          9.86          6.32
   299.71  4405.03         66.00         86.00        106.57         10.00          9.72          9.86          6.50
   299.70  4405.94         66.00         86.00        106.43         10.00          9.79          9.89          6.14
   299.69  4406.83         66.00         86.00        106.29         10.00          9.86          9.93          6.45
   299.68  4407.76         66.00         86.14        106.14          9.93         10.00          9.96          6.40
   299.67  4408.69         66.14         86.29        106.14          9.93         10.07         10.00          6.57
   299.66  4409.62         66.14         86.29        106.14          9.93         10.07         10.00          6.66
   299.65  4410.50         66.14         86.43        106.14          9.86         10.14         10.00          6.84
   299.64  4411.34         66.14         86.43        106.14          9.86         10.14         10.00          6.74
   299.63  4412.16         66.14         86.43        106.29          9.86         10.07          9.96          6.49
   299.62  4413.03         66.14         86.57        106.29          9.79         10.14          9.96          6.67
   299.61  4413.72         66.14         86.57        106.29          9.79         10.14          9.96          6.43
   299.60  4414.67         66.14         86.57        106.29          9.79         10.14          9.96          6.59
   299.59  4415.47         66.14         86.71        106.29          9.72         10.22          9.96          6.84
   299.58  4416.16         66.14         86.71        106.29          9.72         10.22          9.96          6.98
   299.57  4417.12         66.29         86.86        106.14          9.72         10.37         10.04          6.72
   299.56  4417.99         66.43         87.00        105.86          9.72         10.61         10.14          6.83
   299.55  4418.86         66.57         87.00        105.71          9.79         10.69         10.22          6.88
   299.54  4419.74         66.57         87.00        105.57          9.79         10.77         10.26          7.18
   299.53  4420.62         66.57         86.86        105.43          9.86         10.77         10.29          7.33
   299.52  4421.51         66.71         86.71        105.29         10.00         10.77         10.37          7.02
   299.51  4422.40         66.71         86.71        105.14         10.00         10.85         10.41          6.93
   299.50  4423.27         66.57         86.57        105.00         10.00         10.85         10.41          7.08
   299.49  4424.14         66.57         86.43        105.00         10.07         10.77         10.41          6.89
   299.48  4425.11         66.57         86.29        105.00         10.14         10.69         10.41          6.82
   299.47  4425.99         66.71         86.14        105.00         10.29         10.61         10.45          6.74
   299.46  4426.99         66.71         86.14        105.00         10.29         10.61         10.45          6.84
   299.45  4427.78         66.71         86.00        105.14         10.37         10.45         10.41          6.69
   299.44  4428.74         66.86         85.71        105.29         10.61         10.22         10.41          6.69
   299.43  4429.62         67.00         85.57        105.43         10.77         10.07         10.41          6.63
   299.42  4430.68         67.00         85.43        105.57         10.85          9.93         10.37          6.43
   299.41  4431.86         67.00         85.29        105.71         10.94          9.79         10.33          6.53
   299.40  4432.65         66.86         85.14        105.86         10.94          9.66         10.26          6.88
   299.39  4433.61         66.71         85.00        106.00         10.94          9.52         10.18          6.66
   299.38  4434.38         66.57         85.00        106.00         10.85          9.52         10.14          6.84
   299.37  4435.26         66.43         85.00        106.00         10.77          9.52         10.11          6.17
   299.36  4436.15         66.29         85.00        106.00         10.69          9.52         10.07          6.12
   299.35  4437.03         66.14         85.00        106.00         10.61          9.52         10.04          6.12
   299.34  4437.93         66.00         85.00        105.86         10.53          9.59         10.04          5.96
   299.33  4438.80         66.00         85.14        105.86         10.45          9.66         10.04          5.57
   299.32  4439.95         65.86         85.29        105.86         10.29          9.72         10.00          5.68
   299.31  4440.84         65.86         85.43        105.86         10.22          9.79         10.00          5.93
   299.30  4441.80         65.86         85.57        105.86         10.14          9.86         10.00          6.11
   299.29  4442.67         65.71         85.71        105.86         10.00          9.93          9.96          6.30
   299.28  4443.54         65.71         85.86        105.86          9.93         10.00          9.96          6.66
   299.27  4444.52         65.71         86.00        106.00          9.86         10.00          9.93          7.07
   299.26  4445.40         65.71         85.86        106.00          9.93          9.93          9.93          7.17
   299.25  4446.27         65.71         85.86        106.00          9.93          9.93          9.93          7.46
   299.24  4447.15         65.71         85.71        106.00         10.00          9.86          9.93          7.42
   299.23  4448.04         65.57         85.71        106.00          9.93          9.86          9.89          7.22
   299.22  4448.93         65.57         85.57        106.14         10.00          9.72          9.86          7.34
   299.21  4449.81         65.57         85.43        106.29         10.07          9.59          9.82          7.07
   299.20  4450.70         65.57         85.43        106.43         10.07          9.52          9.79          6.97
   299.19  4451.57         65.43         85.57        106.43          9.93          9.59          9.76          7.06
   299.18  4452.46         65.43         85.57        106.43          9.93          9.59          9.76          7.26
   299.17  4453.43         65.29         85.71        106.43          9.79          9.66          9.72          7.60
   299.16  4454.23         65.29         85.71        106.43          9.79          9.66          9.72          7.61
   299.15  4455.11         65.29         85.86        106.29          9.72          9.79          9.76          7.60
   299.14  4455.88         65.14         86.00        106.14          9.59          9.93          9.76          7.34
   299.13  4456.59         65.00         86.00        106.00          9.52         10.00          9.76          7.58
   299.12  4457.36         65.00         86.00        106.00          9.52         10.00          9.76          7.87
   299.11  4458.25         65.00         86.14        106.00          9.46         10.07          9.76          7.70
   299.10  4458.95         65.00         86.14        106.14          9.46         10.00          9.72          7.34
   299.09  4460.22         65.14         86.14        106.14          9.52         10.00          9.76          6.92
   299.08  4461.04         65.14         86.29        106.14          9.46         10.07          9.76          6.70
   299.07  4461.69         65.14         86.29        106.14          9.46         10.07          9.76          6.63
   299.06  4462.79         65.14         86.29        106.14          9.46         10.07          9.76          6.53
   299.05  4464.11         65.29         86.29        106.14          9.52         10.07          9.79          6.43
   299.04  4464.86         65.29         86.14        106.14          9.59         10.00          9.79          6.72
