#Written by Robertson Geologging WinLogger V1.5/410
~VERSION INFORMATION
#------------------------------------------------------------------------------
 VERS. 2.0 : CWLS LOG ASCII STANDARD - VERSION 2.0
 WRAP. NO  : ONE LINE PER DEPTH STEP
~WELL INFORMATION
#MNEM.UNIT         DATA                                DESCRIPTION OF MNEMONIC
#------------------------------------------------------------------------------
 STRT.M        348.0200                            :   START DEPTH
 STOP.M        107.2000                            :   STOP DEPTH
 STEP.M         -0.0100                            :   STEP VALUE
 NULL.        -999.2500                            :   NULL VALUE
 COMP.    GEUSd.                                   :   COMPANY NAME
 WELL.    59.459                                   :   WELL NAME
 FLD.     Jylland                                  :   FIELD NAME
 LOC.     N/A                                      :   LOCATION
 PROV.    N/A                                      :   PROVINCE
 SRVC.    N/A                                      :   SERVICE COMPANY NAME
 DATE.    27 May 14                                :   DATE
 UWI.     N/A                                      :   UNIQUE WELL IDENTIFIER
~PARAMETER INFORMATION
#MNEMO.UNIT         VALUE                 DESCRIPTION OF MNEMONIC
#------------------------------------------------------------------------------
~OTHER INFORMATION SECTION
#------------------------------------------------------------------------------
~CURVE INFORMATION
#MNEMO.UNIT         API CODE              CURVE DESCRIPTION
#------------------------------------------------------------------------------
 DEPTH.M                                 :   0     Depth
 TIME.SEC                                :   1     Time
 TXRX1.µs                                :   2     TXRX1
 TXRX2.µs                                :   3     TXRX2
 TXRX3.µs                                :   4     TXRX3
 R1R2.KM/S                               :   5     R1R2
 R2R3.KM/S                               :   6     R2R3
 R1R3.KM/S                               :   7     R1R3
 OUT6.API                                :   8     Natural Gamma
#------------------------------------------------------------------------------
~A  DEPTH     TIME         TXRX1         TXRX2         TXRX3          R1R2          R2R3          R1R3          OUT6
# ...
   172.07 14337.20         73.71         96.14        119.29          8.92          8.64          8.78          7.65
   172.06 14337.78         73.86         96.14        119.29          8.97          8.64          8.81          7.64
   172.05 14338.42         74.00         96.14        119.29          9.03          8.64          8.83          7.40
   172.04 14339.00         74.14         96.14        119.29          9.09          8.64          8.86          7.63
   172.03 14339.70         74.14         96.14        119.14          9.09          8.70          8.89          7.56
   172.02 14340.33         74.14         96.14        119.00          9.09          8.75          8.92          7.09
   172.01 14340.98         74.14         96.29        119.00          9.03          8.81          8.92          7.09
   172.00 14341.62         74.14         96.29        119.00          9.03          8.81          8.92          7.48
   171.99 14342.25         74.14         96.43        119.00          8.97          8.86          8.92          7.82
   171.98 14342.88         74.14         96.57        119.00          8.92          8.92          8.92          7.00
   171.97 14343.52         74.00         96.71        119.00          8.81          8.97          8.89          6.80
   171.96 14344.16         74.00         96.86        119.00          8.75          9.03          8.89          6.88
   171.95 14344.81         74.00         97.00        119.00          8.70          9.09          8.89          7.19
   171.94 14345.48         74.00         97.14        119.00          8.64          9.15          8.89          7.26
   171.93 14346.14         74.00         97.14        119.00          8.64          9.15          8.89          7.24
   171.92 14346.83         74.00         97.14        119.14          8.64          9.09          8.86          7.46
   171.91 14347.45         74.00         97.29        119.29          8.59          9.09          8.83          7.20
   171.90 14348.09         74.00         97.43        119.43          8.54          9.09          8.81          6.96
   171.89 14348.71         74.00         97.43        119.57          8.54          9.03          8.78          6.85
   171.88 14349.32         74.00         97.57        119.71          8.48          9.03          8.75          6.97
   171.87 14349.95         74.00         97.43        119.86          8.54          8.92          8.72          6.75
   171.86 14350.57         74.00         97.43        120.00          8.54          8.86          8.70          6.83
   171.85 14351.22         74.00         97.43        120.00          8.54          8.86          8.70          7.19
   171.84 14351.85         74.00         97.29        120.00          8.59          8.81          8.70          6.84
   171.83 14352.49         74.00         97.14        120.00          8.64          8.75          8.70          6.93
   171.82 14353.12         74.00         97.29        120.00          8.59          8.81          8.70          6.59
   171.81 14353.75         74.00         97.29        120.00          8.59          8.81          8.70          7.17
   171.80 14354.38         74.14         97.43        120.00          8.59          8.86          8.72          7.45
   171.79 14355.01         74.14         97.57        120.00          8.54          8.92          8.72          7.34
   171.78 14355.64         74.14         97.57        120.00          8.54          8.92          8.72          7.12
   171.77 14356.28         74.29         97.57        120.00          8.59          8.92          8.75          6.88
   171.76 14356.92         74.43         97.57        120.00          8.64          8.92          8.78          6.91
   171.75 14357.54         74.57         97.43        120.00          8.75          8.86          8.81          6.81
   171.74 14358.19         74.71         97.29        120.00          8.86          8.81          8.83          6.48
   171.73 14358.78         74.71         97.14        120.14          8.92          8.70          8.81          6.61
   171.72 14359.35         74.86         97.00        120.29          9.03          8.59          8.81          6.72
   171.71 14359.92         75.00         97.14        120.43          9.03          8.59          8.81          6.60
   171.70 14360.63         75.00         97.29        120.57          8.97          8.59          8.78          6.59
   171.69 14361.19         75.00         97.43        120.57          8.92          8.64          8.78          6.35
   171.68 14361.83         75.00         97.57        120.57          8.86          8.70          8.78          6.22
   171.67 14362.53         75.00         97.71        120.57          8.81          8.75          8.78          6.34
   171.66 14363.17         75.00         97.86        120.43          8.75          8.86          8.81          5.87
   171.65 14363.81         75.00         98.00        120.29          8.70          8.97          8.83          6.22
   171.64 14364.46         75.00         98.00        120.29          8.70          8.97          8.83          5.87
   171.63 14365.08         75.00         98.00        120.14          8.70          9.03          8.86          5.74
   171.62 14365.71         75.14         98.00        120.14          8.75          9.03          8.89          5.61
   171.61 14366.34         75.29         98.14        120.14          8.75          9.09          8.92          5.37
   171.60 14366.97         75.29         98.29        120.14          8.70          9.15          8.92          5.83
   171.59 14367.60         75.29         98.43        120.14          8.64          9.21          8.92          5.60
   171.58 14368.24         75.29         98.57        120.14          8.59          9.27          8.92          6.07
   171.57 14368.87         75.29         98.71        120.00          8.54          9.40          8.95          6.30
   171.56 14369.50         75.29         98.86        120.14          8.48          9.40          8.92          6.31
   171.55 14370.13         75.14         99.00        120.29          8.38          9.40          8.86          6.31
   171.54 14370.77         75.00         99.00        120.29          8.33          9.40          8.83          6.54
   171.53 14371.41         75.00         99.00        120.43          8.33          9.33          8.81          6.54
   171.52 14372.04         75.00         99.00        120.43          8.33          9.33          8.81          6.65
   171.51 14372.67         75.00         99.00        120.57          8.33          9.27          8.78          6.78
   171.50 14373.31         75.00         99.00        120.57          8.33          9.27          8.78          6.66
   171.49 14373.95         75.00         99.00        120.43          8.33          9.33          8.81          6.89
   171.48 14374.59         75.00         99.00        120.29          8.33          9.40          8.83          6.53
   171.47 14375.23         75.00         99.00        120.29          8.33          9.40          8.83          6.76
   171.46 14375.87         75.00         98.86        120.29          8.38          9.33          8.83          7.00
   171.45 14376.51         75.00         98.71        120.43          8.43          9.21          8.81          7.01
   171.44 14377.15         75.00         98.57        120.43          8.48          9.15          8.81          7.13
   171.43 14377.86         75.00         98.43        120.57          8.54          9.03          8.78          6.78
   171.42 14378.51         75.00         98.29        120.71          8.59          8.92          8.75          6.77
   171.41 14379.21         75.00         98.14        120.86          8.64          8.81          8.72          6.29
   171.40 14379.78         75.00         98.00        121.00          8.70          8.70          8.70          6.29
   171.39 14380.78         75.00         98.00        121.00          8.70          8.70          8.70          6.29
