#Written by Robertson Geologging WinLogger V1.5/410
~VERSION INFORMATION
#------------------------------------------------------------------------------
 VERS. 2.0 : CWLS LOG ASCII STANDARD - VERSION 2.0
 WRAP. NO  : ONE LINE PER DEPTH STEP
~WELL INFORMATION
#MNEM.UNIT         DATA                                DESCRIPTION OF MNEMONIC
#------------------------------------------------------------------------------
 STRT.M        348.0200                            :   START DEPTH
 STOP.M        107.2000                            :   STOP DEPTH
 STEP.M         -0.0100                            :   STEP VALUE
 NULL.        -999.2500                            :   NULL VALUE
 COMP.    GEUSd.                                   :   COMPANY NAME
 WELL.    59.459                                   :   WELL NAME
 FLD.     Jylland                                  :   FIELD NAME
 LOC.     N/A                                      :   LOCATION
 PROV.    N/A                                      :   PROVINCE
 SRVC.    N/A                                      :   SERVICE COMPANY NAME
 DATE.    27 May 14                                :   DATE
 UWI.     N/A                                      :   UNIQUE WELL IDENTIFIER
~PARAMETER INFORMATION
#MNEMO.UNIT         VALUE                 DESCRIPTION OF MNEMONIC
#------------------------------------------------------------------------------
~OTHER INFORMATION SECTION
#------------------------------------------------------------------------------
~CURVE INFORMATION
#MNEMO.UNIT         API CODE              CURVE DESCRIPTION
#------------------------------------------------------------------------------
 DEPTH.M                                 :   0     Depth
 TIME.SEC                                :   1     Time
 TXRX1.µs                                :   2     TXRX1
 TXRX2.µs                                :   3     TXRX2
 TXRX3.µs                                :   4     TXRX3
 R1R2.KM/S                               :   5     R1R2
 R2R3.KM/S                               :   6     R2R3
 R1R3.KM/S                               :   7     R1R3
 OUT6.API                                :   8     Natural Gamma
#------------------------------------------------------------------------------
~A  DEPTH     TIME         TXRX1         TXRX2         TXRX3          R1R2          R2R3          R1R3          OUT6
# ...
   139.64 16467.38         77.00        100.00        120.43          8.70          9.79          9.21          7.12
   139.63 16468.02         77.00         99.71        120.57          8.81          9.59          9.18          6.84
   139.62 16468.66         77.00         99.43        120.86          8.92          9.33          9.12          6.99
   139.61 16469.30         77.00         99.14        121.14          9.03          9.09          9.06          7.12
   139.60 16469.92         77.00         98.86        121.43          9.15          8.86          9.00          6.91
   139.59 16470.55         77.00         98.43        121.57          9.33          8.64          8.97          7.38
   139.58 16471.20         77.00         98.00        121.71          9.52          8.43          8.95          7.30
   139.57 16471.84         77.00         97.71        121.86          9.66          8.28          8.92          7.32
   139.56 16472.49         77.00         97.71        122.00          9.66          8.24          8.89          7.01
   139.55 16473.08         77.14         97.71        122.00          9.72          8.24          8.92          6.62
   139.54 16473.72         77.29         97.71        122.00          9.79          8.24          8.95          6.80
   139.53 16474.36         77.29         97.71        122.00          9.79          8.24          8.95          6.80
   139.52 16475.01         77.14         97.86        122.00          9.66          8.28          8.92          6.72
   139.51 16475.66         76.86         98.14        122.00          9.40          8.38          8.86          7.07
   139.50 16476.31         76.43         98.14        122.00          9.21          8.38          8.78          7.72
   139.49 16476.95         76.00         98.29        122.00          8.97          8.43          8.70          7.95
   139.48 16477.61         75.57         98.43        122.00          8.75          8.48          8.62          8.65
   139.47 16478.25         75.00         98.57        122.00          8.48          8.54          8.51          8.88
   139.46 16478.90         74.57         98.71        122.00          8.28          8.59          8.43          9.04
   139.45 16479.55         74.43         99.00        122.00          8.14          8.70          8.41          9.58
   139.44 16480.21         74.43         99.14        122.00          8.09          8.75          8.41          9.33
   139.43 16480.86         74.57         99.43        122.00          8.05          8.86          8.43          9.43
   139.42 16481.50         74.71         99.57        121.86          8.05          8.97          8.48          8.94
   139.41 16482.14         74.86         99.57        121.86          8.09          8.97          8.51          8.59
   139.40 16482.79         75.14         99.57        121.71          8.19          9.03          8.59          8.58
   139.39 16483.43         75.43         99.71        121.57          8.24          9.15          8.67          8.68
   139.38 16484.08         75.57         99.71        121.57          8.28          9.15          8.70          9.41
   139.37 16484.72         75.71         99.57        121.57          8.38          9.09          8.72          9.52
   139.36 16485.36         75.86         99.43        121.57          8.48          9.03          8.75          9.28
   139.35 16486.01         76.00         99.29        121.71          8.59          8.92          8.75          9.06
   139.34 16486.65         76.00         99.29        121.86          8.59          8.86          8.72          8.95
   139.33 16487.30         76.14         99.29        122.14          8.64          8.75          8.70          8.59
   139.32 16487.95         76.29         99.14        122.43          8.75          8.59          8.67          8.71
   139.31 16488.62         76.43         99.00        122.57          8.86          8.48          8.67          8.14
   139.30 16489.30         76.43         99.14        122.71          8.81          8.48          8.64          7.68
   139.29 16489.98         76.71         99.29        122.86          8.86          8.48          8.67          7.79
   139.28 16490.62         76.86         99.57        123.00          8.81          8.54          8.67          7.33
   139.27 16491.26         77.00        100.00        123.00          8.70          8.70          8.70          7.80
   139.26 16491.81         77.14        100.57        123.00          8.54          8.92          8.72          7.90
   139.25 16492.46         77.29        101.14        123.00          8.38          9.15          8.75          8.92
   139.24 16493.16         77.43        101.71        123.00          8.24          9.40          8.78          8.80
   139.23 16493.86         77.71        102.14        123.00          8.19          9.59          8.83          8.88
   139.22 16494.45         77.71        102.57        123.00          8.05          9.79          8.83          8.76
   139.21 16495.02         78.00        102.86        123.00          8.05          9.93          8.89          8.62
   139.20 16495.73         78.29        102.86        123.00          8.14          9.93          8.95          8.51
   139.19 16496.37         78.43        102.86        123.14          8.19          9.86          8.95          8.78
   139.18 16497.01         78.57        102.71        123.29          8.28          9.72          8.95          8.77
   139.17 16497.65         78.71        102.57        123.57          8.38          9.52          8.92          9.24
   139.16 16498.30         78.71        102.43        123.86          8.43          9.33          8.86          9.26
   139.15 16498.94         78.71        102.29        124.14          8.48          9.15          8.81          9.50
   139.14 16499.59         78.43        102.14        124.43          8.43          8.97          8.70          9.96
   139.13 16500.23         77.86        102.14        124.71          8.24          8.86          8.54         10.77
   139.12 16500.87         77.29        102.00        124.86          8.09          8.75          8.41         10.90
   139.11 16501.51         76.71        102.00        125.00          7.91          8.70          8.28         11.13
   139.10 16502.15         76.14        102.14        125.00          7.69          8.75          8.19         11.02
   139.09 16502.79         75.71        102.14        125.00          7.57          8.75          8.12         11.09
   139.08 16503.38         75.29        102.29        125.00          7.41          8.81          8.05         10.07
   139.07 16503.95         75.00        102.29        125.00          7.33          8.81          8.00         10.08
   139.06 16504.60         75.14        102.29        125.00          7.37          8.81          8.02         10.10
   139.05 16505.17         75.14        102.29        125.00          7.37          8.81          8.02         10.81
   139.04 16505.88         75.29        102.29        125.00          7.41          8.81          8.05         10.35
   139.03 16506.53         75.43        102.00        125.00          7.53          8.70          8.07         10.46
   139.02 16507.12         75.86        101.71        125.00          7.73          8.59          8.14         10.78
   139.01 16507.77         76.14        101.29        125.00          7.95          8.43          8.19         11.00
   139.00 16508.40         76.29        101.00        125.00          8.09          8.33          8.21         11.03
   138.99 16509.05         76.14        100.57        125.00          8.19          8.19          8.19         10.68
   138.98 16509.69         76.14        100.14        125.00          8.33          8.05          8.19         10.49
   138.97 16510.39         76.00         99.71        125.00          8.43          7.91          8.16          9.90
   138.96 16511.56         75.86         99.43        124.86          8.48          7.87          8.16          9.79
