#Written by Robertson Geologging WinLogger V1.5/410
~VERSION INFORMATION
#------------------------------------------------------------------------------
 VERS. 2.0 : CWLS LOG ASCII STANDARD - VERSION 2.0
 WRAP. NO  : ONE LINE PER DEPTH STEP
~WELL INFORMATION
#MNEM.UNIT         DATA                                DESCRIPTION OF MNEMONIC
#------------------------------------------------------------------------------
 STRT.M        348.0200                            :   START DEPTH
 STOP.M        107.2000                            :   STOP DEPTH
 STEP.M         -0.0100                            :   STEP VALUE
 NULL.        -999.2500                            :   NULL VALUE
 COMP.    GEUSd.                                   :   COMPANY NAME
 WELL.    59.459                                   :   WELL NAME
 FLD.     Jylland                                  :   FIELD NAME
 LOC.     N/A                                      :   LOCATION
 PROV.    N/A                                      :   PROVINCE
 SRVC.    N/A                                      :   SERVICE COMPANY NAME
 DATE.    27 May 14                                :   DATE
 UWI.     N/A                                      :   UNIQUE WELL IDENTIFIER
~PARAMETER INFORMATION
#MNEMO.UNIT         VALUE                 DESCRIPTION OF MNEMONIC
#------------------------------------------------------------------------------
~OTHER INFORMATION SECTION
#------------------------------------------------------------------------------
~CURVE INFORMATION
#MNEMO.UNIT         API CODE              CURVE DESCRIPTION
#------------------------------------------------------------------------------
 DEPTH.M                                 :   0     Depth
 TIME.SEC                                :   1     Time
 TXRX1.µs                                :   2     TXRX1
 TXRX2.µs                                :   3     TXRX2
 TXRX3.µs                                :   4     TXRX3
 R1R2.KM/S                               :   5     R1R2
 R2R3.KM/S                               :   6     R2R3
 R1R3.KM/S                               :   7     R1R3
 OUT6.API                                :   8     Natural Gamma
#------------------------------------------------------------------------------
~A  DEPTH     TIME         TXRX1         TXRX2         TXRX3          R1R2          R2R3          R1R3          OUT6
# ...
   316.28  2872.01         63.86         83.86        103.43         10.00         10.22         10.11          9.40
   316.27  2873.24         63.86         84.00        103.57          9.93         10.22         10.07          9.39
   316.26  2874.01         63.86         84.00        103.57          9.93         10.22         10.07          9.21
   316.25  2874.77         64.00         84.00        103.57         10.00         10.22         10.11          9.15
   316.24  2876.08         64.00         83.86        103.57         10.07         10.14         10.11          8.95
   316.23  2877.31         64.00         83.86        103.43         10.07         10.22         10.14          9.13
   316.22  2878.24         64.00         83.86        103.29         10.07         10.29         10.18          9.26
   316.21  2879.18         64.00         83.71        103.29         10.14         10.22         10.18          9.52
   316.20  2880.06         64.14         83.71        103.14         10.22         10.29         10.26          9.68
   316.19  2880.96         64.29         83.71        103.00         10.29         10.37         10.33          9.52
   316.18  2881.89         64.29         83.71        103.00         10.29         10.37         10.33          9.40
   316.17  2882.81         64.29         83.86        103.00         10.22         10.45         10.33          9.31
   316.16  2883.58         64.29         83.71        103.00         10.29         10.37         10.33          9.01
   316.15  2884.61         64.29         83.71        103.00         10.29         10.37         10.33          8.84
   316.14  2885.27         64.43         83.86        103.00         10.29         10.45         10.37          8.42
   316.13  2886.13         64.43         83.86        103.00         10.29         10.45         10.37          8.64
   316.12  2886.97         64.43         83.86        103.00         10.29         10.45         10.37          8.44
   316.11  2888.11         64.43         83.71        103.00         10.37         10.37         10.37          8.29
   316.10  2889.05         64.43         83.57        103.00         10.45         10.29         10.37          8.56
   316.09  2890.19         64.43         83.71        103.00         10.37         10.37         10.37          8.59
   316.08  2891.04         64.57         83.71        103.14         10.45         10.29         10.37          8.64
   316.07  2891.99         64.43         83.71        103.14         10.37         10.29         10.33          8.62
   316.06  2892.74         64.43         83.71        103.29         10.37         10.22         10.29          8.30
   316.05  2893.68         64.29         83.71        103.29         10.29         10.22         10.26          7.99
   316.04  2894.43         64.43         83.86        103.29         10.29         10.29         10.29          7.81
   316.03  2895.39         64.43         84.00        103.29         10.22         10.37         10.29          7.96
   316.02  2896.14         64.43         84.00        103.29         10.22         10.37         10.29          8.11
   316.01  2897.17         64.29         84.00        103.14         10.14         10.45         10.29          7.92
   316.00  2898.21         64.29         84.00        103.14         10.14         10.45         10.29          8.05
   315.99  2899.16         64.29         84.00        103.00         10.14         10.53         10.33          8.28
   315.98  2899.92         64.29         84.00        103.00         10.14         10.53         10.33          8.32
   315.97  2901.08         64.14         84.00        103.00         10.07         10.53         10.29          8.48
   315.96  2901.92         64.14         84.00        103.14         10.07         10.45         10.26          8.19
   315.95  2902.86         64.14         84.00        103.14         10.07         10.45         10.26          8.89
   315.94  2903.79         64.29         84.00        103.14         10.14         10.45         10.29          8.73
   315.93  2904.83         64.43         84.00        103.14         10.22         10.45         10.33          8.29
   315.92  2906.23         64.43         84.00        103.14         10.22         10.45         10.33          8.89
   315.91  2907.36         64.43         84.00        103.14         10.22         10.45         10.33          8.35
   315.90  2908.30         64.43         84.00        103.14         10.22         10.45         10.33          8.75
   315.89  2909.25         64.43         84.00        103.00         10.22         10.53         10.37          8.97
   315.88  2910.21         64.43         84.00        103.00         10.22         10.53         10.37          8.97
   315.87  2911.16         64.29         84.00        103.00         10.14         10.53         10.33          9.01
   315.86  2912.11         64.14         84.00        102.86         10.07         10.61         10.33          8.97
   315.85  2913.05         64.00         84.00        102.86         10.00         10.61         10.29          8.77
   315.84  2914.00         64.00         84.00        102.86         10.00         10.61         10.29          8.91
   315.83  2914.94         64.00         83.86        102.86         10.07         10.53         10.29          8.83
   315.82  2915.89         64.00         83.71        102.86         10.14         10.45         10.29          8.48
   315.81  2916.83         64.14         83.57        102.86         10.29         10.37         10.33          8.84
   315.80  2917.77         64.29         83.57        102.86         10.37         10.37         10.37          8.70
   315.79  2918.72         64.29         83.43        102.86         10.45         10.29         10.37          8.64
   315.78  2919.67         64.43         83.29        102.71         10.61         10.29         10.45          8.26
   315.77  2920.62         64.43         83.14        102.71         10.69         10.22         10.45          8.43
   315.76  2921.56         64.43         83.14        102.57         10.69         10.29         10.49          8.59
   315.75  2922.49         64.43         83.14        102.57         10.69         10.29         10.49          8.01
   315.74  2923.44         64.29         83.14        102.57         10.61         10.29         10.45          8.52
   315.73  2924.38         64.14         83.00        102.57         10.61         10.22         10.41          8.75
   315.72  2925.31         64.14         83.00        102.71         10.61         10.14         10.37          8.54
   315.71  2926.25         64.00         83.00        102.86         10.53         10.07         10.29          8.70
   315.70  2927.21         64.00         83.00        102.86         10.53         10.07         10.29          8.76
   315.69  2928.15         64.00         83.00        103.00         10.53         10.00         10.26          8.72
   315.68  2929.09         64.00         83.00        103.00         10.53         10.00         10.26          8.70
   315.67  2930.03         64.00         83.00        103.00         10.53         10.00         10.26          8.63
   315.66  2931.01         63.86         83.00        103.00         10.45         10.00         10.22          8.60
   315.65  2932.00         63.86         83.00        103.00         10.45         10.00         10.22          8.97
   315.64  2933.01         63.71         83.00        103.00         10.37         10.00         10.18          8.88
   315.63  2933.93         63.71         83.00        103.00         10.37         10.00         10.18          9.02
   315.62  2934.77         63.71         83.00        103.00         10.37         10.00         10.18          9.47
   315.61  2935.93         63.71         83.00        103.00         10.37         10.00         10.18          9.75
   315.60  2937.03         63.71         83.00        102.86         10.37         10.07         10.22          9.73
