#Written by Robertson Geologging WinLogger V1.5/410
~VERSION INFORMATION
#------------------------------------------------------------------------------
 VERS. 2.0 : CWLS LOG ASCII STANDARD - VERSION 2.0
 WRAP. NO  : ONE LINE PER DEPTH STEP
~WELL INFORMATION
#MNEM.UNIT         DATA                                DESCRIPTION OF MNEMONIC
#------------------------------------------------------------------------------
 STRT.M        348.0200                            :   START DEPTH
 STOP.M        107.2000                            :   STOP DEPTH
 STEP.M         -0.0100                            :   STEP VALUE
 NULL.        -999.2500                            :   NULL VALUE
 COMP.    GEUSd.                                   :   COMPANY NAME
 WELL.    59.459                                   :   WELL NAME
 FLD.     Jylland                                  :   FIELD NAME
 LOC.     N/A                                      :   LOCATION
 PROV.    N/A                                      :   PROVINCE
 SRVC.    N/A                                      :   SERVICE COMPANY NAME
 DATE.    27 May 14                                :   DATE
 UWI.     N/A                                      :   UNIQUE WELL IDENTIFIER
~PARAMETER INFORMATION
#MNEMO.UNIT         VALUE                 DESCRIPTION OF MNEMONIC
#------------------------------------------------------------------------------
~OTHER INFORMATION SECTION
#------------------------------------------------------------------------------
~CURVE INFORMATION
#MNEMO.UNIT         API CODE              CURVE DESCRIPTION
#------------------------------------------------------------------------------
 DEPTH.M                                 :   0     Depth
 TIME.SEC                                :   1     Time
 TXRX1.µs                                :   2     TXRX1
 TXRX2.µs                                :   3     TXRX2
 TXRX3.µs                                :   4     TXRX3
 R1R2.KM/S                               :   5     R1R2
 R2R3.KM/S                               :   6     R2R3
 R1R3.KM/S                               :   7     R1R3
 OUT6.API                                :   8     Natural Gamma
#------------------------------------------------------------------------------
~A  DEPTH     TIME         TXRX1         TXRX2         TXRX3          R1R2          R2R3          R1R3          OUT6
# ...
   236.24  9808.26         72.00         95.57        116.14          8.48          9.72          9.06          6.84
   236.23  9809.00         72.00         95.57        116.14          8.48          9.72          9.06          6.75
   236.22  9809.84         71.86         95.57        116.14          8.43          9.72          9.03          6.50
   236.21  9810.58         71.71         95.57        116.14          8.38          9.72          9.00          6.58
   236.20  9811.25         71.71         95.43        116.14          8.43          9.66          9.00          6.53
   236.19  9811.92         71.71         95.29        116.14          8.48          9.59          9.00          6.29
   236.18  9812.59         71.86         95.14        116.14          8.59          9.52          9.03          6.28
   236.17  9813.44         72.00         95.00        116.00          8.70          9.52          9.09          6.48
   236.16  9814.45         72.14         95.00        116.00          8.75          9.52          9.12          6.70
   236.15  9815.20         72.43         95.00        116.00          8.86          9.52          9.18          6.86
   236.14  9815.95         72.57         95.00        116.00          8.92          9.52          9.21          6.70
   236.13  9816.60         72.57         95.00        116.00          8.92          9.52          9.21          6.99
   236.12  9817.62         72.43         95.00        116.00          8.86          9.52          9.18          6.98
   236.11  9818.56         72.14         94.86        116.00          8.81          9.46          9.12          7.43
   236.10  9819.38         71.86         94.71        116.00          8.75          9.40          9.06          7.41
   236.09  9820.19         71.57         94.57        116.00          8.70          9.33          9.00          7.68
   236.08  9821.11         71.29         94.43        115.86          8.64          9.33          8.97          7.50
   236.07  9821.85         71.14         94.14        115.86          8.70          9.21          8.95          7.41
   236.06  9822.68         71.00         93.86        115.71          8.75          9.15          8.95          7.14
   236.05  9823.36         71.00         93.57        115.57          8.86          9.09          8.97          7.22
   236.04  9824.20         71.14         93.43        115.43          8.97          9.09          9.03          7.41
   236.03  9824.95         71.14         93.29        115.29          9.03          9.09          9.06          7.26
   236.02  9825.86         71.14         93.14        115.14          9.09          9.09          9.09          7.11
   236.01  9826.53         71.14         93.00        115.14          9.15          9.03          9.09          7.03
   236.00  9827.53         71.14         93.00        114.86          9.15          9.15          9.15          7.09
   235.99  9828.35         71.14         93.00        114.71          9.15          9.21          9.18          7.08
   235.98  9829.17         71.14         93.00        114.57          9.15          9.27          9.21          6.90
   235.97  9830.00         71.00         93.00        114.43          9.09          9.33          9.21          7.16
   235.96  9830.83         71.00         93.00        114.29          9.09          9.40          9.24          6.81
   235.95  9831.67         71.00         93.00        114.14          9.09          9.46          9.27          7.27
   235.94  9832.50         71.00         93.00        114.00          9.09          9.52          9.30          7.27
   235.93  9833.34         71.00         92.86        114.00          9.15          9.46          9.30          7.30
   235.92  9834.16         71.00         92.86        114.00          9.15          9.46          9.30          6.86
   235.91  9835.01         71.00         92.71        113.86          9.21          9.46          9.33          6.80
   235.90  9835.84         71.00         92.57        113.86          9.27          9.40          9.33          6.93
   235.89  9836.69         71.00         92.57        113.71          9.27          9.46          9.36          6.86
   235.88  9837.52         71.00         92.43        113.57          9.33          9.46          9.40          6.73
   235.87  9838.33         71.00         92.43        113.43          9.33          9.52          9.43          6.68
   235.86  9839.18         71.00         92.43        113.29          9.33          9.59          9.46          6.79
   235.85  9840.28         71.00         92.29        113.14          9.40          9.59          9.49          7.02
   235.84  9841.10         71.00         92.29        113.29          9.40          9.52          9.46          7.35
   235.83  9841.71         70.86         92.29        113.14          9.33          9.59          9.46          7.28
   235.82  9842.53         70.86         92.29        113.14          9.33          9.59          9.46          6.95
   235.81  9843.28         70.71         92.29        113.14          9.27          9.59          9.43          6.91
   235.80  9844.04         70.57         92.14        113.14          9.27          9.52          9.40          6.47
   235.79  9844.95         70.43         92.14        113.14          9.21          9.52          9.36          6.86
   235.78  9845.73         70.29         92.14        113.14          9.15          9.52          9.33          6.49
   235.77  9846.76         70.14         92.14        113.00          9.09          9.59          9.33          6.40
   235.76  9847.55         70.14         92.14        113.00          9.09          9.59          9.33          6.47
   235.75  9848.44         70.00         92.00        113.00          9.09          9.52          9.30          7.08
   235.74  9849.28         70.00         92.00        112.86          9.09          9.59          9.33          6.94
   235.73  9850.11         70.00         91.86        112.86          9.15          9.52          9.33          6.99
   235.72  9850.91         70.00         91.71        112.86          9.21          9.46          9.33          7.14
   235.71  9851.72         70.00         91.57        112.86          9.27          9.40          9.33          7.35
   235.70  9852.55         70.14         91.43        112.86          9.40          9.33          9.36          7.46
   235.69  9853.39         70.14         91.29        112.86          9.46          9.27          9.36          7.44
   235.68  9854.23         70.14         91.14        112.86          9.52          9.21          9.36          7.09
   235.67  9855.06         70.29         91.00        112.86          9.66          9.15          9.40          6.66
   235.66  9855.89         70.43         91.00        112.71          9.72          9.21          9.46          6.60
   235.65  9856.64         70.57         91.00        112.57          9.79          9.27          9.52          6.55
   235.64  9857.40         70.57         91.00        112.43          9.79          9.33          9.56          6.46
   235.63  9858.23         70.43         91.00        112.29          9.72          9.40          9.56          6.93
   235.62  9859.06         70.43         91.00        112.14          9.72          9.46          9.59          6.91
   235.61  9859.89         70.29         91.00        112.00          9.66          9.52          9.59          6.91
   235.60  9860.73         70.00         91.00        112.00          9.52          9.52          9.52          6.81
   235.59  9861.57         69.71         91.00        112.00          9.40          9.52          9.46          6.63
   235.58  9862.40         69.43         91.14        112.00          9.21          9.59          9.40          6.90
   235.57  9863.24         69.29         91.29        112.00          9.09          9.66          9.36          7.08
   235.56  9864.06         69.14         91.43        112.00          8.97          9.72          9.33          6.80
