#Written by Robertson Geologging WinLogger V1.5/410
~VERSION INFORMATION
#------------------------------------------------------------------------------
 VERS. 2.0 : CWLS LOG ASCII STANDARD - VERSION 2.0
 WRAP. NO  : ONE LINE PER DEPTH STEP
~WELL INFORMATION
#MNEM.UNIT         DATA                                DESCRIPTION OF MNEMONIC
#------------------------------------------------------------------------------
 STRT.M        348.0200                            :   START DEPTH
 STOP.M        107.2000                            :   STOP DEPTH
 STEP.M         -0.0100                            :   STEP VALUE
 NULL.        -999.2500                            :   NULL VALUE
 COMP.    GEUSd.                                   :   COMPANY NAME
 WELL.    59.459                                   :   WELL NAME
 FLD.     Jylland                                  :   FIELD NAME
 LOC.     N/A                                      :   LOCATION
 PROV.    N/A                                      :   PROVINCE
 SRVC.    N/A                                      :   SERVICE COMPANY NAME
 DATE.    27 May 14                                :   DATE
 UWI.     N/A                                      :   UNIQUE WELL IDENTIFIER
~PARAMETER INFORMATION
#MNEMO.UNIT         VALUE                 DESCRIPTION OF MNEMONIC
#------------------------------------------------------------------------------
~OTHER INFORMATION SECTION
#------------------------------------------------------------------------------
~CURVE INFORMATION
#MNEMO.UNIT         API CODE              CURVE DESCRIPTION
#------------------------------------------------------------------------------
 DEPTH.M                                 :   0     Depth
 TIME.SEC                                :   1     Time
 TXRX1.µs                                :   2     TXRX1
 TXRX2.µs                                :   3     TXRX2
 TXRX3.µs                                :   4     TXRX3
 R1R2.KM/S                               :   5     R1R2
 R2R3.KM/S                               :   6     R2R3
 R1R3.KM/S                               :   7     R1R3
 OUT6.API                                :   8     Natural Gamma
#------------------------------------------------------------------------------
~A  DEPTH     TIME         TXRX1         TXRX2         TXRX3          R1R2          R2R3          R1R3          OUT6
# ...
   219.68 11191.87         72.14         95.14        116.43          8.70          9.40          9.03          7.67
   219.67 11192.53         72.00         95.29        116.43          8.59          9.46          9.00          8.35
   219.66 11193.18         71.86         95.29        116.43          8.54          9.46          8.97          8.46
   219.65 11193.82         71.71         95.29        116.57          8.48          9.40          8.92          8.57
   219.64 11194.47         71.71         95.43        116.71          8.43          9.40          8.89          8.51
   219.63 11195.12         71.57         95.29        116.86          8.43          9.27          8.83          8.95
   219.62 11195.77         71.43         95.29        117.14          8.38          9.15          8.75          9.02
   219.61 11196.42         71.43         95.29        117.29          8.38          9.09          8.72          9.27
   219.60 11197.09         71.43         95.14        117.43          8.43          8.97          8.70          8.91
   219.59 11197.77         71.57         95.14        117.43          8.48          8.97          8.72          8.30
   219.58 11198.47         71.71         95.14        117.43          8.54          8.97          8.75          7.95
   219.57 11199.22         71.57         95.00        117.29          8.54          8.97          8.75          7.95
   219.56 11199.82         71.57         94.86        117.29          8.59          8.92          8.75          7.94
   219.55 11200.45         71.57         94.71        117.29          8.64          8.86          8.75          8.31
   219.54 11201.08         71.43         94.57        117.43          8.64          8.75          8.70          8.02
   219.53 11201.72         71.29         94.43        117.57          8.64          8.64          8.64          8.23
   219.52 11202.37         71.14         94.29        117.57          8.64          8.59          8.62          8.56
   219.51 11203.02         71.00         94.14        117.71          8.64          8.48          8.56          8.50
   219.50 11203.61         71.00         94.00        117.71          8.70          8.43          8.56          7.87
   219.49 11204.33         71.00         94.00        117.71          8.70          8.43          8.56          7.95
   219.48 11204.91         71.00         94.00        117.57          8.70          8.48          8.59          8.03
   219.47 11205.64         71.00         94.00        117.43          8.70          8.54          8.62          8.18
   219.46 11206.28         71.00         94.00        117.29          8.70          8.59          8.64          7.71
   219.45 11207.00         71.00         94.00        117.14          8.70          8.64          8.67          8.09
   219.44 11207.77         71.00         94.00        117.00          8.70          8.70          8.70          7.92
   219.43 11208.49         71.00         94.00        117.14          8.70          8.64          8.67          8.11
   219.42 11209.60         71.00         94.14        117.00          8.64          8.75          8.70          8.48
   219.41 11210.31         71.00         94.14        117.00          8.64          8.75          8.70          8.40
   219.40 11210.96         71.00         94.14        116.86          8.64          8.81          8.72          8.66
   219.39 11211.62         71.00         94.14        116.86          8.64          8.81          8.72          8.49
   219.38 11212.28         71.00         94.00        116.86          8.70          8.75          8.72          8.12
   219.37 11212.93         71.00         94.00        116.71          8.70          8.81          8.75          8.49
   219.36 11213.58         71.00         93.86        116.43          8.75          8.86          8.81          8.30
   219.35 11214.23         71.00         93.57        116.14          8.86          8.86          8.86          8.16
   219.34 11214.87         71.00         93.57        115.86          8.86          8.97          8.92          7.95
   219.33 11215.46         71.00         93.57        115.86          8.86          8.97          8.92          8.01
   219.32 11216.18         71.00         93.57        115.71          8.86          9.03          8.95          7.85
   219.31 11216.90         71.00         93.71        115.57          8.81          9.15          8.97          8.03
   219.30 11217.47         71.00         93.57        115.71          8.86          9.03          8.95          8.49
   219.29 11218.05         71.00         93.71        116.00          8.81          8.97          8.89          8.44
   219.28 11218.76         71.00         93.86        115.86          8.75          9.09          8.92          7.88
   219.27 11219.93         71.00         93.71        115.71          8.81          9.09          8.95          7.45
   219.26 11220.58         71.00         93.57        115.57          8.86          9.09          8.97          7.47
   219.25 11221.68         71.00         93.43        116.00          8.92          8.86          8.89          7.44
   219.24 11222.72         71.00         93.29        116.57          8.97          8.59          8.78          7.73
   219.23 11223.38         71.00         93.29        116.86          8.97          8.48          8.72          7.52
   219.22 11223.95         71.14         93.14        117.00          9.09          8.38          8.72          7.26
   219.21 11225.19         71.14         93.00        117.71          9.15          8.09          8.59          7.24
   219.20 11225.97         71.29         93.00        118.43          9.21          7.87          8.48          6.72
   219.19 11226.68         71.43         93.00        119.00          9.27          7.69          8.41          6.39
   219.18 11227.26         71.57         92.86        119.00          9.40          7.65          8.43          6.29
   219.17 11228.04         71.71         92.43        119.00          9.66          7.53          8.46          6.23
   219.16 11228.64         71.86         92.43        119.00          9.72          7.53          8.48          6.24
   219.15 11229.23         71.86         92.43        119.00          9.72          7.53          8.48          6.20
   219.14 11229.82         72.00         93.00        119.00          9.52          7.69          8.51          6.12
   219.13 11230.41         72.00         93.57        118.86          9.27          7.91          8.54          5.76
   219.12 11231.06         72.00         94.29        118.71          8.97          8.19          8.56          5.94
   219.11 11231.71         72.00         95.14        118.57          8.64          8.54          8.59          5.86
   219.10 11232.36         72.00         96.29        118.43          8.24          9.03          8.62          5.94
   219.09 11233.01         72.00         97.00        118.29          8.00          9.40          8.64          5.73
   219.08 11233.67         72.00         97.57        118.14          7.82          9.72          8.67          5.80
   219.07 11234.31         71.86         97.57        118.00          7.78          9.79          8.67          5.78
   219.06 11234.96         71.71         97.57        118.00          7.73          9.79          8.64          5.92
   219.05 11235.62         71.71         97.43        118.00          7.78          9.72          8.64          5.74
   219.04 11236.27         71.86         97.14        118.00          7.91          9.59          8.67          6.06
   219.03 11236.92         72.14         96.86        118.14          8.09          9.40          8.70          6.21
   219.02 11237.59         72.43         96.57        118.14          8.28          9.27          8.75          6.04
   219.01 11238.28         72.71         96.43        118.29          8.43          9.15          8.78          6.17
   219.00 11238.96         73.29         96.14        118.29          8.75          9.03          8.89          6.19
