#Written by Robertson Geologging WinLogger V1.5/410
~VERSION INFORMATION
#------------------------------------------------------------------------------
 VERS. 2.0 : CWLS LOG ASCII STANDARD - VERSION 2.0
 WRAP. NO  : ONE LINE PER DEPTH STEP
~WELL INFORMATION
#MNEM.UNIT         DATA                                DESCRIPTION OF MNEMONIC
#------------------------------------------------------------------------------
 STRT.M        348.0200                            :   START DEPTH
 STOP.M        107.2000                            :   STOP DEPTH
 STEP.M         -0.0100                            :   STEP VALUE
 NULL.        -999.2500                            :   NULL VALUE
 COMP.    GEUSd.                                   :   COMPANY NAME
 WELL.    59.459                                   :   WELL NAME
 FLD.     Jylland                                  :   FIELD NAME
 LOC.     N/A                                      :   LOCATION
 PROV.    N/A                                      :   PROVINCE
 SRVC.    N/A                                      :   SERVICE COMPANY NAME
 DATE.    27 May 14                                :   DATE
 UWI.     N/A                                      :   UNIQUE WELL IDENTIFIER
~PARAMETER INFORMATION
#MNEMO.UNIT         VALUE                 DESCRIPTION OF MNEMONIC
#------------------------------------------------------------------------------
~OTHER INFORMATION SECTION
#------------------------------------------------------------------------------
~CURVE INFORMATION
#MNEMO.UNIT         API CODE              CURVE DESCRIPTION
#------------------------------------------------------------------------------
 DEPTH.M                                 :   0     Depth
 TIME.SEC                                :   1     Time
 TXRX1.µs                                :   2     TXRX1
 TXRX2.µs                                :   3     TXRX2
 TXRX3.µs                                :   4     TXRX3
 R1R2.KM/S                               :   5     R1R2
 R2R3.KM/S                               :   6     R2R3
 R1R3.KM/S                               :   7     R1R3
 OUT6.API                                :   8     Natural Gamma
#------------------------------------------------------------------------------
~A  DEPTH     TIME         TXRX1         TXRX2         TXRX3          R1R2          R2R3          R1R3          OUT6
# ...
   203.81 12254.11         71.00         93.86        115.86          8.75          9.09          8.92         10.25
   203.80 12254.76         71.00         93.86        115.71          8.75          9.15          8.95          9.43
   203.79 12255.42         71.00         93.71        115.57          8.81          9.15          8.97          8.75
   203.78 12256.09         71.00         93.57        115.43          8.86          9.15          9.00          8.44
   203.77 12256.77         71.00         93.57        115.29          8.86          9.21          9.03          8.55
   203.76 12257.45         71.00         93.57        115.14          8.86          9.27          9.06          9.57
   203.75 12258.14         71.00         93.43        115.14          8.92          9.21          9.06          9.55
   203.74 12258.78         71.00         93.29        115.00          8.97          9.21          9.09          9.08
   203.73 12259.42         71.00         93.14        115.00          9.03          9.15          9.09          9.07
   203.72 12260.04         71.00         93.14        115.00          9.03          9.15          9.09          8.62
   203.71 12260.68         71.00         93.14        115.00          9.03          9.15          9.09          8.50
   203.70 12261.26         71.00         93.00        115.00          9.09          9.09          9.09          9.30
   203.69 12261.83         71.00         92.86        115.00          9.15          9.03          9.09          9.65
   203.68 12262.48         71.00         92.86        115.00          9.15          9.03          9.09          9.31
   203.67 12263.13         71.00         92.71        115.00          9.21          8.97          9.09          8.98
   203.66 12263.85         71.00         92.57        114.86          9.27          8.97          9.12          9.67
   203.65 12264.95         71.00         92.57        114.71          9.27          9.03          9.15          9.22
   203.64 12265.65         71.00         92.43        114.57          9.33          9.03          9.18          9.56
   203.63 12266.37         71.00         92.43        114.43          9.33          9.09          9.21         10.12
   203.62 12267.02         71.00         92.43        114.29          9.33          9.15          9.24         10.45
   203.61 12267.61         71.00         92.29        114.14          9.40          9.15          9.27         10.64
   203.60 12268.32         71.00         92.29        114.00          9.40          9.21          9.30         10.49
   203.59 12269.04         71.00         92.29        114.00          9.40          9.21          9.30          9.77
   203.58 12269.69         71.00         92.14        114.00          9.46          9.15          9.30         10.46
   203.57 12270.34         71.00         92.14        114.00          9.46          9.15          9.30         11.04
   203.56 12271.00         70.86         92.14        114.00          9.40          9.15          9.27         11.07
   203.55 12271.67         70.86         92.00        114.00          9.46          9.09          9.27         11.10
   203.54 12272.32         70.71         92.00        114.00          9.40          9.09          9.24         11.33
   203.53 12272.97         70.71         92.00        114.00          9.40          9.09          9.24         10.98
   203.52 12273.56         70.57         92.00        114.00          9.33          9.09          9.21         10.51
   203.51 12274.14         70.43         92.00        114.00          9.27          9.09          9.18         10.62
   203.50 12274.74         70.29         92.00        114.00          9.21          9.09          9.15         10.61
   203.49 12275.46         70.29         92.00        114.00          9.21          9.09          9.15         10.38
   203.48 12276.11         70.14         92.00        114.00          9.15          9.09          9.12         10.50
   203.47 12276.75         70.14         92.00        113.86          9.15          9.15          9.15         11.06
   203.46 12277.40         70.00         92.00        113.86          9.09          9.15          9.12         10.38
   203.45 12278.04         69.86         92.00        113.86          9.03          9.15          9.09         10.06
   203.44 12278.70         69.86         91.86        113.86          9.09          9.09          9.09          9.98
   203.43 12279.35         69.71         91.86        113.86          9.03          9.09          9.06         10.24
   203.42 12280.00         69.57         91.86        113.86          8.97          9.09          9.03         10.27
   203.41 12280.64         69.43         91.86        113.71          8.92          9.15          9.03          9.35
   203.40 12281.30         69.29         91.71        113.86          8.92          9.03          8.97          9.54
   203.39 12281.95         69.14         91.57        113.71          8.92          9.03          8.97          9.40
   203.38 12282.60         69.14         91.43        113.57          8.97          9.03          9.00          9.82
   203.37 12283.24         69.00         91.43        113.43          8.92          9.09          9.00          9.82
   203.36 12283.89         69.00         91.29        113.29          8.97          9.09          9.03          9.76
   203.35 12284.67         69.00         91.14        113.14          9.03          9.09          9.06          9.83
   203.34 12285.33         69.00         91.00        113.14          9.09          9.03          9.06          9.99
   203.33 12286.06         69.00         91.00        113.00          9.09          9.09          9.09         10.36
   203.32 12286.70         69.00         91.00        112.86          9.09          9.15          9.12         10.61
   203.31 12287.36         69.00         91.00        112.71          9.09          9.21          9.15         11.72
   203.30 12288.01         69.00         91.00        112.57          9.09          9.27          9.18         10.71
   203.29 12288.67         69.00         91.14        112.29          9.03          9.46          9.24         11.52
   203.28 12289.33         69.00         91.14        111.86          9.03          9.66          9.33         11.98
   203.27 12289.99         69.00         91.29        111.43          8.97          9.93          9.43         12.00
   203.26 12290.65         69.00         91.29        111.00          8.97         10.14          9.52         11.66
   203.25 12291.30         69.00         91.43        110.57          8.92         10.45          9.62         11.32
   203.24 12291.96         69.00         91.43        110.00          8.92         10.77          9.76         11.55
   203.23 12292.61         69.00         91.43        111.00          8.92         10.22          9.52         11.60
   203.22 12293.27         69.14         91.14        112.14          9.09          9.52          9.30         11.56
   203.21 12293.92         69.29         90.86        113.43          9.27          8.86          9.06         11.26
   203.20 12294.58         69.43         90.43        114.57          9.52          8.28          8.86         11.03
   203.19 12295.23         69.57         90.14        115.71          9.72          7.82          8.67         10.87
   203.18 12295.89         69.57         89.57        117.00         10.00          7.29          8.43         10.92
   203.17 12296.56         69.71         89.00        118.29         10.37          6.83          8.24         10.87
   203.16 12297.25         69.86         88.57        118.00         10.69          6.80          8.31         10.28
   203.15 12297.93         69.86         88.14        117.71         10.94          6.76          8.36          9.91
   203.14 12298.64         69.86         87.71        117.43         11.20          6.73          8.41          9.03
   203.13 12299.30         69.86         89.00        117.29         10.45          7.07          8.43          9.81
