#Written by Robertson Geologging WinLogger V1.5/410
~VERSION INFORMATION
#------------------------------------------------------------------------------
 VERS. 2.0 : CWLS LOG ASCII STANDARD - VERSION 2.0
 WRAP. NO  : ONE LINE PER DEPTH STEP
~WELL INFORMATION
#MNEM.UNIT         DATA                                DESCRIPTION OF MNEMONIC
#------------------------------------------------------------------------------
 STRT.M        348.0200                            :   START DEPTH
 STOP.M        107.2000                            :   STOP DEPTH
 STEP.M         -0.0100                            :   STEP VALUE
 NULL.        -999.2500                            :   NULL VALUE
 COMP.    GEUSd.                                   :   COMPANY NAME
 WELL.    59.459                                   :   WELL NAME
 FLD.     Jylland                                  :   FIELD NAME
 LOC.     N/A                                      :   LOCATION
 PROV.    N/A                                      :   PROVINCE
 SRVC.    N/A                                      :   SERVICE COMPANY NAME
 DATE.    27 May 14                                :   DATE
 UWI.     N/A                                      :   UNIQUE WELL IDENTIFIER
~PARAMETER INFORMATION
#MNEMO.UNIT         VALUE                 DESCRIPTION OF MNEMONIC
#------------------------------------------------------------------------------
~OTHER INFORMATION SECTION
#------------------------------------------------------------------------------
~CURVE INFORMATION
#MNEMO.UNIT         API CODE              CURVE DESCRIPTION
#------------------------------------------------------------------------------
 DEPTH.M                                 :   0     Depth
 TIME.SEC                                :   1     Time
 TXRX1.µs                                :   2     TXRX1
 TXRX2.µs                                :   3     TXRX2
 TXRX3.µs                                :   4     TXRX3
 R1R2.KM/S                               :   5     R1R2
 R2R3.KM/S                               :   6     R2R3
 R1R3.KM/S                               :   7     R1R3
 OUT6.API                                :   8     Natural Gamma
#------------------------------------------------------------------------------
~A  DEPTH     TIME         TXRX1         TXRX2         TXRX3          R1R2          R2R3          R1R3          OUT6
# ...
   107.90 18800.75         20.00         20.00         20.00          1.#J          1.#J          1.#J       1260.00
   107.89 18800.75         20.00         20.00         20.00          1.#J          1.#J          1.#J       1260.00
   107.88 18800.75         20.00         20.00         20.00          1.#J          1.#J          1.#J       1260.00
   107.87 18800.75         20.00         20.00         20.00          1.#J          1.#J          1.#J       1260.00
   107.86 18800.75         20.00         20.00         20.00          1.#J          1.#J          1.#J       1260.00
   107.85 18800.75         20.00         20.00         20.00          1.#J          1.#J          1.#J       1260.00
   107.84 18800.75         20.00         20.00         20.00          1.#J          1.#J          1.#J       1260.00
   107.83 18800.75         20.00         20.00         20.00          1.#J          1.#J          1.#J       1260.00
   107.82 18800.75         20.00         20.00         20.00          1.#J          1.#J          1.#J       1260.00
   107.81 18800.75         20.00         20.00         20.00          1.#J          1.#J          1.#J       1260.00
   107.80 18800.75         20.00         20.00         20.00          1.#J          1.#J          1.#J       1260.00
   107.79 18800.75         20.00         20.00         20.00          1.#J          1.#J          1.#J       1260.00
   107.78 18800.75         20.00         20.00         20.00          1.#J          1.#J          1.#J       1260.00
   107.77 18800.75         20.00         20.00         20.00          1.#J          1.#J          1.#J       1260.00
   107.76 18800.75         20.00         20.00         20.00          1.#J          1.#J          1.#J       1260.00
   107.75 18800.75         20.00         20.00         20.00          1.#J          1.#J          1.#J       1260.00
   107.74 18800.75         20.00         20.00         20.00          1.#J          1.#J          1.#J       1260.00
   107.73 18800.75         20.00         20.00         20.00          1.#J          1.#J          1.#J       1260.00
   107.72 18800.75         20.00         20.00         20.00          1.#J          1.#J          1.#J       1260.00
   107.71 18800.75         20.00         20.00         20.00          1.#J          1.#J          1.#J       1260.00
   107.70 18800.75         20.00         20.00         20.00          1.#J          1.#J          1.#J       1260.00
   107.69 18800.75         20.00         20.00         20.00          1.#J          1.#J          1.#J       1260.00
   107.68 18800.75         20.00         20.00         20.00          1.#J          1.#J          1.#J       1260.00
   107.67 18800.75         20.00         20.00         20.00          1.#J          1.#J          1.#J       1260.00
   107.66 18800.75         20.00         20.00         20.00          1.#J          1.#J          1.#J       1260.00
   107.65 18800.75         20.00         20.00         20.00          1.#J          1.#J          1.#J       1260.00
   107.64 18800.75         20.00         20.00         20.00          1.#J          1.#J          1.#J       1260.00
   107.63 18800.75         20.00         20.00         20.00          1.#J          1.#J          1.#J       1260.00
   107.62 18800.75         20.00         20.00         20.00          1.#J          1.#J          1.#J       1260.00
   107.61 18800.75         20.00         20.00         20.00          1.#J          1.#J          1.#J       1260.00
   107.60 18800.75         20.00         20.00         20.00          1.#J          1.#J          1.#J       1260.00
   107.59 18800.75         20.00         20.00         20.00          1.#J          1.#J          1.#J       1260.00
   107.58 18800.75         20.00         20.00         20.00          1.#J          1.#J          1.#J       1260.00
   107.57 18800.75         20.00         20.00         20.00          1.#J          1.#J          1.#J       1260.00
   107.56 18800.75         20.00         20.00         20.00          1.#J          1.#J          1.#J       1260.00
   107.55 18800.75         20.00         20.00         20.00          1.#J          1.#J          1.#J       1260.00
   107.54 18800.75         20.00         20.00         20.00          1.#J          1.#J          1.#J       1260.00
   107.53 18800.75         20.00         20.00         20.00          1.#J          1.#J          1.#J       1260.00
   107.52 18800.75         20.00         20.00         20.00          1.#J          1.#J          1.#J       1260.00
   107.51 18800.75         20.00         20.00         20.00          1.#J          1.#J          1.#J       1260.00
   107.50 18800.75         20.00         20.00         20.00          1.#J          1.#J          1.#J       1260.00
   107.49 18800.75         20.00         20.00         20.00          1.#J          1.#J          1.#J       1260.00
   107.48 18800.75         20.00         20.00         20.00          1.#J          1.#J          1.#J       1260.00
   107.47 18800.75         20.00         20.00         20.00          1.#J          1.#J          1.#J       1260.00
   107.46 18800.75         20.00         20.00         20.00          1.#J          1.#J          1.#J       1260.00
   107.45 18800.75         20.00         20.00         20.00          1.#J          1.#J          1.#J       1260.00
   107.44 18800.75         20.00         20.00         20.00          1.#J          1.#J          1.#J       1260.00
   107.43 18800.75         20.00         20.00         20.00          1.#J          1.#J          1.#J       1260.00
   107.42 18800.75         20.00         20.00         20.00          1.#J          1.#J          1.#J       1260.00
   107.41 18800.75         20.00         20.00         20.00          1.#J          1.#J          1.#J       1260.00
   107.40 18800.75         20.00         20.00         20.00          1.#J          1.#J          1.#J       1260.00
   107.39 18800.75         20.00         20.00         20.00          1.#J          1.#J          1.#J       1260.00
   107.38 18800.75         20.00         20.00         20.00          1.#J          1.#J          1.#J       1260.00
   107.37 18800.75         20.00         20.00         20.00          1.#J          1.#J          1.#J       1260.00
   107.36 18800.75         20.00         20.00         20.00          1.#J          1.#J          1.#J       1260.00
   107.35 18800.75         20.00         20.00         20.00          1.#J          1.#J          1.#J       1260.00
   107.34 18800.75         20.00         20.00         20.00          1.#J          1.#J          1.#J       1260.00
   107.33 18800.75         20.00         20.00         20.00          1.#J          1.#J          1.#J       1260.00
   107.32 18800.75         20.00         20.00         20.00          1.#J          1.#J          1.#J       1260.00
   107.31 18800.75         20.00         20.00         20.00          1.#J          1.#J          1.#J       1260.00
   107.30 18800.75         20.00         20.00         20.00          1.#J          1.#J          1.#J       1260.00
   107.29 18800.75         20.00         20.00         20.00          1.#J          1.#J          1.#J       1260.00
   107.28 18800.75         20.00         20.00         20.00          1.#J          1.#J          1.#J       1260.00
   107.27 18800.75         20.00         20.00         20.00          1.#J          1.#J          1.#J       1260.00
   107.26 18800.75         20.00         20.00         20.00          1.#J          1.#J          1.#J       1260.00
   107.25 18800.75         20.00         20.00         20.00          1.#J          1.#J          1.#J       1260.00
   107.24 18800.75         20.00         20.00         20.00          1.#J          1.#J          1.#J       1260.00
   107.23 18800.75         20.00         20.00         20.00          1.#J          1.#J          1.#J       1260.00
   107.22 18800.75         20.00         20.00         20.00          1.#J          1.#J          1.#J       1260.00
